t_us,ax_g,ay_g,az_g,gx_dps,gy_dps,gz_dps,roll_deg,pitch_deg,throttle_us,motor_us,m1,m2,m3,m4,mode,rc_roll,rc_pitch,rc_throttle,rc_yaw,rc_age_us,att_sp_roll,att_sp_pitch,att_sp_yaw,rate_sp_roll,rate_sp_pitch,rate_sp_yaw,rate_meas_roll,rate_meas_pitch,rate_meas_yaw,rate_out_roll,rate_out_pitch,rate_out_yaw
6108523,-0.002,0.001,1.002,-0.01,-0.01,-0.02,0.12,0.07,1000,1000,1000,1000,1000,1000,0,1500,1500,989,1500,4294967283,0.00,0.00,0.00,0.00,0.00,0.00,0.00,0.00,0.00,0.00,0.00,0.00
6112523,-0.002,-0.000,1.000,-0.01,-0.00,-0.02,0.08,0.09,1000,1000,1000,1000,1000,1000,0,1500,1500,989,1500,4294967284,0.00,0.00,0.00,0.00,0.00,0.00,0.00,0.00,0.00,0.00,0.00,0.00
6116523,-0.004,0.001,1.000,-0.02,0.00,-0.02,0.08,0.14,1000,1000,1000,1000,1000,1000,0,1500,1500,989,1500,4294967285,0.00,0.00,0.00,0.00,0.00,0.00,0.00,0.00,0.00,0.00,0.00,0.00
6120523,-0.005,0.001,0.998,-0.04,-0.01,-0.02,0.07,0.19,1000,1000,1000,1000,1000,1000,0,1500,1500,989,1500,4294967284,0.00,0.00,0.00,0.00,0.00,0.00,0.00,0.00,0.00,0.00,0.00,0.00
6124523,-0.004,-0.000,0.997,-0.03,-0.02,-0.02,0.04,0.21,1000,1000,1000,1000,1000,1000,0,1500,1500,989,1500,4294967283,0.00,0.00,0.00,0.00,0.00,0.00,0.00,0.00,0.00,0.00,0.00,0.00
6128523,-0.003,-0.001,0.998,-0.02,-0.01,-0.03,0.00,0.19,1000,1000,1000,1000,1000,1000,0,1500,1500,989,1500,4294967284,0.00,0.00,0.00,0.00,0.00,0.00,0.00,0.00,0.00,0.00,0.00,0.00
6132523,-0.003,-0.001,0.998,-0.01,-0.01,-0.01,-0.04,0.18,1000,1000,1000,1000,1000,1000,0,1500,1500,989,1500,4294967285,0.00,0.00,0.00,0.00,0.00,0.00,0.00,0.00,0.00,0.00,0.00,0.00
6136523,-0.002,-0.001,0.994,-0.00,-0.00,-0.00,-0.07,0.14,1000,1000,1000,1000,1000,1000,0,1500,1500,989,1500,4294967284,0.00,0.00,0.00,0.00,0.00,0.00,0.00,0.00,0.00,0.00,0.00,0.00
6140523,-0.002,-0.001,0.994,-0.00,0.01,0.00,-0.07,0.10,1000,1000,1000,1000,1000,1000,0,1500,1500,989,1500,4294967283,0.00,0.00,0.00,0.00,0.00,0.00,0.00,0.00,0.00,0.00,0.00,0.00
6144523,-0.001,0.001,0.995,-0.00,0.02,-0.00,-0.02,0.09,1000,1000,1000,1000,1000,1000,0,1500,1500,989,1500,4294967284,0.00,0.00,0.00,0.00,0.00,0.00,0.00,0.00,0.00,0.00,0.00,0.00
6148523,0.001,0.001,0.998,-0.00,0.02,-0.01,-0.00,0.05,1000,1000,1000,1000,1000,1000,0,1500,1500,989,1500,4294967285,0.00,0.00,0.00,0.00,0.00,0.00,0.00,0.00,0.00,0.00,0.00,0.00
6152523,0.002,-0.001,1.000,-0.00,0.01,-0.00,-0.02,0.00,1000,1000,1000,1000,1000,1000,0,1500,1500,989,1500,4294967284,0.00,0.00,0.00,0.00,0.00,0.00,0.00,0.00,0.00,0.00,0.00,0.00
6156523,0.003,0.000,0.998,0.01,0.02,0.00,-0.01,-0.04,1000,1000,1000,1000,1000,1000,0,1500,1500,989,1500,4294967283,0.00,0.00,0.00,0.00,0.00,0.00,0.00,0.00,0.00,0.00,0.00,0.00
6160523,0.002,0.001,0.999,0.01,0.01,0.00,0.01,-0.08,1000,1000,1000,1000,1000,1000,0,1500,1500,989,1500,4294967284,0.00,0.00,0.00,0.00,0.00,0.00,0.00,0.00,0.00,0.00,0.00,0.00
6164523,0.002,-0.000,0.999,0.02,0.01,0.00,-0.01,-0.12,1000,1000,1000,1000,1000,1000,0,1500,1500,989,1500,4294967285,0.00,0.00,0.00,0.00,0.00,0.00,0.00,0.00,0.00,0.00,0.00,0.00
6168523,0.002,-0.002,0.998,0.02,0.01,0.02,-0.05,-0.11,1000,1000,1000,1000,1000,1000,0,1500,1500,989,1500,4294967284,0.00,0.00,0.00,0.00,0.00,0.00,0.00,0.00,0.00,0.00,0.00,0.00
6172523,0.002,-0.002,0.999,0.01,0.01,-0.00,-0.10,-0.10,1000,1000,1000,1000,1000,1000,0,1500,1500,989,1500,4294967283,0.00,0.00,0.00,0.00,0.00,0.00,0.00,0.00,0.00,0.00,0.00,0.00
6176523,0.002,-0.002,1.000,0.02,0.01,-0.01,-0.14,-0.08,1000,1000,1000,1000,1000,1000,0,1500,1500,989,1500,4294967282,0.00,0.00,0.00,0.00,0.00,0.00,0.00,0.00,0.00,0.00,0.00,0.00
6180523,-0.000,-0.004,1.001,0.01,0.00,-0.01,-0.17,-0.05,1000,1000,1000,1000,1000,1000,0,1500,1500,989,1500,4294967285,0.00,0.00,0.00,0.00,0.00,0.00,0.00,0.00,0.00,0.00,0.00,0.00
6184523,-0.002,-0.004,0.999,-0.01,0.00,-0.02,-0.19,-0.01,1000,1000,1000,1000,1000,1000,0,1500,1500,989,1500,4294967284,0.00,0.00,0.00,0.00,0.00,0.00,0.00,0.00,0.00,0.00,0.00,0.00
6188523,-0.002,-0.003,1.001,-0.02,0.00,-0.00,-0.18,0.04,1000,1000,1000,1000,1000,1000,0,1500,1500,989,1500,4294967283,0.00,0.00,0.00,0.00,0.00,0.00,0.00,0.00,0.00,0.00,0.00,0.00
6192523,-0.002,-0.003,1.003,-0.03,0.01,0.01,-0.17,0.08,1000,1000,1000,1000,1000,1000,0,1500,1500,989,1500,4294967284,0.00,0.00,0.00,0.00,0.00,0.00,0.00,0.00,0.00,0.00,0.00,0.00
6196523,-0.002,-0.002,1.004,-0.03,0.02,0.01,-0.13,0.11,1000,1000,1000,1000,1000,1000,0,1500,1500,989,1500,4294967285,0.00,0.00,0.00,0.00,0.00,0.00,0.00,0.00,0.00,0.00,0.00,0.00
6200523,-0.001,-0.001,1.004,-0.03,0.02,0.02,-0.09,0.08,1000,1000,1000,1000,1000,1000,0,1500,1500,989,1500,4294967284,0.00,0.00,0.00,0.00,0.00,0.00,0.00,0.00,0.00,0.00,0.00,0.00
6204523,0.000,0.000,1.004,-0.02,0.01,0.02,-0.06,0.05,1000,1000,1000,1000,1000,1000,0,1500,1500,989,1500,4294967283,0.00,0.00,0.00,0.00,0.00,0.00,0.00,0.00,0.00,0.00,0.00,0.00
6208523,0.001,0.002,1.006,-0.03,0.01,0.02,-0.02,0.03,1000,1000,1000,1000,1000,1000,0,1500,1500,989,1500,4294967284,0.00,0.00,0.00,0.00,0.00,0.00,0.00,0.00,0.00,0.00,0.00,0.00
6212523,0.001,0.002,1.007,-0.04,0.00,0.03,0.02,0.01,1000,1000,1000,1000,1000,1000,0,1500,1500,989,1500,4294967285,0.00,0.00,0.00,0.00,0.00,0.00,0.00,0.00,0.00,0.00,0.00,0.00
6216523,0.000,0.001,1.009,-0.03,0.00,0.03,0.06,-0.00,1000,1000,1000,1000,1000,1000,0,1500,1500,989,1500,4294967284,0.00,0.00,0.00,0.00,0.00,0.00,0.00,0.00,0.00,0.00,0.00,0.00
6220523,-0.000,0.001,1.008,-0.02,0.00,0.02,0.02,0.01,1000,1000,1000,1000,1000,1000,0,1500,1500,989,1500,4294967283,0.00,0.00,0.00,0.00,0.00,0.00,0.00,0.00,0.00,0.00,0.00,0.00
6224523,-0.000,0.000,1.009,-0.03,-0.01,0.01,-0.03,0.02,1000,1000,1000,1000,1000,1000,0,1500,1500,989,1500,4294967284,0.00,0.00,0.00,0.00,0.00,0.00,0.00,0.00,0.00,0.00,0.00,0.00
6228523,-0.002,0.002,1.009,-0.03,-0.02,0.01,0.01,0.05,1000,1000,1000,1000,1000,1000,0,1500,1500,989,1500,4294967285,0.00,0.00,0.00,0.00,0.00,0.00,0.00,0.00,0.00,0.00,0.00,0.00
6232523,-0.003,0.003,1.008,0.00,-0.01,0.00,0.05,0.07,1000,1000,1000,1000,1000,1000,0,1500,1500,989,1500,4294967284,0.00,0.00,0.00,0.00,0.00,0.00,0.00,0.00,0.00,0.00,0.00,0.00
6236523,-0.003,0.003,1.008,0.01,-0.02,0.02,0.08,0.10,1000,1000,1000,1000,1000,1000,0,1500,1500,989,1500,3988,0.00,0.00,0.00,0.00,0.00,0.00,0.00,0.00,0.00,0.00,0.00,0.00
6240523,-0.003,0.001,1.008,0.01,-0.02,0.03,0.07,0.15,1000,1000,1000,1000,1000,1000,0,1500,1500,989,1500,7988,0.00,0.00,0.00,0.00,0.00,0.00,0.00,0.00,0.00,0.00,0.00,0.00
6244523,-0.003,0.000,1.007,0.01,-0.01,0.02,0.03,0.16,1000,1000,1000,1000,1000,1000,0,1500,1500,989,1500,11988,0.00,0.00,0.00,0.00,0.00,0.00,0.00,0.00,0.00,0.00,0.00,0.00
6248523,-0.003,0.002,1.007,0.01,-0.01,0.00,0.07,0.16,1000,1000,1000,1000,1000,1000,0,1500,1500,989,1500,4294967283,0.00,0.00,0.00,0.00,0.00,0.00,0.00,0.00,0.00,0.00,0.00,0.00
6252523,-0.001,0.001,1.005,0.02,-0.01,-0.01,0.08,0.11,1000,1000,1000,1000,1000,1000,0,1500,1500,989,1500,4294967284,0.00,0.00,0.00,0.00,0.00,0.00,0.00,0.00,0.00,0.00,0.00,0.00
6256523,0.000,-0.000,1.003,0.02,-0.02,-0.01,0.05,0.07,1000,1000,1000,1000,1000,1000,0,1500,1500,989,1500,4294967285,0.00,0.00,0.00,0.00,0.00,0.00,0.00,0.00,0.00,0.00,0.00,0.00
6260523,0.001,-0.002,1.002,0.00,-0.03,-0.00,0.01,0.04,1000,1000,1000,1000,1000,1000,0,1500,1500,989,1500,4294967284,0.00,0.00,0.00,0.00,0.00,0.00,0.00,0.00,0.00,0.00,0.00,0.00
6264523,0.001,-0.003,1.000,-0.01,-0.03,0.00,-0.03,0.02,1000,1000,1000,1000,1000,1000,0,1500,1500,989,1500,4294967283,0.00,0.00,0.00,0.00,0.00,0.00,0.00,0.00,0.00,0.00,0.00,0.00
6268523,0.001,-0.002,0.999,0.01,-0.02,0.01,-0.07,0.00,1000,1000,1000,1000,1000,1000,0,1500,1500,989,1500,4294967284,0.00,0.00,0.00,0.00,0.00,0.00,0.00,0.00,0.00,0.00,0.00,0.00
6272523,0.001,-0.002,0.999,0.02,-0.02,-0.00,-0.10,-0.03,1000,1000,1000,1000,1000,1000,0,1500,1500,989,1500,4294967285,0.00,0.00,0.00,0.00,0.00,0.00,0.00,0.00,0.00,0.00,0.00,0.00
6276523,0.001,-0.001,0.998,0.01,0.00,0.01,-0.06,-0.06,1000,1000,1000,1000,1000,1000,0,1500,1500,989,1500,4294967284,0.00,0.00,0.00,0.00,0.00,0.00,0.00,0.00,0.00,0.00,0.00,0.00
6280523,0.000,0.000,0.999,-0.01,0.03,0.01,-0.02,-0.04,1000,1000,1000,1000,1000,1000,0,1500,1500,989,1500,4294967282,0.00,0.00,0.00,0.00,0.00,0.00,0.00,0.00,0.00,0.00,0.00,0.00
6284523,-0.002,-0.001,1.002,-0.01,0.02,0.01,-0.04,0.00,1000,1000,1000,1000,1000,1000,0,1500,1500,989,1500,4294967284,0.00,0.00,0.00,0.00,0.00,0.00,0.00,0.00,0.00,0.00,0.00,0.00
6288523,-0.001,-0.003,1.004,0.01,0.02,0.01,-0.08,0.02,1000,1000,1000,1000,1000,1000,0,1500,1500,989,1500,4294967285,0.00,0.00,0.00,0.00,0.00,0.00,0.00,0.00,0.00,0.00,0.00,0.00
6292523,-0.001,-0.004,1.004,0.01,0.01,0.02,-0.13,0.03,1000,1000,1000,1000,1000,1000,0,1500,1500,989,1500,4294967284,0.00,0.00,0.00,0.00,0.00,0.00,0.00,0.00,0.00,0.00,0.00,0.00
6296523,-0.000,-0.005,1.003,0.01,-0.02,0.02,-0.17,0.02,1000,1000,1000,1000,1000,1000,0,1500,1500,989,1500,4294967283,0.00,0.00,0.00,0.00,0.00,0.00,0.00,0.00,0.00,0.00,0.00,0.00
6300523,0.000,-0.006,1.001,0.03,-0.01,0.02,-0.22,0.01,1000,1000,1000,1000,1000,1000,0,1500,1500,989,1500,4294967284,0.00,0.00,0.00,0.00,0.00,0.00,0.00,0.00,0.00,0.00,0.00,0.00
6304523,0.001,-0.005,1.000,0.04,0.01,0.01,-0.25,-0.02,1000,1000,1000,1000,1000,1000,0,1500,1500,989,1500,4294967285,0.00,0.00,0.00,0.00,0.00,0.00,0.00,0.00,0.00,0.00,0.00,0.00
6308523,-0.001,-0.003,1.001,0.04,0.02,-0.00,-0.22,0.01,1000,1000,1000,1000,1000,1000,0,1500,1500,989,1500,4294967284,0.00,0.00,0.00,0.00,0.00,0.00,0.00,0.00,0.00,0.00,0.00,0.00
6312523,-0.002,-0.002,1.002,0.03,0.02,-0.00,-0.18,0.04,1000,1000,1000,1000,1000,1000,0,1500,1500,989,1500,4294967283,0.00,0.00,0.00,0.00,0.00,0.00,0.00,0.00,0.00,0.00,0.00,0.00
6316523,-0.003,-0.003,1.004,0.01,0.03,0.00,-0.17,0.08,1000,1000,1000,1000,1000,1000,0,1500,1500,989,1500,4294967284,0.00,0.00,0.00,0.00,0.00,0.00,0.00,0.00,0.00,0.00,0.00,0.00
6320523,-0.002,-0.003,1.005,0.01,0.03,0.02,-0.13,0.10,1000,1000,1000,1000,1000,1000,0,1500,1500,989,1500,4294967285,0.00,0.00,0.00,0.00,0.00,0.00,0.00,0.00,0.00,0.00,0.00,0.00
6324523,-0.001,-0.002,1.008,0.02,0.02,0.02,-0.10,0.06,1000,1000,1000,1000,1000,1000,0,1500,1500,989,1500,4294967284,0.00,0.00,0.00,0.00,0.00,0.00,0.00,0.00,0.00,0.00,0.00,0.00
6328523,-0.001,-0.001,1.009,0.01,0.04,0.01,-0.06,0.04,1000,1000,1000,1000,1000,1000,0,1500,1500,989,1500,4294967283,0.00,0.00,0.00,0.00,0.00,0.00,0.00,0.00,0.00,0.00,0.00,0.00
6332523,0.001,-0.001,1.008,-0.00,0.01,0.01,-0.05,-0.01,1000,1000,1000,1000,1000,1000,0,1500,1500,989,1500,4294967284,0.00,0.00,0.00,0.00,0.00,0.00,0.00,0.00,0.00,0.00,0.00,0.00
6336523,0.002,-0.001,1.007,-0.01,-0.00,-0.00,-0.05,-0.05,1000,1000,1000,1000,1000,1000,0,1500,1500,989,1500,4294967285,0.00,0.00,0.00,0.00,0.00,0.00,0.00,0.00,0.00,0.00,0.00,0.00
6340523,0.002,-0.000,1.008,0.00,-0.01,-0.01,-0.02,-0.09,1000,1000,1000,1000,1000,1000,0,1500,1500,989,1500,4294967284,0.00,0.00,0.00,0.00,0.00,0.00,0.00,0.00,0.00,0.00,0.00,0.00
6344523,0.001,0.001,1.007,-0.01,-0.02,-0.01,0.02,-0.08,1000,1000,1000,1000,1000,1000,0,1500,1500,989,1500,4294967283,0.00,0.00,0.00,0.00,0.00,0.00,0.00,0.00,0.00,0.00,0.00,0.00
6348523,-0.000,0.002,1.007,-0.01,-0.01,-0.00,0.06,-0.05,1000,1000,1000,1000,1000,1000,0,1500,1500,989,1500,4294967284,0.00,0.00,0.00,0.00,0.00,0.00,0.00,0.00,0.00,0.00,0.00,0.00
6352523,-0.001,0.004,1.008,-0.01,-0.01,0.02,0.09,-0.02,1000,1000,1000,1000,1000,1000,0,1500,1500,989,1500,4294967285,0.00,0.00,0.00,0.00,0.00,0.00,0.00,0.00,0.00,0.00,0.00,0.00
6356523,-0.003,0.005,1.007,-0.03,0.00,0.01,0.12,0.01,1000,1000,1000,1000,1000,1000,0,1500,1500,989,1500,4294967284,0.00,0.00,0.00,0.00,0.00,0.00,0.00,0.00,0.00,0.00,0.00,0.00
6360523,-0.003,0.004,1.004,-0.02,0.01,0.01,0.15,0.05,1000,1000,1000,1000,1000,1000,0,1500,1500,989,1500,4294967283,0.00,0.00,0.00,0.00,0.00,0.00,0.00,0.00,0.00,0.00,0.00,0.00
6364523,-0.003,0.003,1.001,-0.00,0.01,0.01,0.16,0.09,1000,1000,1000,1000,1000,1000,0,1500,1500,989,1500,4294967284,0.00,0.00,0.00,0.00,0.00,0.00,0.00,0.00,0.00,0.00,0.00,0.00
6368523,-0.002,0.002,1.000,-0.01,0.00,0.01,0.13,0.12,1000,1000,1000,1000,1000,1000,0,1500,1500,989,1500,4294967285,0.00,0.00,0.00,0.00,0.00,0.00,0.00,0.00,0.00,0.00,0.00,0.00
6372523,-0.002,0.001,0.998,0.00,0.01,0.01,0.08,0.12,1000,1000,1000,1000,1000,1000,0,1500,1500,989,1500,4294967284,0.00,0.00,0.00,0.00,0.00,0.00,0.00,0.00,0.00,0.00,0.00,0.00
6376523,-0.002,0.000,0.998,-0.00,0.01,0.01,0.04,0.11,1000,1000,1000,1000,1000,1000,0,1500,1500,989,1500,4294967283,0.00,0.00,0.00,0.00,0.00,0.00,0.00,0.00,0.00,0.00,0.00,0.00
6380523,-0.002,0.000,0.998,-0.02,0.00,-0.00,-0.01,0.12,1000,1000,1000,1000,1000,1000,0,1500,1500,989,1500,4294967284,0.00,0.00,0.00,0.00,0.00,0.00,0.00,0.00,0.00,0.00,0.00,0.00
6384523,-0.002,0.001,0.997,-0.02,-0.02,0.00,0.04,0.10,1000,1000,1000,1000,1000,1000,0,1500,1500,989,1500,4294967285,0.00,0.00,0.00,0.00,0.00,0.00,0.00,0.00,0.00,0.00,0.00,0.00
6388523,-0.002,-0.000,0.997,-0.01,-0.04,0.00,-0.01,0.11,1000,1000,1000,1000,1000,1000,0,1500,1500,989,1500,4294967284,0.00,0.00,0.00,0.00,0.00,0.00,0.00,0.00,0.00,0.00,0.00,0.00
6392523,-0.000,-0.001,0.997,-0.01,-0.03,0.00,-0.03,0.07,1000,1000,1000,1000,1000,1000,0,1500,1500,989,1500,4294967283,0.00,0.00,0.00,0.00,0.00,0.00,0.00,0.00,0.00,0.00,0.00,0.00
6396523,0.002,-0.001,0.998,0.02,-0.02,-0.01,-0.03,0.03,1000,1000,1000,1000,1000,1000,0,1500,1500,989,1500,4294967284,0.00,0.00,0.00,0.00,0.00,0.00,0.00,0.00,0.00,0.00,0.00,0.00
6400523,0.001,-0.001,0.998,0.01,-0.00,-0.02,-0.04,-0.02,1000,1000,1000,1000,1000,1000,0,1500,1500,989,1500,4294967285,0.00,0.00,0.00,0.00,0.00,0.00,0.00,0.00,0.00,0.00,0.00,0.00
6404523,0.000,-0.000,1.000,0.01,-0.00,-0.02,0.00,-0.02,1000,1000,1000,1000,1000,1000,0,1500,1500,989,1500,4294967284,0.00,0.00,0.00,0.00,0.00,0.00,0.00,0.00,0.00,0.00,0.00,0.00
6408523,0.001,-0.000,1.002,0.01,-0.00,-0.01,-0.01,-0.06,1000,1000,1000,1000,1000,1000,0,1500,1500,989,1500,4294967283,0.00,0.00,0.00,0.00,0.00,0.00,0.00,0.00,0.00,0.00,0.00,0.00
6412523,0.001,-0.000,1.004,0.01,-0.01,0.01,-0.05,-0.09,1000,1000,1000,1000,1000,1000,0,1500,1500,989,1500,4294967284,0.00,0.00,0.00,0.00,0.00,0.00,0.00,0.00,0.00,0.00,0.00,0.00
6416523,0.002,0.000,1.006,0.01,-0.02,0.01,-0.00,-0.09,1000,1000,1000,1000,1000,1000,0,1500,1500,989,1500,3988,0.00,0.00,0.00,0.00,0.00,0.00,0.00,0.00,0.00,0.00,0.00,0.00
6420523,-0.000,0.002,1.007,0.01,-0.01,0.01,0.03,-0.06,1000,1000,1000,1000,1000,1000,0,1500,1500,989,1500,4294967285,0.00,0.00,0.00,0.00,0.00,0.00,0.00,0.00,0.00,0.00,0.00,0.00
6424523,-0.001,0.004,1.009,-0.01,-0.00,0.01,0.07,-0.04,1000,1000,1000,1000,1000,1000,0,1500,1500,989,1500,4294967284,0.00,0.00,0.00,0.00,0.00,0.00,0.00,0.00,0.00,0.00,0.00,0.00
6428523,-0.000,0.003,1.009,-0.01,0.01,0.03,0.11,-0.02,1000,1000,1000,1000,1000,1000,0,1500,1500,989,1500,4294967283,0.00,0.00,0.00,0.00,0.00,0.00,0.00,0.00,0.00,0.00,0.00,0.00
6432523,-0.001,0.003,1.009,-0.02,0.02,0.03,0.15,0.01,1000,1000,1000,1000,1000,1000,0,1500,1500,989,1500,4294967284,0.00,0.00,0.00,0.00,0.00,0.00,0.00,0.00,0.00,0.00,0.00,0.00
6436523,-0.001,0.004,1.010,-0.00,0.01,0.01,0.19,0.03,1000,1000,1000,1000,1000,1000,0,1500,1500,989,1500,4294967285,0.00,0.00,0.00,0.00,0.00,0.00,0.00,0.00,0.00,0.00,0.00,0.00
6440523,0.000,0.003,1.010,0.00,-0.00,-0.01,0.18,-0.02,1000,1000,1000,1000,1000,1000,0,1500,1500,989,1500,4294967284,0.00,0.00,0.00,0.00,0.00,0.00,0.00,0.00,0.00,0.00,0.00,0.00
6444523,0.000,0.003,1.010,0.01,-0.02,-0.02,0.13,-0.00,1000,1000,1000,1000,1000,1000,0,1500,1500,989,1500,4294967283,0.00,0.00,0.00,0.00,0.00,0.00,0.00,0.00,0.00,0.00,0.00,0.00
6448523,-0.001,0.002,1.008,0.00,-0.01,-0.02,0.12,0.04,1000,1000,1000,1000,1000,1000,0,1500,1500,989,1500,4294967284,0.00,0.00,0.00,0.00,0.00,0.00,0.00,0.00,0.00,0.00,0.00,0.00
6452523,-0.001,0.003,1.008,-0.00,-0.01,-0.02,0.17,0.04,1000,1000,1000,1000,1000,1000,0,1500,1500,989,1500,4294967285,0.00,0.00,0.00,0.00,0.00,0.00,0.00,0.00,0.00,0.00,0.00,0.00
6456523,-0.000,0.003,1.006,-0.00,-0.02,-0.01,0.16,-0.00,1000,1000,1000,1000,1000,1000,0,1500,1500,989,1500,4294967284,0.00,0.00,0.00,0.00,0.00,0.00,0.00,0.00,0.00,0.00,0.00,0.00
6460523,0.002,0.001,1.004,-0.02,-0.03,-0.00,0.13,-0.04,1000,1000,1000,1000,1000,1000,0,1500,1500,989,1500,4294967283,0.00,0.00,0.00,0.00,0.00,0.00,0.00,0.00,0.00,0.00,0.00,0.00
6464523,0.003,-0.001,1.003,-0.02,-0.03,-0.00,0.09,-0.06,1000,1000,1000,1000,1000,1000,0,1500,1500,989,1500,4294967284,0.00,0.00,0.00,0.00,0.00,0.00,0.00,0.00,0.00,0.00,0.00,0.00
6468523,0.002,-0.004,1.001,-0.03,-0.01,0.01,0.05,-0.07,1000,1000,1000,1000,1000,1000,0,1500,1500,989,1500,4294967285,0.00,0.00,0.00,0.00,0.00,0.00,0.00,0.00,0.00,0.00,0.00,0.00
6472523,0.002,-0.004,1.000,-0.04,-0.01,0.02,0.00,-0.08,1000,1000,1000,1000,1000,1000,0,1500,1500,989,1500,4294967284,0.00,0.00,0.00,0.00,0.00,0.00,0.00,0.00,0.00,0.00,0.00,0.00
6476523,0.003,-0.004,0.998,-0.04,-0.02,0.02,-0.04,-0.09,1000,1000,1000,1000,1000,1000,0,1500,1500,989,1500,4294967283,0.00,0.00,0.00,0.00,0.00,0.00,0.00,0.00,0.00,0.00,0.00,0.00
6480523,0.002,-0.002,0.999,-0.04,-0.02,0.02,-0.08,-0.11,1000,1000,1000,1000,1000,1000,0,1500,1500,989,1500,4294967284,0.00,0.00,0.00,0.00,0.00,0.00,0.00,0.00,0.00,0.00,0.00,0.00
6484523,0.002,0.000,0.999,-0.04,-0.03,0.02,-0.04,-0.12,1000,1000,1000,1000,1000,1000,0,1500,1500,989,1500,4294967285,0.00,0.00,0.00,0.00,0.00,0.00,0.00,0.00,0.00,0.00,0.00,0.00
6488523,0.003,0.001,1.001,-0.04,-0.02,0.00,0.00,-0.14,1000,1000,1000,1000,1000,1000,0,1500,1500,989,1500,4294967284,0.00,0.00,0.00,0.00,0.00,0.00,0.00,0.00,0.00,0.00,0.00,0.00
6492523,0.001,0.000,1.001,-0.01,-0.03,-0.01,0.00,-0.09,1000,1000,1000,1000,1000,1000,0,1500,1500,989,1500,4294967283,0.00,0.00,0.00,0.00,0.00,0.00,0.00,0.00,0.00,0.00,0.00,0.00
6496523,0.000,0.000,1.001,-0.00,-0.04,-0.01,0.00,-0.05,1000,1000,1000,1000,1000,1000,0,1500,1500,989,1500,4294967284,0.00,0.00,0.00,0.00,0.00,0.00,0.00,0.00,0.00,0.00,0.00,0.00
6500523,-0.001,-0.000,1.002,-0.00,-0.04,-0.01,-0.01,-0.00,1000,1000,1000,1000,1000,1000,0,1500,1500,989,1500,4294967285,0.00,0.00,0.00,0.00,0.00,0.00,0.00,0.00,0.00,0.00,0.00,0.00
6504523,-0.002,0.000,1.003,-0.02,-0.03,0.00,-0.00,0.04,1000,1000,1000,1000,1000,1000,0,1500,1500,989,1500,4294967284,0.00,0.00,0.00,0.00,0.00,0.00,0.00,0.00,0.00,0.00,0.00,0.00
6508523,-0.002,0.001,1.001,-0.00,-0.02,-0.02,0.02,0.08,1000,1000,1000,1000,1000,1000,0,1500,1500,989,1500,4294967283,0.00,0.00,0.00,0.00,0.00,0.00,0.00,0.00,0.00,0.00,0.00,0.00
6512523,-0.003,0.001,1.000,0.02,-0.02,0.00,0.05,0.12,1000,1000,1000,1000,1000,1000,0,1500,1500,989,1500,4294967284,0.00,0.00,0.00,0.00,0.00,0.00,0.00,0.00,0.00,0.00,0.00,0.00
6516523,-0.001,0.002,0.999,0.03,-0.01,0.02,0.08,0.09,1000,1000,1000,1000,1000,1000,0,1500,1500,989,1500,4294967285,0.00,0.00,0.00,0.00,0.00,0.00,0.00,0.00,0.00,0.00,0.00,0.00
6520523,0.000,0.002,1.000,0.02,-0.01,0.05,0.11,0.05,1000,1000,1000,1000,1000,1000,0,1500,1500,989,1500,4294967284,0.00,0.00,0.00,0.00,0.00,0.00,0.00,0.00,0.00,0.00,0.00,0.00
6524523,0.001,0.002,1.000,0.02,-0.01,0.05,0.10,-0.00,1000,1000,1000,1000,1000,1000,0,1500,1500,989,1500,4294967283,0.00,0.00,0.00,0.00,0.00,0.00,0.00,0.00,0.00,0.00,0.00,0.00
6528523,0.001,0.001,1.002,0.02,-0.00,0.04,0.08,-0.04,1000,1000,1000,1000,1000,1000,0,1500,1500,989,1500,4294967284,0.00,0.00,0.00,0.00,0.00,0.00,0.00,0.00,0.00,0.00,0.00,0.00
6532523,0.003,0.000,1.003,0.03,0.00,0.04,0.06,-0.08,1000,1000,1000,1000,1000,1000,0,1500,1500,989,1500,4294967285,0.00,0.00,0.00,0.00,0.00,0.00,0.00,0.00,0.00,0.00,0.00,0.00
6536523,0.002,-0.002,1.002,0.03,0.01,0.02,0.01,-0.09,1000,1000,1000,1000,1000,1000,0,1500,1500,989,1500,4294967284,0.00,0.00,0.00,0.00,0.00,0.00,0.00,0.00,0.00,0.00,0.00,0.00
6540523,0.002,-0.003,1.000,0.03,0.00,0.02,-0.03,-0.09,1000,1000,1000,1000,1000,1000,0,1500,1500,989,1500,4294967283,0.00,0.00,0.00,0.00,0.00,0.00,0.00,0.00,0.00,0.00,0.00,0.00
6544523,0.001,-0.003,1.002,0.01,0.00,0.02,-0.08,-0.09,1000,1000,1000,1000,1000,1000,0,1500,1500,989,1500,4294967284,0.00,0.00,0.00,0.00,0.00,0.00,0.00,0.00,0.00,0.00,0.00,0.00
6548523,0.001,-0.003,1.002,-0.02,0.00,0.01,-0.12,-0.08,1000,1000,1000,1000,1000,1000,0,1500,1500,989,1500,3988,0.00,0.00,0.00,0.00,0.00,0.00,0.00,0.00,0.00,0.00,0.00,0.00
6552523,0.000,-0.004,1.001,-0.00,-0.01,0.00,-0.16,-0.06,1000,1000,1000,1000,1000,1000,0,1500,1500,989,1500,4294967285,0.00,0.00,0.00,0.00,0.00,0.00,0.00,0.00,0.00,0.00,0.00,0.00
6556523,-0.001,-0.002,1.000,0.01,-0.01,-0.01,-0.13,-0.02,1000,1000,1000,1000,1000,1000,0,1500,1500,989,1500,4294967284,0.00,0.00,0.00,0.00,0.00,0.00,0.00,0.00,0.00,0.00,0.00,0.00
6560523,-0.001,0.001,1.002,0.00,-0.01,-0.00,-0.09,-0.00,1000,1000,1000,1000,1000,1000,0,1500,1500,989,1500,4294967283,0.00,0.00,0.00,0.00,0.00,0.00,0.00,0.00,0.00,0.00,0.00,0.00
6564523,-0.000,0.002,1.003,0.01,-0.01,-0.02,-0.04,-0.00,1000,1000,1000,1000,1000,1000,0,1500,1500,989,1500,4294967284,0.00,0.00,0.00,0.00,0.00,0.00,0.00,0.00,0.00,0.00,0.00,0.00
6568523,0.001,0.003,1.002,0.01,-0.00,-0.03,-0.00,-0.02,1000,1000,1000,1000,1000,1000,0,1500,1500,989,1500,4294967285,0.00,0.00,0.00,0.00,0.00,0.00,0.00,0.00,0.00,0.00,0.00,0.00
6572523,0.002,0.003,1.001,0.02,-0.01,-0.03,0.04,-0.04,1000,1000,1000,1000,1000,1000,0,1500,1500,989,1500,4294967284,0.00,0.00,0.00,0.00,0.00,0.00,0.00,0.00,0.00,0.00,0.00,0.00
6576523,0.001,0.004,1.001,0.02,-0.01,-0.01,0.08,-0.05,1000,1000,1000,1000,1000,1000,0,1500,1500,989,1500,4294967283,0.00,0.00,0.00,0.00,0.00,0.00,0.00,0.00,0.00,0.00,0.00,0.00
6580523,0.002,0.006,1.001,0.01,-0.01,-0.01,0.13,-0.06,1000,1000,1000,1000,1000,1000,0,1500,1500,989,1500,4294967282,0.00,0.00,0.00,0.00,0.00,0.00,0.00,0.00,0.00,0.00,0.00,0.00
6584523,0.002,0.005,1.000,-0.00,-0.01,-0.02,0.17,-0.07,1000,1000,1000,1000,1000,1000,0,1500,1500,989,1500,4294967285,0.00,0.00,0.00,0.00,0.00,0.00,0.00,0.00,0.00,0.00,0.00,0.00
6588523,-0.000,0.005,0.998,-0.00,-0.01,-0.02,0.21,-0.04,1000,1000,1000,1000,1000,1000,0,1500,1500,989,1500,4294967284,0.00,0.00,0.00,0.00,0.00,0.00,0.00,0.00,0.00,0.00,0.00,0.00
6592523,-0.001,0.005,0.999,-0.00,0.01,-0.02,0.23,-0.00,1000,1000,1000,1000,1000,1000,0,1500,1500,989,1500,4294967283,0.00,0.00,0.00,0.00,0.00,0.00,0.00,0.00,0.00,0.00,0.00,0.00
6596523,-0.002,0.003,1.002,-0.01,0.02,-0.02,0.21,0.04,1000,1000,1000,1000,1000,1000,0,1500,1500,989,1500,4294967284,0.00,0.00,0.00,0.00,0.00,0.00,0.00,0.00,0.00,0.00,0.00,0.00
6600523,-0.001,0.002,1.003,0.00,0.02,-0.00,0.17,0.05,1000,1000,1000,1000,1000,1000,0,1500,1500,989,1500,4294967285,0.00,0.00,0.00,0.00,0.00,0.00,0.00,0.00,0.00,0.00,0.00,0.00
6604523,-0.001,-0.001,1.003,0.00,0.03,0.01,0.12,0.05,1000,1000,1000,1000,1000,1000,0,1500,1500,989,1500,4294967284,0.00,0.00,0.00,0.00,0.00,0.00,0.00,0.00,0.00,0.00,0.00,0.00
6608523,-0.001,-0.003,1.004,-0.01,0.03,0.02,0.08,0.05,1000,1000,1000,1000,1000,1000,0,1500,1500,989,1500,4294967283,0.00,0.00,0.00,0.00,0.00,0.00,0.00,0.00,0.00,0.00,0.00,0.00
6612523,-0.001,-0.004,1.005,-0.01,0.02,0.02,0.03,0.05,1000,1000,1000,1000,1000,1000,0,1500,1500,989,1500,4294967284,0.00,0.00,0.00,0.00,0.00,0.00,0.00,0.00,0.00,0.00,0.00,0.00
6616523,-0.002,-0.005,1.005,-0.02,0.03,0.01,-0.01,0.06,1000,1000,1000,1000,1000,1000,0,1500,1500,989,1500,4294967285,0.00,0.00,0.00,0.00,0.00,0.00,0.00,0.00,0.00,0.00,0.00,0.00
6620523,-0.002,-0.003,1.006,-0.03,0.02,0.01,-0.06,0.07,1000,1000,1000,1000,1000,1000,0,1500,1500,989,1500,4294967284,0.00,0.00,0.00,0.00,0.00,0.00,0.00,0.00,0.00,0.00,0.00,0.00
6624523,-0.000,-0.003,1.007,-0.02,0.02,0.00,-0.10,0.05,1000,1000,1000,1000,1000,1000,0,1500,1500,989,1500,4294967283,0.00,0.00,0.00,0.00,0.00,0.00,0.00,0.00,0.00,0.00,0.00,0.00
6628523,-0.001,-0.001,1.009,0.00,0.00,0.00,-0.07,0.08,1000,1000,1000,1000,1000,1000,0,1500,1500,989,1500,4294967284,0.00,0.00,0.00,0.00,0.00,0.00,0.00,0.00,0.00,0.00,0.00,0.00
6632523,-0.002,0.000,1.009,0.01,-0.01,0.01,-0.02,0.09,1000,1000,1000,1000,1000,1000,0,1500,1500,989,1500,4294967285,0.00,0.00,0.00,0.00,0.00,0.00,0.00,0.00,0.00,0.00,0.00,0.00
6636523,-0.003,0.001,1.008,-0.01,-0.02,0.03,0.01,0.12,1000,1000,1000,1000,1000,1000,0,1500,1500,989,1500,4294967284,0.00,0.00,0.00,0.00,0.00,0.00,0.00,0.00,0.00,0.00,0.00,0.00
6640523,-0.004,-0.001,1.007,-0.01,-0.04,0.02,-0.01,0.16,1000,1000,1000,1000,1000,1000,0,1500,1500,989,1500,4294967283,0.00,0.00,0.00,0.00,0.00,0.00,0.00,0.00,0.00,0.00,0.00,0.00
6644523,-0.004,0.000,1.008,-0.01,-0.04,0.03,0.01,0.20,1000,1000,1000,1000,1000,1000,0,1500,1500,989,1500,4294967284,0.00,0.00,0.00,0.00,0.00,0.00,0.00,0.00,0.00,0.00,0.00,0.00
6648523,-0.003,0.000,1.008,-0.01,-0.03,0.02,0.04,0.16,1000,1000,1000,1000,1000,1000,0,1500,1500,989,1500,4294967284,0.00,0.00,0.00,0.00,0.00,0.00,0.00,0.00,0.00,0.00,0.00,0.00
6652523,-0.003,0.000,1.007,-0.01,-0.01,-0.01,0.00,0.14,1000,1000,1000,1000,1000,1000,0,1500,1500,989,1500,4294967284,0.00,0.00,0.00,0.00,0.00,0.00,0.00,0.00,0.00,0.00,0.00,0.00
6656523,-0.002,0.001,1.003,-0.02,-0.00,-0.01,0.04,0.12,1000,1000,1000,1000,1000,1000,0,1500,1500,989,1500,4294967283,0.00,0.00,0.00,0.00,0.00,0.00,0.00,0.00,0.00,0.00,0.00,0.00
6660523,-0.002,0.001,1.001,-0.02,-0.02,-0.02,0.06,0.08,1000,1000,1000,1000,1000,1000,0,1500,1500,989,1500,4294967284,0.00,0.00,0.00,0.00,0.00,0.00,0.00,0.00,0.00,0.00,0.00,0.00
6664523,-0.002,0.002,1.001,0.00,-0.02,-0.01,0.10,0.11,1000,1000,1000,1000,1000,1000,0,1500,1500,989,1500,4294967285,0.00,0.00,0.00,0.00,0.00,0.00,0.00,0.00,0.00,0.00,0.00,0.00
6668523,-0.003,0.003,1.002,0.01,-0.01,-0.02,0.13,0.14,1000,1000,1000,1000,1000,1000,0,1500,1500,989,1500,4294967284,0.00,0.00,0.00,0.00,0.00,0.00,0.00,0.00,0.00,0.00,0.00,0.00
6672523,-0.002,0.002,1.004,0.00,-0.00,-0.03,0.09,0.12,1000,1000,1000,1000,1000,1000,0,1500,1500,989,1500,4294967283,0.00,0.00,0.00,0.00,0.00,0.00,0.00,0.00,0.00,0.00,0.00,0.00
6676523,-0.002,0.001,1.004,-0.00,-0.02,-0.03,0.04,0.14,1000,1000,1000,1000,1000,1000,0,1500,1500,989,1500,4294967284,0.00,0.00,0.00,0.00,0.00,0.00,0.00,0.00,0.00,0.00,0.00,0.00
6680523,-0.002,0.000,1.006,-0.02,-0.01,-0.03,0.01,0.10,1000,1000,1000,1000,1000,1000,0,1500,1500,989,1500,4294967283,0.00,0.00,0.00,0.00,0.00,0.00,0.00,0.00,0.00,0.00,0.00,0.00
6684523,-0.001,0.000,1.009,-0.02,-0.02,-0.02,0.02,0.06,1000,1000,1000,1000,1000,1000,0,1500,1500,989,1500,4294967285,0.00,0.00,0.00,0.00,0.00,0.00,0.00,0.00,0.00,0.00,0.00,0.00
6688523,-0.001,0.001,1.007,-0.02,-0.02,-0.01,0.06,0.04,1000,1000,1000,1000,1000,1000,0,1500,1500,989,1500,4294967283,0.00,0.00,0.00,0.00,0.00,0.00,0.00,0.00,0.00,0.00,0.00,0.00
6692523,-0.001,0.001,1.007,-0.01,-0.00,0.00,0.11,0.06,1000,1000,1000,1000,1000,1000,0,1500,1500,989,1500,4294967284,0.00,0.00,0.00,0.00,0.00,0.00,0.00,0.00,0.00,0.00,0.00,0.00
6696523,-0.001,0.002,1.006,-0.03,0.01,0.02,0.13,0.03,1000,1000,1000,1000,1000,1000,0,1500,1500,989,1500,4294967285,0.00,0.00,0.00,0.00,0.00,0.00,0.00,0.00,0.00,0.00,0.00,0.00
6700523,-0.001,0.003,1.005,-0.01,0.03,0.01,0.16,0.07,1000,1000,1000,1000,1000,1000,0,1500,1500,989,1500,4294967284,0.00,0.00,0.00,0.00,0.00,0.00,0.00,0.00,0.00,0.00,0.00,0.00
6704523,-0.000,0.001,1.005,0.00,0.04,-0.00,0.12,0.05,1000,1000,1000,1000,1000,1000,0,1500,1500,989,1500,4294967283,0.00,0.00,0.00,0.00,0.00,0.00,0.00,0.00,0.00,0.00,0.00,0.00
6708523,-0.001,-0.002,1.003,0.01,0.04,-0.00,0.07,0.06,1000,1000,1000,1000,1000,1000,0,1500,1500,989,1500,4294967284,0.00,0.00,0.00,0.00,0.00,0.00,0.00,0.00,0.00,0.00,0.00,0.00
6712523,-0.002,-0.003,1.001,-0.00,0.03,0.00,0.03,0.07,1000,1000,1000,1000,1000,1000,0,1500,1500,989,1500,4294967285,0.00,0.00,0.00,0.00,0.00,0.00,0.00,0.00,0.00,0.00,0.00,0.00
6716523,-0.002,-0.002,1.001,-0.01,0.02,0.01,-0.01,0.09,1000,1000,1000,1000,1000,1000,0,1500,1500,989,1500,4294967284,0.00,0.00,0.00,0.00,0.00,0.00,0.00,0.00,0.00,0.00,0.00,0.00
6720523,-0.002,-0.003,1.002,-0.02,0.01,0.02,-0.06,0.10,1000,1000,1000,1000,1000,1000,0,1500,1500,989,1500,4294967283,0.00,0.00,0.00,0.00,0.00,0.00,0.00,0.00,0.00,0.00,0.00,0.00
6724523,-0.002,-0.001,1.004,-0.01,0.01,0.03,-0.10,0.11,1000,1000,1000,1000,1000,1000,0,1500,1500,989,1500,4294967284,0.00,0.00,0.00,0.00,0.00,0.00,0.00,0.00,0.00,0.00,0.00,0.00
6728523,-0.002,-0.002,1.007,-0.00,0.01,0.02,-0.14,0.08,1000,1000,1000,1000,1000,1000,0,1500,1500,989,1500,4294967285,0.00,0.00,0.00,0.00,0.00,0.00,0.00,0.00,0.00,0.00,0.00,0.00
6732523,-0.003,-0.002,1.005,0.00,0.00,0.03,-0.13,0.12,1000,1000,1000,1000,1000,1000,0,1500,1500,989,1500,4294967284,0.00,0.00,0.00,0.00,0.00,0.00,0.00,0.00,0.00,0.00,0.00,0.00
6736523,-0.003,-0.001,1.005,0.00,-0.01,0.04,-0.10,0.15,1000,1000,1000,1000,1000,1000,0,1500,1500,989,1500,4294967283,0.00,0.00,0.00,0.00,0.00,0.00,0.00,0.00,0.00,0.00,0.00,0.00
6740523,-0.003,0.001,1.002,-0.00,-0.01,0.02,-0.05,0.16,1000,1000,1000,1000,1000,1000,0,1500,1500,989,1500,4294967284,0.00,0.00,0.00,0.00,0.00,0.00,0.00,0.00,0.00,0.00,0.00,0.00
6744523,-0.003,-0.000,1.001,-0.01,-0.01,0.03,-0.01,0.18,1000,1000,1000,1000,1000,1000,0,1500,1500,989,1500,4294967285,0.00,0.00,0.00,0.00,0.00,0.00,0.00,0.00,0.00,0.00,0.00,0.00
6748523,-0.005,-0.001,1.000,-0.00,-0.00,0.02,-0.03,0.22,1000,1000,1000,1000,1000,1000,0,1500,1500,989,1500,3989,0.00,0.00,0.00,0.00,0.00,0.00,0.00,0.00,0.00,0.00,0.00,0.00
6752523,-0.006,-0.002,1.001,-0.00,-0.01,0.02,-0.05,0.26,1000,1000,1000,1000,1000,1000,0,1500,1500,989,1500,7989,0.00,0.00,0.00,0.00,0.00,0.00,0.00,0.00,0.00,0.00,0.00,0.00
6756523,-0.006,-0.002,1.001,-0.02,0.00,0.02,-0.07,0.30,1000,1000,1000,1000,1000,1000,0,1500,1500,989,1500,4294967284,0.00,0.00,0.00,0.00,0.00,0.00,0.00,0.00,0.00,0.00,0.00,0.00
6760523,-0.005,-0.001,1.001,-0.01,0.00,0.01,-0.04,0.32,1000,1000,1000,1000,1000,1000,0,1500,1500,989,1500,4294967283,0.00,0.00,0.00,0.00,0.00,0.00,0.00,0.00,0.00,0.00,0.00,0.00
6764523,-0.004,0.001,1.002,-0.01,-0.00,0.02,-0.01,0.28,1000,1000,1000,1000,1000,1000,0,1500,1500,989,1500,4294967284,0.00,0.00,0.00,0.00,0.00,0.00,0.00,0.00,0.00,0.00,0.00,0.00
6768523,-0.004,0.002,1.002,-0.01,-0.01,0.01,0.03,0.26,1000,1000,1000,1000,1000,1000,0,1500,1500,989,1500,4294967285,0.00,0.00,0.00,0.00,0.00,0.00,0.00,0.00,0.00,0.00,0.00,0.00
6772523,-0.005,0.001,1.000,0.00,-0.01,0.01,0.06,0.29,1000,1000,1000,1000,1000,1000,0,1500,1500,989,1500,4294967284,0.00,0.00,0.00,0.00,0.00,0.00,0.00,0.00,0.00,0.00,0.00,0.00
6776523,-0.004,0.001,1.001,0.00,-0.02,0.02,0.06,0.24,1000,1000,1000,1000,1000,1000,0,1500,1500,989,1500,4294967283,0.00,0.00,0.00,0.00,0.00,0.00,0.00,0.00,0.00,0.00,0.00,0.00
6780523,-0.004,0.002,1.001,-0.02,-0.02,0.02,0.10,0.25,1000,1000,1000,1000,1000,1000,0,1500,1500,989,1500,4294967284,0.00,0.00,0.00,0.00,0.00,0.00,0.00,0.00,0.00,0.00,0.00,0.00
6784523,-0.004,0.003,1.001,-0.00,-0.04,0.01,0.15,0.23,1000,1000,1000,1000,1000,1000,0,1500,1500,989,1500,4294967284,0.00,0.00,0.00,0.00,0.00,0.00,0.00,0.00,0.00,0.00,0.00,0.00
6788523,-0.003,0.003,1.002,0.01,-0.03,0.01,0.18,0.20,1000,1000,1000,1000,1000,1000,0,1500,1500,989,1500,4294967284,0.00,0.00,0.00,0.00,0.00,0.00,0.00,0.00,0.00,0.00,0.00,0.00
6792523,-0.003,0.003,1.002,0.01,-0.03,-0.01,0.17,0.16,1000,1000,1000,1000,1000,1000,0,1500,1500,989,1500,4294967283,0.00,0.00,0.00,0.00,0.00,0.00,0.00,0.00,0.00,0.00,0.00,0.00
6796523,-0.003,0.001,1.001,0.01,-0.02,-0.01,0.12,0.17,1000,1000,1000,1000,1000,1000,0,1500,1500,989,1500,4294967284,0.00,0.00,0.00,0.00,0.00,0.00,0.00,0.00,0.00,0.00,0.00,0.00
6800523,-0.004,0.000,1.000,0.01,-0.00,-0.03,0.09,0.20,1000,1000,1000,1000,1000,1000,0,1500,1500,989,1500,4294967285,0.00,0.00,0.00,0.00,0.00,0.00,0.00,0.00,0.00,0.00,0.00,0.00
6804523,-0.005,0.000,1.002,-0.01,0.00,-0.01,0.06,0.23,1000,1000,1000,1000,1000,1000,0,1500,1500,989,1500,4294967284,0.00,0.00,0.00,0.00,0.00,0.00,0.00,0.00,0.00,0.00,0.00,0.00
6808523,-0.005,0.000,1.003,-0.01,0.00,0.00,0.03,0.27,1000,1000,1000,1000,1000,1000,0,1500,1500,989,1500,4294967283,0.00,0.00,0.00,0.00,0.00,0.00,0.00,0.00,0.00,0.00,0.00,0.00
6812523,-0.003,-0.000,1.003,-0.02,0.00,0.00,0.01,0.22,1000,1000,1000,1000,1000,1000,0,1500,1500,989,1500,4294967284,0.00,0.00,0.00,0.00,0.00,0.00,0.00,0.00,0.00,0.00,0.00,0.00
6816523,-0.003,-0.001,1.003,0.00,0.00,0.01,-0.02,0.19,1000,1000,1000,1000,1000,1000,0,1500,1500,989,1500,4294967285,0.00,0.00,0.00,0.00,0.00,0.00,0.00,0.00,0.00,0.00,0.00,0.00
6820523,-0.004,-0.001,1.004,-0.02,-0.02,-0.00,-0.06,0.20,1000,1000,1000,1000,1000,1000,0,1500,1500,989,1500,4294967284,0.00,0.00,0.00,0.00,0.00,0.00,0.00,0.00,0.00,0.00,0.00,0.00
6824523,-0.004,-0.002,1.002,-0.01,-0.01,-0.01,-0.10,0.22,1000,1000,1000,1000,1000,1000,0,1500,1500,989,1500,4294967283,0.00,0.00,0.00,0.00,0.00,0.00,0.00,0.00,0.00,0.00,0.00,0.00
6828523,-0.004,-0.002,1.002,-0.02,-0.00,0.00,-0.15,0.22,1000,1000,1000,1000,1000,1000,0,1500,1500,989,1500,4294967284,0.00,0.00,0.00,0.00,0.00,0.00,0.00,0.00,0.00,0.00,0.00,0.00
6832523,-0.002,-0.001,1.002,-0.01,-0.02,0.00,-0.12,0.19,1000,1000,1000,1000,1000,1000,0,1500,1500,989,1500,4294967285,0.00,0.00,0.00,0.00,0.00,0.00,0.00,0.00,0.00,0.00,0.00,0.00
6836523,-0.002,-0.001,1.002,-0.01,-0.02,0.02,-0.10,0.14,1000,1000,1000,1000,1000,1000,0,1500,1500,989,1500,4294967284,0.00,0.00,0.00,0.00,0.00,0.00,0.00,0.00,0.00,0.00,0.00,0.00
6840523,-0.001,0.000,1.001,-0.01,-0.02,0.02,-0.06,0.12,1000,1000,1000,1000,1000,1000,0,1500,1500,989,1500,4294967283,0.00,0.00,0.00,0.00,0.00,0.00,0.00,0.00,0.00,0.00,0.00,0.00
6844523,-0.002,0.000,1.000,-0.02,-0.02,0.01,-0.01,0.11,1000,1000,1000,1000,1000,1000,0,1500,1500,989,1500,4294967284,0.00,0.00,0.00,0.00,0.00,0.00,0.00,0.00,0.00,0.00,0.00,0.00
6848523,-0.001,-0.001,1.002,-0.01,-0.01,0.00,-0.05,0.08,1000,1000,1000,1000,1000,1000,0,1500,1500,989,1500,4294967285,0.00,0.00,0.00,0.00,0.00,0.00,0.00,0.00,0.00,0.00,0.00,0.00
6852523,-0.001,-0.001,1.004,-0.01,-0.01,0.01,-0.07,0.04,1000,1000,1000,1000,1000,1000,0,1500,1500,989,1500,4294967284,0.00,0.00,0.00,0.00,0.00,0.00,0.00,0.00,0.00,0.00,0.00,0.00
6856523,0.001,-0.000,1.004,-0.01,-0.02,0.01,-0.05,0.01,1000,1000,1000,1000,1000,1000,0,1500,1500,989,1500,4294967283,0.00,0.00,0.00,0.00,0.00,0.00,0.00,0.00,0.00,0.00,0.00,0.00
6860523,0.002,0.002,1.005,0.00,-0.02,0.02,-0.01,-0.02,1000,1000,1000,1000,1000,1000,0,1500,1500,989,1500,4294967284,0.00,0.00,0.00,0.00,0.00,0.00,0.00,0.00,0.00,0.00,0.00,0.00
6864523,0.003,0.002,1.004,-0.00,-0.02,0.02,0.02,-0.05,1000,1000,1000,1000,1000,1000,0,1500,1500,989,1500,4294967285,0.00,0.00,0.00,0.00,0.00,0.00,0.00,0.00,0.00,0.00,0.00,0.00
6868523,0.004,0.002,1.003,0.02,-0.02,0.01,0.04,-0.10,1000,1000,1000,1000,1000,1000,0,1500,1500,989,1500,4294967284,0.00,0.00,0.00,0.00,0.00,0.00,0.00,0.00,0.00,0.00,0.00,0.00
6872523,0.004,0.001,1.000,0.03,-0.02,-0.01,0.05,-0.14,1000,1000,1000,1000,1000,1000,0,1500,1500,989,1500,4294967283,0.00,0.00,0.00,0.00,0.00,0.00,0.00,0.00,0.00,0.00,0.00,0.00
6876523,0.004,0.001,0.997,0.03,-0.02,-0.02,0.05,-0.19,1000,1000,1000,1000,1000,1000,0,1500,1500,989,1500,4294967284,0.00,0.00,0.00,0.00,0.00,0.00,0.00,0.00,0.00,0.00,0.00,0.00
6880523,0.004,0.000,1.000,0.03,-0.03,-0.03,0.03,-0.22,1000,1000,1000,1000,1000,1000,0,1500,1500,989,1500,4294967285,0.00,0.00,0.00,0.00,0.00,0.00,0.00,0.00,0.00,0.00,0.00,0.00
6884523,0.005,0.001,1.002,0.01,-0.03,-0.03,0.04,-0.26,1000,1000,1000,1000,1000,1000,0,1500,1500,989,1500,4294967283,0.00,0.00,0.00,0.00,0.00,0.00,0.00,0.00,0.00,0.00,0.00,0.00
6888523,0.005,0.001,1.003,0.01,-0.02,-0.02,0.08,-0.30,1000,1000,1000,1000,1000,1000,0,1500,1500,989,1500,4294967283,0.00,0.00,0.00,0.00,0.00,0.00,0.00,0.00,0.00,0.00,0.00,0.00
6892523,0.005,0.000,1.001,-0.01,-0.01,-0.01,0.04,-0.27,1000,1000,1000,1000,1000,1000,0,1500,1500,989,1500,4294967284,0.00,0.00,0.00,0.00,0.00,0.00,0.00,0.00,0.00,0.00,0.00,0.00
6896523,0.005,0.001,1.000,-0.02,0.01,0.00,0.08,-0.28,1000,1000,1000,1000,1000,1000,0,1500,1500,989,1500,4294967285,0.00,0.00,0.00,0.00,0.00,0.00,0.00,0.00,0.00,0.00,0.00,0.00
6900523,0.004,0.001,0.999,-0.02,0.02,-0.02,0.08,-0.24,1000,1000,1000,1000,1000,1000,0,1500,1500,989,1500,4294967284,0.00,0.00,0.00,0.00,0.00,0.00,0.00,0.00,0.00,0.00,0.00,0.00
6904523,0.001,0.002,0.999,-0.00,0.02,-0.01,0.09,-0.19,1000,1000,1000,1000,1000,1000,0,1500,1500,989,1500,4294967283,0.00,0.00,0.00,0.00,0.00,0.00,0.00,0.00,0.00,0.00,0.00,0.00
6908523,0.001,0.003,1.000,0.01,0.01,-0.02,0.12,-0.16,1000,1000,1000,1000,1000,1000,0,1500,1500,989,1500,4294967284,0.00,0.00,0.00,0.00,0.00,0.00,0.00,0.00,0.00,0.00,0.00,0.00
6912523,0.000,0.004,1.000,0.02,0.01,-0.00,0.15,-0.12,1000,1000,1000,1000,1000,1000,0,1500,1500,989,1500,4294967285,0.00,0.00,0.00,0.00,0.00,0.00,0.00,0.00,0.00,0.00,0.00,0.00
6916523,-0.001,0.005,1.001,0.02,0.01,-0.00,0.18,-0.09,1000,1000,1000,1000,1000,1000,0,1500,1500,989,1500,4294967284,0.00,0.00,0.00,0.00,0.00,0.00,0.00,0.00,0.00,0.00,0.00,0.00
6920523,-0.002,0.006,1.003,0.02,0.01,-0.01,0.20,-0.05,1000,1000,1000,1000,1000,1000,0,1500,1500,989,1500,4294967283,0.00,0.00,0.00,0.00,0.00,0.00,0.00,0.00,0.00,0.00,0.00,0.00
6924523,-0.003,0.007,1.002,0.01,0.01,-0.01,0.23,-0.01,1000,1000,1000,1000,1000,1000,0,1500,1500,989,1500,4294967284,0.00,0.00,0.00,0.00,0.00,0.00,0.00,0.00,0.00,0.00,0.00,0.00
6928523,-0.005,0.008,1.003,0.01,0.01,-0.00,0.26,0.02,1000,1000,1000,1000,1000,1000,0,1500,1500,989,1500,4294967285,0.00,0.00,0.00,0.00,0.00,0.00,0.00,0.00,0.00,0.00,0.00,0.00
6932523,-0.003,0.008,1.004,-0.00,0.00,0.00,0.30,0.05,1000,1000,1000,1000,1000,1000,0,1500,1500,989,1500,4294967284,0.00,0.00,0.00,0.00,0.00,0.00,0.00,0.00,0.00,0.00,0.00,0.00
6936523,-0.002,0.007,1.005,-0.01,0.01,0.00,0.33,0.08,1000,1000,1000,1000,1000,1000,0,1500,1500,989,1500,4294967283,0.00,0.00,0.00,0.00,0.00,0.00,0.00,0.00,0.00,0.00,0.00,0.00
6940523,-0.002,0.003,1.005,-0.01,0.01,0.01,0.29,0.10,1000,1000,1000,1000,1000,1000,0,1500,1500,989,1500,4294967284,0.00,0.00,0.00,0.00,0.00,0.00,0.00,0.00,0.00,0.00,0.00,0.00
6944523,-0.001,-0.000,1.006,-0.01,0.01,0.01,0.24,0.10,1000,1000,1000,1000,1000,1000,0,1500,1500,989,1500,4294967285,0.00,0.00,0.00,0.00,0.00,0.00,0.00,0.00,0.00,0.00,0.00,0.00
6948523,-0.001,-0.001,1.006,-0.01,0.02,-0.01,0.20,0.09,1000,1000,1000,1000,1000,1000,0,1500,1500,989,1500,4294967284,0.00,0.00,0.00,0.00,0.00,0.00,0.00,0.00,0.00,0.00,0.00,0.00
6952523,0.001,0.000,1.006,-0.00,0.02,-0.02,0.16,0.06,1000,1000,1000,1000,1000,1000,0,1500,1500,989,1500,4294967283,0.00,0.00,0.00,0.00,0.00,0.00,0.00,0.00,0.00,0.00,0.00,0.00
6956523,0.003,0.002,1.005,0.00,0.00,-0.01,0.14,0.02,1000,1000,1000,1000,1000,1000,0,1500,1500,989,1500,4294967284,0.00,0.00,0.00,0.00,0.00,0.00,0.00,0.00,0.00,0.00,0.00,0.00
6960523,0.003,0.003,1.002,-0.01,-0.00,0.01,0.15,-0.03,1000,1000,1000,1000,1000,1000,0,1500,1500,989,1500,4294967285,0.00,0.00,0.00,0.00,0.00,0.00,0.00,0.00,0.00,0.00,0.00,0.00
6964523,0.004,0.003,1.002,-0.01,-0.02,0.00,0.15,-0.07,1000,1000,1000,1000,1000,1000,0,1500,1500,989,1500,4294967284,0.00,0.00,0.00,0.00,0.00,0.00,0.00,0.00,0.00,0.00,0.00,0.00
6968523,0.003,0.001,1.003,-0.01,-0.01,0.00,0.13,-0.11,1000,1000,1000,1000,1000,1000,0,1500,1500,989,1500,4294967283,0.00,0.00,0.00,0.00,0.00,0.00,0.00,0.00,0.00,0.00,0.00,0.00
6972523,0.002,0.001,1.002,-0.02,-0.00,0.01,0.08,-0.11,1000,1000,1000,1000,1000,1000,0,1500,1500,989,1500,4294967284,0.00,0.00,0.00,0.00,0.00,0.00,0.00,0.00,0.00,0.00,0.00,0.00
6976523,0.001,-0.001,1.002,-0.02,-0.01,0.01,0.04,-0.09,1000,1000,1000,1000,1000,1000,0,1500,1500,989,1500,4294967285,0.00,0.00,0.00,0.00,0.00,0.00,0.00,0.00,0.00,0.00,0.00,0.00
6980523,-0.000,-0.003,1.001,-0.03,-0.01,0.00,-0.00,-0.07,1000,1000,1000,1000,1000,1000,0,1500,1500,989,1500,4294967284,0.00,0.00,0.00,0.00,0.00,0.00,0.00,0.00,0.00,0.00,0.00,0.00
6984523,-0.000,-0.004,1.001,-0.03,-0.02,0.01,-0.04,-0.05,1000,1000,1000,1000,1000,1000,0,1500,1500,989,1500,4294967281,0.00,0.00,0.00,0.00,0.00,0.00,0.00,0.00,0.00,0.00,0.00,0.00
6988523,0.000,-0.003,1.002,-0.01,-0.02,0.02,-0.09,-0.04,1000,1000,1000,1000,1000,1000,0,1500,1500,989,1500,4294967284,0.00,0.00,0.00,0.00,0.00,0.00,0.00,0.00,0.00,0.00,0.00,0.00
6992523,0.000,-0.003,1.002,0.00,-0.03,0.03,-0.13,-0.02,1000,1000,1000,1000,1000,1000,0,1500,1500,989,1500,4294967285,0.00,0.00,0.00,0.00,0.00,0.00,0.00,0.00,0.00,0.00,0.00,0.00
6996523,-0.000,-0.003,1.000,0.02,-0.03,0.03,-0.17,0.00,1000,1000,1000,1000,1000,1000,0,1500,1500,989,1500,4294967284,0.00,0.00,0.00,0.00,0.00,0.00,0.00,0.00,0.00,0.00,0.00,0.00
7000523,0.001,-0.003,0.998,0.02,-0.00,0.03,-0.15,-0.04,1000,1000,1000,1000,1000,1000,0,1500,1500,989,1500,4294967283,0.00,0.00,0.00,0.00,0.00,0.00,0.00,0.00,0.00,0.00,0.00,0.00
7004523,0.000,-0.001,0.996,0.02,-0.01,0.02,-0.11,-0.02,1000,1000,1000,1000,1000,1000,0,1500,1500,989,1500,4294967284,0.00,0.00,0.00,0.00,0.00,0.00,0.00,0.00,0.00,0.00,0.00,0.00
7008523,-0.000,-0.002,0.997,0.01,0.00,0.01,-0.09,0.02,1000,1000,1000,1000,1000,1000,0,1500,1500,989,1500,4294967285,0.00,0.00,0.00,0.00,0.00,0.00,0.00,0.00,0.00,0.00,0.00,0.00
7012523,-0.003,-0.002,0.998,0.02,0.01,0.00,-0.10,0.06,1000,1000,1000,1000,1000,1000,0,1500,1500,989,1500,4294967284,0.00,0.00,0.00,0.00,0.00,0.00,0.00,0.00,0.00,0.00,0.00,0.00
7016523,-0.004,-0.002,0.996,0.02,0.00,0.01,-0.11,0.11,1000,1000,1000,1000,1000,1000,0,1500,1500,989,1500,4294967283,0.00,0.00,0.00,0.00,0.00,0.00,0.00,0.00,0.00,0.00,0.00,0.00
7020523,-0.004,-0.002,0.995,0.02,-0.02,0.03,-0.12,0.15,1000,1000,1000,1000,1000,1000,0,1500,1500,989,1500,4294967284,0.00,0.00,0.00,0.00,0.00,0.00,0.00,0.00,0.00,0.00,0.00,0.00
7024523,-0.003,-0.003,0.997,0.01,-0.02,0.03,-0.15,0.18,1000,1000,1000,1000,1000,1000,0,1500,1500,989,1500,4294967285,0.00,0.00,0.00,0.00,0.00,0.00,0.00,0.00,0.00,0.00,0.00,0.00
7028523,-0.002,-0.003,0.998,0.00,-0.03,0.03,-0.18,0.14,1000,1000,1000,1000,1000,1000,0,1500,1500,989,1500,4294967284,0.00,0.00,0.00,0.00,0.00,0.00,0.00,0.00,0.00,0.00,0.00,0.00
7032523,-0.000,-0.004,0.999,-0.01,-0.03,0.01,-0.19,0.09,1000,1000,1000,1000,1000,1000,0,1500,1500,989,1500,4294967283,0.00,0.00,0.00,0.00,0.00,0.00,0.00,0.00,0.00,0.00,0.00,0.00
7036523,0.001,-0.003,1.002,-0.02,-0.03,0.00,-0.18,0.05,1000,1000,1000,1000,1000,1000,0,1500,1500,989,1500,4294967284,0.00,0.00,0.00,0.00,0.00,0.00,0.00,0.00,0.00,0.00,0.00,0.00
7040523,0.001,-0.001,1.003,-0.03,-0.05,-0.01,-0.14,0.02,1000,1000,1000,1000,1000,1000,0,1500,1500,989,1500,4294967285,0.00,0.00,0.00,0.00,0.00,0.00,0.00,0.00,0.00,0.00,0.00,0.00
7044523,-0.000,-0.001,1.005,-0.04,-0.05,-0.02,-0.10,0.01,1000,1000,1000,1000,1000,1000,0,1500,1500,989,1500,4294967284,0.00,0.00,0.00,0.00,0.00,0.00,0.00,0.00,0.00,0.00,0.00,0.00
7048523,0.001,0.000,1.004,-0.02,-0.05,-0.02,-0.06,-0.01,1000,1000,1000,1000,1000,1000,0,1500,1500,989,1500,4294967283,0.00,0.00,0.00,0.00,0.00,0.00,0.00,0.00,0.00,0.00,0.00,0.00
7052523,0.002,0.001,1.003,-0.04,-0.04,-0.03,-0.02,-0.04,1000,1000,1000,1000,1000,1000,0,1500,1500,989,1500,4294967284,0.00,0.00,0.00,0.00,0.00,0.00,0.00,0.00,0.00,0.00,0.00,0.00
7056523,0.002,0.001,1.004,-0.03,-0.03,-0.03,0.02,-0.07,1000,1000,1000,1000,1000,1000,0,1500,1500,989,1500,3988,0.00,0.00,0.00,0.00,0.00,0.00,0.00,0.00,0.00,0.00,0.00,0.00
7060523,0.004,0.001,1.004,-0.04,-0.03,-0.03,0.03,-0.11,1000,1000,1000,1000,1000,1000,0,1500,1500,989,1500,4294967285,0.00,0.00,0.00,0.00,0.00,0.00,0.00,0.00,0.00,0.00,0.00,0.00
7064523,0.003,-0.000,1.003,-0.02,-0.03,-0.03,-0.00,-0.14,1000,1000,1000,1000,1000,1000,0,1500,1500,989,1500,4294967284,0.00,0.00,0.00,0.00,0.00,0.00,0.00,0.00,0.00,0.00,0.00,0.00
7068523,0.002,0.002,1.001,-0.01,-0.03,-0.02,0.04,-0.13,1000,1000,1000,1000,1000,1000,0,1500,1500,989,1500,4294967283,0.00,0.00,0.00,0.00,0.00,0.00,0.00,0.00,0.00,0.00,0.00,0.00
7072523,0.002,0.003,1.001,0.02,-0.01,-0.03,0.09,-0.13,1000,1000,1000,1000,1000,1000,0,1500,1500,989,1500,4294967284,0.00,0.00,0.00,0.00,0.00,0.00,0.00,0.00,0.00,0.00,0.00,0.00
7076523,0.003,0.003,1.005,0.02,0.01,-0.02,0.13,-0.14,1000,1000,1000,1000,1000,1000,0,1500,1500,989,1500,4294967285,0.00,0.00,0.00,0.00,0.00,0.00,0.00,0.00,0.00,0.00,0.00,0.00
7080523,0.002,0.004,1.005,0.01,0.02,-0.01,0.18,-0.14,1000,1000,1000,1000,1000,1000,0,1500,1500,989,1500,4294967284,0.00,0.00,0.00,0.00,0.00,0.00,0.00,0.00,0.00,0.00,0.00,0.00
7084523,0.003,0.004,1.002,0.01,0.01,-0.01,0.22,-0.14,1000,1000,1000,1000,1000,1000,0,1500,1500,989,1500,4294967282,0.00,0.00,0.00,0.00,0.00,0.00,0.00,0.00,0.00,0.00,0.00,0.00
7088523,0.001,0.004,0.999,-0.00,0.00,0.00,0.24,-0.10,1000,1000,1000,1000,1000,1000,0,1500,1500,989,1500,3986,0.00,0.00,0.00,0.00,0.00,0.00,0.00,0.00,0.00,0.00,0.00,0.00
7092523,0.001,0.003,0.998,-0.01,-0.00,-0.00,0.19,-0.08,1000,1000,1000,1000,1000,1000,0,1500,1500,989,1500,4294967284,0.00,0.00,0.00,0.00,0.00,0.00,0.00,0.00,0.00,0.00,0.00,0.00
7096523,0.001,0.001,0.999,-0.00,0.00,0.00,0.15,-0.07,1000,1000,1000,1000,1000,1000,0,1500,1500,989,1500,4294967285,0.00,0.00,0.00,0.00,0.00,0.00,0.00,0.00,0.00,0.00,0.00,0.00
7100523,0.000,0.001,1.000,-0.00,-0.01,0.00,0.11,-0.05,1000,1000,1000,1000,1000,1000,0,1500,1500,989,1500,4294967284,0.00,0.00,0.00,0.00,0.00,0.00,0.00,0.00,0.00,0.00,0.00,0.00
7104523,-0.000,0.001,0.999,0.02,-0.02,0.01,0.08,-0.01,1000,1000,1000,1000,1000,1000,0,1500,1500,989,1500,4294967283,0.00,0.00,0.00,0.00,0.00,0.00,0.00,0.00,0.00,0.00,0.00,0.00
7108523,-0.001,0.002,0.998,0.01,-0.03,0.02,0.11,0.02,1000,1000,1000,1000,1000,1000,0,1500,1500,989,1500,4294967284,0.00,0.00,0.00,0.00,0.00,0.00,0.00,0.00,0.00,0.00,0.00,0.00
7112523,-0.002,0.002,0.996,0.00,-0.02,0.02,0.12,0.07,1000,1000,1000,1000,1000,1000,0,1500,1500,989,1500,4294967285,0.00,0.00,0.00,0.00,0.00,0.00,0.00,0.00,0.00,0.00,0.00,0.00
7116523,-0.001,0.002,0.996,0.01,-0.01,0.02,0.12,0.02,1000,1000,1000,1000,1000,1000,0,1500,1500,989,1500,4294967284,0.00,0.00,0.00,0.00,0.00,0.00,0.00,0.00,0.00,0.00,0.00,0.00
7120523,-0.000,0.002,0.998,-0.01,-0.01,0.01,0.08,0.03,1000,1000,1000,1000,1000,1000,0,1500,1500,989,1500,4294967283,0.00,0.00,0.00,0.00,0.00,0.00,0.00,0.00,0.00,0.00,0.00,0.00
7124523,-0.001,0.002,0.999,-0.01,-0.02,0.02,0.12,0.05,1000,1000,1000,1000,1000,1000,0,1500,1500,989,1500,4294967284,0.00,0.00,0.00,0.00,0.00,0.00,0.00,0.00,0.00,0.00,0.00,0.00
7128523,-0.002,0.001,0.999,-0.01,-0.02,0.02,0.09,0.09,1000,1000,1000,1000,1000,1000,0,1500,1500,989,1500,4294967285,0.00,0.00,0.00,0.00,0.00,0.00,0.00,0.00,0.00,0.00,0.00,0.00
7132523,-0.004,0.002,1.000,0.00,-0.02,0.02,0.09,0.13,1000,1000,1000,1000,1000,1000,0,1500,1500,989,1500,4294967284,0.00,0.00,0.00,0.00,0.00,0.00,0.00,0.00,0.00,0.00,0.00,0.00
7136523,-0.004,0.002,1.002,0.01,-0.03,-0.00,0.10,0.18,1000,1000,1000,1000,1000,1000,0,1500,1500,989,1500,4294967283,0.00,0.00,0.00,0.00,0.00,0.00,0.00,0.00,0.00,0.00,0.00,0.00
7140523,-0.005,0.001,1.003,-0.00,-0.04,-0.00,0.09,0.22,1000,1000,1000,1000,1000,1000,0,1500,1500,989,1500,4294967284,0.00,0.00,0.00,0.00,0.00,0.00,0.00,0.00,0.00,0.00,0.00,0.00
7144523,-0.004,0.001,1.000,-0.01,-0.03,0.00,0.05,0.25,1000,1000,1000,1000,1000,1000,0,1500,1500,989,1500,4294967285,0.00,0.00,0.00,0.00,0.00,0.00,0.00,0.00,0.00,0.00,0.00,0.00
7148523,-0.005,0.002,0.999,-0.01,-0.02,0.00,0.09,0.27,1000,1000,1000,1000,1000,1000,0,1500,1500,989,1500,4294967284,0.00,0.00,0.00,0.00,0.00,0.00,0.00,0.00,0.00,0.00,0.00,0.00
7152523,-0.004,0.005,0.999,-0.01,-0.00,0.01,0.14,0.26,1000,1000,1000,1000,1000,1000,0,1500,1500,989,1500,4294967283,0.00,0.00,0.00,0.00,0.00,0.00,0.00,0.00,0.00,0.00,0.00,0.00
7156523,-0.004,0.006,1.000,-0.01,0.00,0.01,0.18,0.26,1000,1000,1000,1000,1000,1000,0,1500,1500,989,1500,4294967284,0.00,0.00,0.00,0.00,0.00,0.00,0.00,0.00,0.00,0.00,0.00,0.00
7160523,-0.004,0.007,1.003,-0.01,0.00,0.01,0.23,0.25,1000,1000,1000,1000,1000,1000,0,1500,1500,989,1500,4294967285,0.00,0.00,0.00,0.00,0.00,0.00,0.00,0.00,0.00,0.00,0.00,0.00
7164523,-0.004,0.007,1.005,-0.01,0.01,0.01,0.27,0.25,1000,1000,1000,1000,1000,1000,0,1500,1500,989,1500,4294967284,0.00,0.00,0.00,0.00,0.00,0.00,0.00,0.00,0.00,0.00,0.00,0.00
7168523,-0.003,0.004,1.004,-0.02,0.01,0.01,0.26,0.20,1000,1000,1000,1000,1000,1000,0,1500,1500,989,1500,4294967283,0.00,0.00,0.00,0.00,0.00,0.00,0.00,0.00,0.00,0.00,0.00,0.00
7172523,-0.003,0.004,1.004,-0.01,0.02,0.01,0.23,0.17,1000,1000,1000,1000,1000,1000,0,1500,1500,989,1500,4294967284,0.00,0.00,0.00,0.00,0.00,0.00,0.00,0.00,0.00,0.00,0.00,0.00
7176523,-0.002,0.004,1.004,-0.00,0.01,-0.01,0.20,0.14,1000,1000,1000,1000,1000,1000,0,1500,1500,989,1500,4294967285,0.00,0.00,0.00,0.00,0.00,0.00,0.00,0.00,0.00,0.00,0.00,0.00
7180523,-0.002,0.003,1.007,0.00,0.01,-0.02,0.18,0.09,1000,1000,1000,1000,1000,1000,0,1500,1500,989,1500,4294967284,0.00,0.00,0.00,0.00,0.00,0.00,0.00,0.00,0.00,0.00,0.00,0.00
7184523,-0.001,0.002,1.008,0.01,0.01,-0.02,0.14,0.07,1000,1000,1000,1000,1000,1000,0,1500,1500,989,1500,4294967283,0.00,0.00,0.00,0.00,0.00,0.00,0.00,0.00,0.00,0.00,0.00,0.00
7188523,-0.000,0.001,1.008,-0.00,-0.01,-0.03,0.11,0.04,1000,1000,1000,1000,1000,1000,0,1500,1500,989,1500,4294967284,0.00,0.00,0.00,0.00,0.00,0.00,0.00,0.00,0.00,0.00,0.00,0.00
7192523,0.001,0.001,1.006,-0.02,-0.01,-0.03,0.08,0.00,1000,1000,1000,1000,1000,1000,0,1500,1500,989,1500,4294967285,0.00,0.00,0.00,0.00,0.00,0.00,0.00,0.00,0.00,0.00,0.00,0.00
7196523,-0.000,0.002,1.005,-0.03,-0.02,-0.02,0.13,0.01,1000,1000,1000,1000,1000,1000,0,1500,1500,989,1500,4294967284,0.00,0.00,0.00,0.00,0.00,0.00,0.00,0.00,0.00,0.00,0.00,0.00
7200523,0.000,0.001,1.003,-0.03,-0.02,-0.01,0.08,0.00,1000,1000,1000,1000,1000,1000,0,1500,1500,989,1500,4294967283,0.00,0.00,0.00,0.00,0.00,0.00,0.00,0.00,0.00,0.00,0.00,0.00
7204523,0.002,-0.000,1.001,-0.02,-0.02,-0.00,0.05,-0.03,1000,1000,1000,1000,1000,1000,0,1500,1500,989,1500,4294967284,0.00,0.00,0.00,0.00,0.00,0.00,0.00,0.00,0.00,0.00,0.00,0.00
7208523,0.003,-0.000,1.000,-0.01,-0.02,0.00,0.03,-0.08,1000,1000,1000,1000,1000,1000,0,1500,1500,989,1500,4294967285,0.00,0.00,0.00,0.00,0.00,0.00,0.00,0.00,0.00,0.00,0.00,0.00
7212523,0.002,-0.001,0.998,-0.00,-0.02,0.01,-0.01,-0.09,1000,1000,1000,1000,1000,1000,0,1500,1500,989,1500,4294967284,0.00,0.00,0.00,0.00,0.00,0.00,0.00,0.00,0.00,0.00,0.00,0.00
7216523,-0.000,-0.002,0.998,-0.00,-0.02,-0.00,-0.04,-0.06,1000,1000,1000,1000,1000,1000,0,1500,1500,989,1500,4294967283,0.00,0.00,0.00,0.00,0.00,0.00,0.00,0.00,0.00,0.00,0.00,0.00
7220523,-0.002,-0.003,0.996,-0.01,-0.02,-0.02,-0.07,-0.03,1000,1000,1000,1000,1000,1000,0,1500,1500,989,1500,4294967284,0.00,0.00,0.00,0.00,0.00,0.00,0.00,0.00,0.00,0.00,0.00,0.00
7224523,-0.004,-0.004,0.995,-0.02,-0.01,-0.01,-0.09,0.01,1000,1000,1000,1000,1000,1000,0,1500,1500,989,1500,4294967285,0.00,0.00,0.00,0.00,0.00,0.00,0.00,0.00,0.00,0.00,0.00,0.00
7228523,-0.005,-0.004,0.996,-0.03,-0.02,0.01,-0.11,0.05,1000,1000,1000,1000,1000,1000,0,1500,1500,989,1500,4294967284,0.00,0.00,0.00,0.00,0.00,0.00,0.00,0.00,0.00,0.00,0.00,0.00
7232523,-0.005,-0.004,0.996,-0.03,-0.01,0.02,-0.13,0.10,1000,1000,1000,1000,1000,1000,0,1500,1500,989,1500,4294967283,0.00,0.00,0.00,0.00,0.00,0.00,0.00,0.00,0.00,0.00,0.00,0.00
7236523,-0.003,-0.002,0.997,-0.03,-0.03,0.02,-0.11,0.14,1000,1000,1000,1000,1000,1000,0,1500,1500,989,1500,4294967284,0.00,0.00,0.00,0.00,0.00,0.00,0.00,0.00,0.00,0.00,0.00,0.00
7240523,-0.001,-0.001,0.997,-0.04,-0.04,0.04,-0.09,0.10,1000,1000,1000,1000,1000,1000,0,1500,1500,989,1500,4294967285,0.00,0.00,0.00,0.00,0.00,0.00,0.00,0.00,0.00,0.00,0.00,0.00
7244523,0.000,0.001,0.996,-0.04,-0.04,0.03,-0.06,0.07,1000,1000,1000,1000,1000,1000,0,1500,1500,989,1500,4294967284,0.00,0.00,0.00,0.00,0.00,0.00,0.00,0.00,0.00,0.00,0.00,0.00
7248523,0.000,0.003,0.998,-0.02,-0.02,0.03,-0.01,0.06,1000,1000,1000,1000,1000,1000,0,1500,1500,989,1500,4294967283,0.00,0.00,0.00,0.00,0.00,0.00,0.00,0.00,0.00,0.00,0.00,0.00
7252523,-0.002,0.008,0.995,0.02,0.00,0.03,0.03,0.06,1000,1000,1000,1000,1000,1000,0,1500,1500,989,1500,4294967284,0.00,0.00,0.00,0.00,0.00,0.00,0.00,0.00,0.00,0.00,0.00,0.00
7256523,-0.003,0.013,0.976,0.13,-0.05,0.02,0.08,0.07,1000,1000,1000,1000,1000,1000,0,1500,1500,989,1500,4294967285,0.00,0.00,0.00,0.00,0.00,0.00,0.00,0.00,0.00,0.00,0.00,0.00
7260523,-0.005,0.013,0.965,0.15,-0.01,0.01,0.12,0.08,1000,1000,1000,1000,1000,1000,0,1500,1500,989,1500,4294967284,0.00,0.00,0.00,0.00,0.00,0.00,0.00,0.00,0.00,0.00,0.00,0.00
7264523,-0.005,0.012,0.976,0.10,-0.01,0.02,0.17,0.10,1000,1000,1000,1000,1000,1000,0,1500,1500,989,1500,4294967283,0.00,0.00,0.00,0.00,0.00,0.00,0.00,0.00,0.00,0.00,0.00,0.00
7268523,-0.006,0.009,0.996,0.06,-0.03,0.01,0.20,0.12,1000,1000,1000,1000,1000,1000,0,1500,1500,989,1500,4294967284,0.00,0.00,0.00,0.00,0.00,0.00,0.00,0.00,0.00,0.00,0.00,0.00
7272523,-0.005,0.005,1.013,0.02,-0.03,-0.01,0.22,0.17,1000,1000,1000,1000,1000,1000,0,1500,1500,989,1500,4294967285,0.00,0.00,0.00,0.00,0.00,0.00,0.00,0.00,0.00,0.00,0.00,0.00
7276523,-0.004,-0.000,1.017,0.05,-0.03,-0.03,0.17,0.18,1000,1000,1000,1000,1000,1000,0,1500,1500,989,1500,4294967284,0.00,0.00,0.00,0.00,0.00,0.00,0.00,0.00,0.00,0.00,0.00,0.00
7280523,0.002,-0.004,1.007,0.07,-0.02,-0.02,0.13,0.15,1000,1000,1000,1000,1000,1000,0,1500,1500,989,1500,4294967283,0.00,0.00,0.00,0.00,0.00,0.00,0.00,0.00,0.00,0.00,0.00,0.00
7284523,0.005,-0.008,0.997,0.06,0.00,0.01,0.10,0.12,1000,1000,1000,1000,1000,1000,0,1500,1500,989,1500,4294967284,0.00,0.00,0.00,0.00,0.00,0.00,0.00,0.00,0.00,0.00,0.00,0.00
7288523,0.010,-0.008,0.992,0.06,-0.01,0.02,0.07,0.09,1000,1000,1000,1000,1000,1000,0,1500,1500,989,1500,4294967284,0.00,0.00,0.00,0.00,0.00,0.00,0.00,0.00,0.00,0.00,0.00,0.00
7292523,0.012,-0.005,0.997,0.02,-0.00,0.03,0.05,0.04,1000,1000,1000,1000,1000,1000,0,1500,1500,989,1500,3988,0.00,0.00,0.00,0.00,0.00,0.00,0.00,0.00,0.00,0.00,0.00,0.00
7296523,0.012,-0.002,1.011,0.00,0.03,0.02,0.04,-0.00,1000,1000,1000,1000,1000,1000,0,1500,1500,989,1500,4294967284,0.00,0.00,0.00,0.00,0.00,0.00,0.00,0.00,0.00,0.00,0.00,0.00
7300523,0.013,0.001,1.020,0.04,0.04,0.04,0.04,-0.05,1000,1000,1000,1000,1000,1000,0,1500,1500,989,1500,4294967283,0.00,0.00,0.00,0.00,0.00,0.00,0.00,0.00,0.00,0.00,0.00,0.00
7304523,0.012,0.002,1.022,0.08,0.05,0.04,0.04,-0.09,1000,1000,1000,1000,1000,1000,0,1500,1500,989,1500,3987,0.00,0.00,0.00,0.00,0.00,0.00,0.00,0.00,0.00,0.00,0.00,0.00
7308523,0.008,-0.002,1.018,0.10,0.05,0.05,0.02,-0.13,1000,1000,1000,1000,1000,1000,0,1500,1500,989,1500,4294967284,0.00,0.00,0.00,0.00,0.00,0.00,0.00,0.00,0.00,0.00,0.00,0.00
7312523,0.001,-0.005,1.013,0.09,0.06,0.05,-0.02,-0.12,1000,1000,1000,1000,1000,1000,0,1500,1500,989,1500,4294967285,0.00,0.00,0.00,0.00,0.00,0.00,0.00,0.00,0.00,0.00,0.00,0.00
7316523,-0.004,-0.006,1.011,0.07,0.06,0.03,-0.05,-0.09,1000,1000,1000,1000,1000,1000,0,1500,1500,989,1500,4294967284,0.00,0.00,0.00,0.00,0.00,0.00,0.00,0.00,0.00,0.00,0.00,0.00
7320523,-0.006,-0.006,1.017,0.02,0.09,0.04,-0.08,-0.05,1000,1000,1000,1000,1000,1000,0,1500,1500,989,1500,4294967283,0.00,0.00,0.00,0.00,0.00,0.00,0.00,0.00,0.00,0.00,0.00,0.00
7324523,-0.006,-0.002,1.024,-0.01,0.09,0.03,-0.08,-0.00,1000,1000,1000,1000,1000,1000,0,1500,1500,989,1500,4294967284,0.00,0.00,0.00,0.00,0.00,0.00,0.00,0.00,0.00,0.00,0.00,0.00
7328523,-0.007,0.001,1.030,-0.04,0.08,0.01,-0.07,0.04,1000,1000,1000,1000,1000,1000,0,1500,1500,989,1500,4294967285,0.00,0.00,0.00,0.00,0.00,0.00,0.00,0.00,0.00,0.00,0.00,0.00
7332523,-0.008,0.002,1.033,-0.06,0.08,-0.02,-0.05,0.08,1000,1000,1000,1000,1000,1000,0,1500,1500,989,1500,4294967284,0.00,0.00,0.00,0.00,0.00,0.00,0.00,0.00,0.00,0.00,0.00,0.00
7336523,-0.008,0.002,1.029,-0.06,0.08,-0.03,-0.03,0.13,1000,1000,1000,1000,1000,1000,0,1500,1500,989,1500,4294967283,0.00,0.00,0.00,0.00,0.00,0.00,0.00,0.00,0.00,0.00,0.00,0.00
7340523,-0.005,0.001,1.021,-0.07,0.07,-0.03,-0.01,0.17,1000,1000,1000,1000,1000,1000,0,1500,1500,989,1500,4294967284,0.00,0.00,0.00,0.00,0.00,0.00,0.00,0.00,0.00,0.00,0.00,0.00
7344523,-0.003,-0.001,1.010,-0.06,0.05,-0.03,-0.05,0.19,1000,1000,1000,1000,1000,1000,0,1500,1500,989,1500,4294967285,0.00,0.00,0.00,0.00,0.00,0.00,0.00,0.00,0.00,0.00,0.00,0.00
7348523,0.001,-0.002,1.000,-0.06,0.02,-0.02,-0.06,0.14,1000,1000,1000,1000,1000,1000,0,1500,1500,989,1500,4294967284,0.00,0.00,0.00,0.00,0.00,0.00,0.00,0.00,0.00,0.00,0.00,0.00
7352523,0.005,-0.002,0.996,-0.06,0.01,-0.01,-0.07,0.10,1000,1000,1000,1000,1000,1000,0,1500,1500,989,1500,4294967283,0.00,0.00,0.00,0.00,0.00,0.00,0.00,0.00,0.00,0.00,0.00,0.00
7356523,0.009,0.000,0.999,-0.04,-0.00,-0.01,-0.06,0.05,1000,1000,1000,1000,1000,1000,0,1500,1500,989,1500,4294967284,0.00,0.00,0.00,0.00,0.00,0.00,0.00,0.00,0.00,0.00,0.00,0.00
7360523,0.011,0.001,1.005,-0.01,-0.01,0.02,-0.05,0.01,1000,1000,1000,1000,1000,1000,0,1500,1500,989,1500,4294967285,0.00,0.00,0.00,0.00,0.00,0.00,0.00,0.00,0.00,0.00,0.00,0.00
7364523,0.011,0.003,1.004,-0.02,-0.03,0.04,-0.04,-0.03,1000,1000,1000,1000,1000,1000,0,1500,1500,989,1500,4294967284,0.00,0.00,0.00,0.00,0.00,0.00,0.00,0.00,0.00,0.00,0.00,0.00
7368523,0.010,0.002,0.999,-0.02,-0.05,0.05,-0.03,-0.08,1000,1000,1000,1000,1000,1000,0,1500,1500,989,1500,4294967283,0.00,0.00,0.00,0.00,0.00,0.00,0.00,0.00,0.00,0.00,0.00,0.00
7372523,0.007,0.001,0.994,-0.02,-0.04,0.04,-0.01,-0.12,1000,1000,1000,1000,1000,1000,0,1500,1500,989,1500,4294967284,0.00,0.00,0.00,0.00,0.00,0.00,0.00,0.00,0.00,0.00,0.00,0.00
7376523,0.005,0.001,0.988,-0.01,-0.04,0.04,0.01,-0.16,1000,1000,1000,1000,1000,1000,0,1500,1500,989,1500,4294967285,0.00,0.00,0.00,0.00,0.00,0.00,0.00,0.00,0.00,0.00,0.00,0.00
7380523,0.003,0.001,0.987,0.01,-0.04,0.04,0.06,-0.18,1000,1000,1000,1000,1000,1000,0,1500,1500,989,1500,4294967284,0.00,0.00,0.00,0.00,0.00,0.00,0.00,0.00,0.00,0.00,0.00,0.00
7384523,0.002,0.001,0.991,0.01,-0.02,0.05,0.05,-0.13,1000,1000,1000,1000,1000,1000,0,1500,1500,989,1500,4294967283,0.00,0.00,0.00,0.00,0.00,0.00,0.00,0.00,0.00,0.00,0.00,0.00
7388523,0.002,0.001,0.997,0.00,-0.03,0.05,0.08,-0.10,1000,1000,1000,1000,1000,1000,0,1500,1500,989,1500,4294967282,0.00,0.00,0.00,0.00,0.00,0.00,0.00,0.00,0.00,0.00,0.00,0.00
7392523,0.002,0.001,0.998,-0.00,-0.02,0.04,0.04,-0.12,1000,1000,1000,1000,1000,1000,0,1500,1500,989,1500,4294967285,0.00,0.00,0.00,0.00,0.00,0.00,0.00,0.00,0.00,0.00,0.00,0.00
7396523,0.002,0.000,0.997,-0.00,-0.03,0.03,0.02,-0.08,1000,1000,1000,1000,1000,1000,0,1500,1500,989,1500,4294967284,0.00,0.00,0.00,0.00,0.00,0.00,0.00,0.00,0.00,0.00,0.00,0.00
7400523,0.001,-0.000,0.992,-0.01,-0.03,0.04,-0.02,-0.07,1000,1000,1000,1000,1000,1000,0,1500,1500,989,1500,4294967283,0.00,0.00,0.00,0.00,0.00,0.00,0.00,0.00,0.00,0.00,0.00,0.00
7404523,-0.002,-0.001,0.988,-0.03,-0.04,0.03,-0.04,-0.03,1000,1000,1000,1000,1000,1000,0,1500,1500,989,1500,4294967284,0.00,0.00,0.00,0.00,0.00,0.00,0.00,0.00,0.00,0.00,0.00,0.00
7408523,-0.002,-0.001,0.990,-0.03,-0.03,0.04,-0.05,0.02,1000,1000,1000,1000,1000,1000,0,1500,1500,989,1500,4294967285,0.00,0.00,0.00,0.00,0.00,0.00,0.00,0.00,0.00,0.00,0.00,0.00
7412523,-0.001,-0.000,0.994,-0.04,-0.01,0.04,-0.02,0.05,1000,1000,1000,1000,1000,1000,0,1500,1500,989,1500,4294967284,0.00,0.00,0.00,0.00,0.00,0.00,0.00,0.00,0.00,0.00,0.00,0.00
7416523,-0.001,0.000,0.998,-0.03,-0.00,0.03,0.03,0.05,1000,1000,1000,1000,1000,1000,0,1500,1500,989,1500,4294967283,0.00,0.00,0.00,0.00,0.00,0.00,0.00,0.00,0.00,0.00,0.00,0.00
7420523,0.001,0.001,1.001,-0.03,0.00,0.02,0.03,0.00,1000,1000,1000,1000,1000,1000,0,1500,1500,989,1500,4294967284,0.00,0.00,0.00,0.00,0.00,0.00,0.00,0.00,0.00,0.00,0.00,0.00
7424523,0.001,0.001,1.001,-0.02,-0.01,0.01,0.06,-0.04,1000,1000,1000,1000,1000,1000,0,1500,1500,989,1500,4294967285,0.00,0.00,0.00,0.00,0.00,0.00,0.00,0.00,0.00,0.00,0.00,0.00
7428523,0.000,0.000,1.000,-0.01,-0.01,0.01,0.01,-0.03,1000,1000,1000,1000,1000,1000,0,1500,1500,989,1500,4294967284,0.00,0.00,0.00,0.00,0.00,0.00,0.00,0.00,0.00,0.00,0.00,0.00
7432523,0.000,0.001,0.997,-0.00,-0.02,0.01,0.05,-0.00,1000,1000,1000,1000,1000,1000,0,1500,1500,989,1500,4294967283,0.00,0.00,0.00,0.00,0.00,0.00,0.00,0.00,0.00,0.00,0.00,0.00
7436523,0.001,0.001,0.993,0.01,-0.01,0.01,0.05,-0.05,1000,1000,1000,1000,1000,1000,0,1500,1500,989,1500,4294967284,0.00,0.00,0.00,0.00,0.00,0.00,0.00,0.00,0.00,0.00,0.00,0.00
7440523,0.001,0.001,0.990,0.03,-0.03,0.01,0.09,-0.03,1000,1000,1000,1000,1000,1000,0,1500,1500,989,1500,4294967285,0.00,0.00,0.00,0.00,0.00,0.00,0.00,0.00,0.00,0.00,0.00,0.00
7444523,-0.001,-0.001,0.993,0.00,-0.00,0.01,0.05,-0.01,1000,1000,1000,1000,1000,1000,0,1500,1500,989,1500,4294967284,0.00,0.00,0.00,0.00,0.00,0.00,0.00,0.00,0.00,0.00,0.00,0.00
7448523,-0.001,-0.002,0.998,0.01,0.00,0.00,0.01,0.01,1000,1000,1000,1000,1000,1000,0,1500,1500,989,1500,4294967283,0.00,0.00,0.00,0.00,0.00,0.00,0.00,0.00,0.00,0.00,0.00,0.00
