t_us,ax_g,ay_g,az_g,gx_dps,gy_dps,gz_dps,roll_deg,pitch_deg,throttle_us,motor_us,m1,m2,m3,m4,mode,rc_roll,rc_pitch,rc_throttle,rc_yaw,rc_age_us,att_sp_roll,att_sp_pitch,att_sp_yaw,rate_sp_roll,rate_sp_pitch,rate_sp_yaw,rate_meas_roll,rate_meas_pitch,rate_meas_yaw,rate_out_roll,rate_out_pitch,rate_out_yaw
57475448,0.000,0.003,1.000,0.01,0.00,-0.01,0.12,-0.04,989,1100,1099,1099,1101,1101,0,1500,1500,989,1500,4294967286,0.00,0.00,0.00,-0.12,0.04,0.00,0.01,0.00,-0.01,-0.78,-1.10,-0.15
57479448,0.000,0.002,0.999,0.01,0.01,-0.01,0.12,-0.04,989,1100,1100,1100,1100,1100,0,1500,1500,989,1500,3990,0.00,0.00,0.00,-0.12,0.04,0.00,0.01,0.01,-0.01,-0.22,-0.70,-0.04
57483448,0.000,0.002,1.000,0.01,0.01,-0.00,0.12,-0.04,989,1100,1099,1099,1101,1101,0,1500,1500,989,1500,4294967285,0.00,0.00,0.00,-0.12,0.04,0.00,0.01,0.01,-0.00,-0.46,-1.59,-0.37
57487448,0.000,0.002,0.999,0.01,0.02,-0.00,0.12,-0.04,989,1100,1099,1099,1101,1101,0,1500,1500,989,1500,4294967284,0.00,0.00,0.00,-0.12,0.04,0.00,0.01,0.02,-0.00,0.09,-1.46,0.21
57491448,-0.000,0.002,0.999,0.02,0.01,-0.00,0.12,-0.03,989,1100,1098,1102,1102,1098,0,1500,1500,989,1500,4294967285,0.00,0.00,0.00,-0.12,0.03,0.00,0.02,0.01,-0.00,-2.17,0.19,-0.30
57495448,-0.000,0.002,0.998,0.02,0.01,-0.00,0.11,-0.03,989,1100,1100,1100,1100,1100,0,1500,1500,989,1500,4294967285,0.00,0.00,0.00,-0.11,0.03,0.00,0.02,0.01,-0.00,0.59,-0.54,-0.02
57499448,0.000,0.002,0.998,0.01,0.01,-0.00,0.11,-0.03,989,1100,1101,1099,1099,1101,0,1500,1500,989,1500,3989,0.00,0.00,0.00,-0.11,0.03,0.00,0.01,0.01,-0.00,1.24,-0.07,0.09
57503448,0.000,0.002,0.999,-0.00,0.01,0.01,0.11,-0.03,989,1100,1103,1099,1097,1101,0,1500,1500,989,1500,4294967285,0.00,0.00,0.00,-0.11,0.03,0.00,-0.00,0.01,0.01,2.00,1.10,-0.78
57507448,0.001,0.003,0.999,0.00,0.00,0.01,0.12,-0.03,989,1100,1099,1101,1101,1099,0,1500,1500,989,1500,4294967284,0.00,0.00,0.00,-0.12,0.03,0.00,0.00,0.00,0.01,-1.14,0.73,-0.22
57511448,0.001,0.003,0.999,0.00,0.01,0.00,0.12,-0.03,989,1100,1098,1100,1102,1100,0,1500,1500,989,1500,4294967285,0.00,0.00,0.00,-0.12,0.03,0.00,0.00,0.01,0.00,-1.67,-1.38,0.50
57515448,0.001,0.003,0.999,0.00,0.02,-0.00,0.12,-0.03,989,1100,1100,1100,1100,1100,0,1500,1500,989,1500,4294967287,0.00,0.00,0.00,-0.12,0.03,0.00,0.00,0.02,-0.00,-0.68,-0.10,0.71
57519448,0.001,0.003,0.999,0.01,0.01,-0.00,0.13,-0.03,989,1100,1099,1103,1101,1097,0,1500,1500,989,1500,4294967285,0.00,0.00,0.00,-0.13,0.03,0.00,0.01,0.01,-0.00,-2.75,1.26,0.08
57523448,0.000,0.003,0.999,-0.00,0.00,-0.01,0.13,-0.03,989,1100,1103,1099,1097,1101,0,1500,1500,989,1500,4294967283,0.00,0.00,0.00,-0.13,0.03,0.00,-0.00,0.00,-0.01,2.42,1.00,0.94
57527448,-0.000,0.003,0.998,-0.00,-0.00,-0.01,0.13,-0.03,989,1100,1100,1100,1100,1100,0,1500,1500,989,1500,4294967287,0.00,0.00,0.00,-0.13,0.03,0.00,-0.00,-0.00,-0.01,-0.65,0.36,-0.42
57531448,-0.001,0.002,0.998,-0.00,-0.01,-0.01,0.13,-0.03,989,1100,1100,1100,1100,1100,0,1500,1500,989,1500,4294967286,0.00,0.00,0.00,-0.13,0.03,0.00,-0.00,-0.01,-0.01,0.38,0.24,-0.36
57535448,-0.001,0.002,0.997,-0.00,-0.00,-0.01,0.13,-0.02,989,1100,1098,1098,1102,1102,0,1500,1500,989,1500,4294967284,0.00,0.00,0.00,-0.13,0.02,0.00,-0.00,-0.00,-0.01,-0.79,-2.11,0.17
57539448,-0.001,0.002,0.996,-0.00,-0.01,-0.01,0.13,-0.01,989,1100,1100,1100,1100,1100,0,1500,1500,989,1500,4294967283,0.00,0.00,0.00,-0.13,0.01,0.00,-0.00,-0.01,-0.01,0.58,-0.16,0.56
57543448,-0.001,0.001,0.996,-0.00,-0.01,-0.01,0.13,-0.01,989,1100,1100,1100,1100,1100,0,1500,1500,989,1500,4294967286,0.00,0.00,0.00,-0.13,0.01,0.00,-0.00,-0.01,-0.01,-0.00,-0.84,-0.13
57547448,0.000,0.001,0.997,-0.01,-0.01,-0.02,0.12,-0.01,989,1100,1101,1099,1099,1101,0,1500,1500,989,1500,4294967286,0.00,0.00,0.00,-0.12,0.01,0.00,-0.01,-0.01,-0.02,1.62,-0.05,0.41
57551448,0.001,0.002,0.998,-0.01,-0.00,-0.02,0.12,-0.01,989,1100,1100,1100,1100,1100,0,1500,1500,989,1500,4294967284,0.00,0.00,0.00,-0.12,0.01,0.00,-0.01,-0.00,-0.02,0.75,-0.39,0.59
57555448,0.001,0.002,0.998,-0.00,-0.00,-0.02,0.12,-0.01,989,1100,1100,1100,1100,1100,0,1500,1500,989,1500,4294967284,0.00,0.00,0.00,-0.12,0.01,0.00,-0.00,-0.00,-0.02,-0.83,-0.08,-0.24
57559448,0.001,0.001,0.998,0.00,0.00,-0.02,0.12,-0.02,989,1100,1100,1100,1100,1100,0,1500,1500,989,1500,4294967284,0.00,0.00,0.00,-0.12,0.02,0.00,0.00,0.00,-0.02,-0.35,0.23,-0.12
57563448,0.001,0.001,0.997,0.00,0.01,-0.01,0.11,-0.02,989,1100,1100,1100,1100,1100,0,1500,1500,989,1500,4294967287,0.00,0.00,0.00,-0.11,0.02,0.00,0.00,0.01,-0.01,0.97,-0.51,-0.57
57567448,0.001,0.001,0.997,-0.00,0.01,-0.01,0.11,-0.02,989,1100,1101,1099,1099,1101,0,1500,1500,989,1500,4294967286,0.00,0.00,0.00,-0.11,0.02,0.00,-0.00,0.01,-0.01,1.61,-0.54,0.26
57571448,0.002,0.002,0.997,-0.01,0.02,-0.02,0.11,-0.03,989,1100,1101,1099,1099,1101,0,1500,1500,989,1500,4294967283,0.00,0.00,0.00,-0.11,0.03,0.00,-0.01,0.02,-0.02,1.77,-0.75,0.87
57575448,0.002,0.002,0.997,-0.01,0.02,-0.02,0.11,-0.03,989,1100,1101,1101,1099,1099,0,1500,1500,989,1500,4294967287,0.00,0.00,0.00,-0.11,0.03,0.00,-0.01,0.02,-0.02,-0.33,1.07,-0.39
57579448,0.002,0.002,0.997,-0.01,0.02,-0.02,0.11,-0.04,989,1100,1102,1102,1098,1098,0,1500,1500,989,1500,4294967285,0.00,0.00,0.00,-0.11,0.04,0.00,-0.01,0.02,-0.02,0.49,2.22,0.31
57583448,0.002,0.001,0.997,-0.01,0.03,-0.02,0.11,-0.04,989,1100,1100,1100,1100,1100,0,1500,1500,989,1500,3989,0.00,0.00,0.00,-0.11,0.04,0.00,-0.01,0.03,-0.02,0.41,-0.96,-0.51
57587448,0.002,0.001,0.998,-0.01,0.02,-0.02,0.10,-0.05,989,1100,1101,1101,1099,1099,0,1500,1500,989,1500,4294967285,0.00,0.00,0.00,-0.10,0.05,0.00,-0.01,0.02,-0.02,-0.52,1.86,0.05
57591448,0.002,0.001,0.999,-0.00,0.01,-0.02,0.10,-0.05,989,1100,1103,1103,1097,1097,0,1500,1500,989,1500,4294967285,0.00,0.00,0.00,-0.10,0.05,0.00,-0.00,0.01,-0.02,-0.68,3.39,-0.04
57595448,0.001,0.001,0.999,0.00,0.01,-0.01,0.09,-0.05,989,1100,1100,1100,1100,1100,0,1500,1500,989,1500,4294967286,0.00,0.00,0.00,-0.09,0.05,0.00,0.00,0.01,-0.01,0.33,0.89,-0.65
57599448,0.001,0.001,1.000,0.00,0.01,-0.01,0.09,-0.06,989,1100,1100,1100,1100,1100,0,1500,1500,989,1500,4294967285,0.00,0.00,0.00,-0.09,0.06,0.00,0.00,0.01,-0.01,0.18,-0.30,0.43
57603448,0.001,0.001,1.000,0.01,0.01,-0.01,0.09,-0.06,989,1100,1100,1100,1100,1100,0,1500,1500,989,1500,990,0.00,0.00,0.00,-0.09,0.06,0.00,0.01,0.01,-0.01,-0.70,0.24,-0.16
57607448,0.000,0.001,0.999,0.01,0.01,-0.01,0.09,-0.05,989,1100,1100,1100,1100,1100,0,1500,1500,989,1500,4294967285,0.00,0.00,0.00,-0.09,0.05,0.00,0.01,0.01,-0.01,0.50,-0.51,-0.28
57611448,0.000,0.002,0.998,0.01,0.01,-0.01,0.09,-0.05,989,1100,1099,1101,1101,1099,0,1500,1500,989,1500,4294967286,0.00,0.00,0.00,-0.09,0.05,0.00,0.01,0.01,-0.01,-1.12,-0.63,-0.12
57615448,0.000,0.001,0.998,0.02,0.01,-0.01,0.09,-0.05,989,1100,1098,1100,1102,1100,0,1500,1500,989,1500,4294967285,0.00,0.00,0.00,-0.09,0.05,0.00,0.02,0.01,-0.01,-1.41,-1.02,0.09
57619448,0.000,0.001,0.997,0.02,0.02,-0.01,0.09,-0.05,989,1100,1100,1100,1100,1100,0,1500,1500,989,1500,4294967287,0.00,0.00,0.00,-0.09,0.05,0.00,0.02,0.02,-0.01,0.57,-0.99,0.04
57623448,0.001,0.001,0.998,0.02,0.02,-0.01,0.08,-0.05,989,1100,1099,1099,1101,1101,0,1500,1500,989,1500,4294967285,0.00,0.00,0.00,-0.08,0.05,0.00,0.02,0.02,-0.01,0.46,-1.22,0.20
57627448,0.001,0.001,0.998,0.02,0.02,-0.01,0.08,-0.05,989,1100,1100,1100,1100,1100,0,1500,1500,989,1500,4294967285,0.00,0.00,0.00,-0.08,0.05,0.00,0.02,0.02,-0.01,-0.08,-0.06,0.39
57631448,0.001,0.002,0.999,0.01,0.01,-0.01,0.08,-0.05,989,1100,1102,1102,1098,1098,0,1500,1500,989,1500,4294967285,0.00,0.00,0.00,-0.08,0.05,0.00,0.01,0.01,-0.01,0.47,2.91,-0.82
57635448,0.001,0.002,0.999,0.01,0.00,-0.00,0.09,-0.05,989,1100,1102,1102,1098,1098,0,1500,1500,989,1500,4294967286,0.00,0.00,0.00,-0.09,0.05,0.00,0.01,0.00,-0.00,0.50,2.30,-0.18
57639448,0.001,0.002,0.998,0.00,0.01,-0.01,0.09,-0.05,989,1100,1099,1099,1101,1101,0,1500,1500,989,1500,4294967285,0.00,0.00,0.00,-0.09,0.05,0.00,0.00,0.01,-0.01,0.89,-1.51,0.33
57643448,0.001,0.002,0.998,0.00,0.01,-0.01,0.09,-0.05,989,1100,1100,1100,1100,1100,0,1500,1500,989,1500,4294967286,0.00,0.00,0.00,-0.09,0.05,0.00,0.00,0.01,-0.01,0.24,-0.98,0.10
57647448,0.001,0.001,0.998,-0.00,0.01,-0.01,0.09,-0.05,989,1100,1102,1100,1098,1100,0,1500,1500,989,1500,4294967285,0.00,0.00,0.00,-0.09,0.05,0.00,-0.00,0.01,-0.01,1.14,1.08,-0.01
57651448,0.000,0.001,0.998,-0.01,0.00,-0.01,0.08,-0.05,989,1100,1102,1100,1098,1100,0,1500,1500,989,1500,4294967286,0.00,0.00,0.00,-0.08,0.05,0.00,-0.01,0.00,-0.01,1.53,1.00,-0.07
57655448,-0.000,0.001,0.998,-0.01,0.00,-0.01,0.08,-0.04,989,1100,1101,1099,1099,1101,0,1500,1500,989,1500,4294967283,0.00,0.00,0.00,-0.08,0.04,0.00,-0.01,0.00,-0.01,1.12,-0.32,0.09
57659448,-0.000,0.001,0.999,-0.01,-0.01,-0.00,0.08,-0.04,989,1100,1100,1100,1100,1100,0,1500,1500,989,1500,4294967286,0.00,0.00,0.00,-0.08,0.04,0.00,-0.01,-0.01,-0.00,-0.14,0.65,-0.41
57663448,-0.000,0.001,0.999,-0.02,-0.01,-0.00,0.08,-0.04,989,1100,1102,1098,1098,1102,0,1500,1500,989,1500,4294967285,0.00,0.00,0.00,-0.08,0.04,0.00,-0.02,-0.01,-0.00,2.30,-0.83,-0.05
57667448,-0.000,0.001,0.998,-0.02,-0.01,-0.01,0.07,-0.03,989,1100,1100,1100,1100,1100,0,1500,1500,989,1500,4294967284,0.00,0.00,0.00,-0.07,0.03,0.00,-0.02,-0.01,-0.01,-0.64,-0.95,0.32
57671448,-0.001,0.001,0.999,-0.02,-0.00,-0.01,0.07,-0.03,989,1100,1099,1099,1101,1101,0,1500,1500,989,1500,4294967285,0.00,0.00,0.00,-0.07,0.03,0.00,-0.02,-0.00,-0.01,0.29,-1.94,-0.10
57675448,-0.000,0.001,0.999,-0.02,-0.01,-0.01,0.07,-0.02,989,1100,1100,1100,1100,1100,0,1500,1500,989,1500,3989,0.00,0.00,0.00,-0.07,0.02,0.00,-0.02,-0.01,-0.01,0.69,0.10,0.24
57679448,0.000,0.001,0.999,-0.02,-0.02,-0.01,0.07,-0.02,989,1100,1101,1101,1099,1099,0,1500,1500,989,1500,7989,0.00,0.00,0.00,-0.07,0.02,0.00,-0.02,-0.02,-0.01,-0.13,1.86,-0.13
57683448,0.001,0.001,0.999,-0.03,-0.03,-0.00,0.07,-0.02,989,1100,1103,1101,1097,1099,0,1500,1500,989,1500,4294967287,0.00,0.00,0.00,-0.07,0.02,0.00,-0.03,-0.03,-0.00,1.55,2.26,-0.24
57687448,0.001,0.001,0.999,-0.03,-0.03,-0.01,0.07,-0.02,989,1100,1100,1100,1100,1100,0,1500,1500,989,1500,4294967286,0.00,0.00,0.00,-0.07,0.02,0.00,-0.03,-0.03,-0.01,0.56,1.00,0.83
57691448,0.000,0.002,0.999,-0.04,-0.04,-0.01,0.07,-0.02,989,1100,1103,1099,1097,1101,0,1500,1500,989,1500,4294967284,0.00,0.00,0.00,-0.07,0.02,0.00,-0.04,-0.04,-0.01,2.11,1.89,0.18
57695448,0.000,0.002,0.999,-0.04,-0.04,-0.01,0.08,-0.02,989,1100,1100,1100,1100,1100,0,1500,1500,989,1500,4294967285,0.00,0.00,0.00,-0.08,0.02,0.00,-0.04,-0.04,-0.01,0.02,0.73,0.02
57699448,0.000,0.002,0.999,-0.05,-0.05,-0.01,0.08,-0.02,989,1100,1100,1100,1100,1100,0,1500,1500,989,1500,4294967286,0.00,0.00,0.00,-0.08,0.02,0.00,-0.05,-0.05,-0.01,-0.20,0.30,-0.27
57703448,-0.000,0.002,0.999,-0.05,-0.04,-0.01,0.08,-0.02,989,1100,1100,1100,1100,1100,0,1500,1500,989,1500,4294967288,0.00,0.00,0.00,-0.08,0.02,0.00,-0.05,-0.04,-0.01,-0.78,-0.78,-0.03
57707448,-0.000,0.002,0.998,-0.04,-0.03,-0.01,0.09,-0.02,989,1100,1096,1100,1104,1100,0,1500,1500,989,1500,4294967287,0.00,0.00,0.00,-0.09,0.02,0.00,-0.04,-0.03,-0.01,-2.32,-2.29,-0.24
57711448,0.000,0.002,0.998,-0.03,-0.03,-0.01,0.09,-0.02,989,1100,1096,1102,1104,1098,0,1500,1500,989,1500,4294967285,0.00,0.00,0.00,-0.09,0.02,0.00,-0.03,-0.03,-0.01,-3.19,-1.75,0.65
57715448,0.000,0.002,0.998,-0.01,-0.02,-0.02,0.09,-0.02,989,1100,1097,1103,1103,1097,0,1500,1500,989,1500,4294967285,0.00,0.00,0.00,-0.09,0.02,0.00,-0.01,-0.02,-0.02,-3.14,-0.26,0.42
57719448,0.001,0.001,0.999,-0.01,-0.02,-0.02,0.09,-0.02,989,1100,1099,1101,1101,1099,0,1500,1500,989,1500,4294967285,0.00,0.00,0.00,-0.09,0.02,0.00,-0.01,-0.02,-0.02,-1.33,-0.32,-0.09
57723448,0.002,0.000,0.999,-0.00,-0.01,-0.01,0.09,-0.02,989,1100,1099,1099,1101,1101,0,1500,1500,989,1500,4294967286,0.00,0.00,0.00,-0.09,0.02,0.00,-0.00,-0.01,-0.01,-0.25,-1.69,-0.68
57727448,0.002,-0.000,0.999,0.01,0.00,-0.01,0.08,-0.03,989,1100,1099,1101,1101,1099,0,1500,1500,989,1500,4294967284,0.00,0.00,0.00,-0.08,0.03,0.00,0.01,0.00,-0.01,-1.13,-0.19,0.16
57731448,0.002,-0.001,0.999,0.02,0.02,-0.02,0.07,-0.04,989,1100,1099,1099,1101,1101,0,1500,1500,989,1500,4294967287,0.00,0.00,0.00,-0.07,0.04,0.00,0.02,0.02,-0.02,0.06,-1.97,0.31
57735448,0.002,-0.000,0.999,0.02,0.02,-0.01,0.06,-0.04,989,1100,1101,1099,1099,1101,0,1500,1500,989,1500,4294967287,0.00,0.00,0.00,-0.06,0.04,0.00,0.02,0.02,-0.01,1.71,0.05,-0.61
57739448,0.002,0.001,0.999,0.02,0.02,-0.01,0.06,-0.05,989,1100,1100,1100,1100,1100,0,1500,1500,989,1500,4294967286,0.00,0.00,0.00,-0.06,0.05,0.00,0.02,0.02,-0.01,0.75,0.86,-0.08
57743448,0.002,0.002,0.998,0.02,0.02,-0.01,0.06,-0.05,989,1100,1099,1101,1101,1099,0,1500,1500,989,1500,4294967284,0.00,0.00,0.00,-0.06,0.05,0.00,0.02,0.02,-0.01,-1.74,0.94,0.04
57747448,0.001,0.003,0.999,0.02,0.03,-0.01,0.07,-0.05,989,1100,1099,1101,1101,1099,0,1500,1500,989,1500,4294967285,0.00,0.00,0.00,-0.07,0.05,0.00,0.02,0.03,-0.01,-1.90,-0.66,-0.06
57751448,-0.000,0.003,0.999,0.03,0.02,-0.00,0.08,-0.05,989,1100,1098,1102,1102,1098,0,1500,1500,989,1500,3989,0.00,0.00,0.00,-0.08,0.05,0.00,0.03,0.02,-0.00,-2.06,0.87,-0.39
57755448,-0.001,0.003,0.999,0.02,0.02,-0.01,0.08,-0.04,989,1100,1099,1099,1101,1101,0,1500,1500,989,1500,4294967287,0.00,0.00,0.00,-0.08,0.04,0.00,0.02,0.02,-0.01,-0.26,-1.19,0.31
57759448,-0.002,0.002,1.000,0.01,0.01,0.00,0.09,-0.03,989,1100,1101,1099,1099,1101,0,1500,1500,989,1500,4294967286,0.00,0.00,0.00,-0.09,0.03,0.00,0.01,0.01,0.00,1.24,-0.26,-0.69
57763448,-0.002,0.002,1.000,0.01,0.00,0.00,0.09,-0.02,989,1100,1100,1100,1100,1100,0,1500,1500,989,1500,4294967283,0.00,0.00,0.00,-0.09,0.02,0.00,0.01,0.00,0.00,0.44,-0.42,-0.18
57767448,-0.001,0.002,0.999,0.01,0.00,0.00,0.09,-0.01,989,1100,1099,1099,1101,1101,0,1500,1500,989,1500,4294967287,0.00,0.00,0.00,-0.09,0.01,0.00,0.01,0.00,0.00,-0.73,-1.74,0.14
57771448,-0.000,0.001,0.998,0.01,-0.00,0.00,0.09,-0.01,989,1100,1099,1101,1101,1099,0,1500,1500,989,1500,4294967286,0.00,0.00,0.00,-0.09,0.01,0.00,0.01,-0.00,0.00,-1.57,0.44,-0.39
57775448,0.000,0.001,0.997,0.01,-0.01,0.01,0.09,-0.01,989,1100,1101,1101,1099,1099,0,1500,1500,989,1500,4294967285,0.00,0.00,0.00,-0.09,0.01,0.00,0.01,-0.01,0.01,0.27,1.45,-0.48
57779448,-0.000,0.000,0.997,0.01,-0.01,0.01,0.09,-0.01,989,1100,1101,1099,1099,1101,0,1500,1500,989,1500,4294967285,0.00,0.00,0.00,-0.09,0.01,0.00,0.01,-0.01,0.01,1.12,0.19,-0.00
57783448,-0.000,0.000,0.997,0.01,0.00,0.00,0.08,-0.01,989,1100,1098,1096,1102,1104,0,1500,1500,989,1500,4294967285,0.00,0.00,0.00,-0.08,0.01,0.00,0.01,0.00,0.00,1.93,-3.31,0.60
57787448,-0.000,0.001,0.998,0.01,0.01,-0.01,0.08,-0.01,989,1100,1099,1101,1099,1101,0,1500,1500,989,1500,4294967287,0.00,0.00,0.00,-0.08,0.01,0.00,0.01,0.01,-0.01,0.93,-0.67,1.05
57791448,-0.000,0.001,0.998,0.01,0.01,-0.01,0.07,-0.01,989,1100,1099,1099,1101,1101,0,1500,1500,989,1500,4294967286,0.00,0.00,0.00,-0.07,0.01,0.00,0.01,0.01,-0.01,0.49,-1.63,0.59
57795448,0.000,0.001,0.998,0.01,0.01,-0.02,0.07,-0.01,989,1100,1100,1100,1100,1100,0,1500,1500,989,1500,4294967284,0.00,0.00,0.00,-0.07,0.01,0.00,0.01,0.01,-0.02,0.16,-0.28,0.46
57799448,0.001,0.001,0.999,0.01,0.01,-0.02,0.07,-0.01,989,1100,1100,1102,1100,1098,0,1500,1500,989,1500,4294967284,0.00,0.00,0.00,-0.07,0.01,0.00,0.01,0.01,-0.02,-1.21,1.78,0.05
57803448,-0.000,0.001,0.999,0.02,0.01,-0.01,0.07,-0.01,989,1100,1100,1100,1100,1100,0,1500,1500,989,1500,4294967287,0.00,0.00,0.00,-0.07,0.01,0.00,0.02,0.01,-0.01,-0.91,0.31,-0.64
57807448,-0.001,0.000,0.999,0.02,0.00,-0.01,0.07,-0.01,989,1100,1100,1100,1100,1100,0,1500,1500,989,1500,2991,0.00,0.00,0.00,-0.07,0.01,0.00,0.02,0.00,-0.01,0.45,0.40,-0.39
57811448,-0.001,-0.000,0.999,0.02,0.00,-0.01,0.06,0.00,989,1100,1100,1100,1100,1100,0,1500,1500,989,1500,4294967286,0.00,0.00,0.00,-0.06,-0.00,0.00,0.02,0.00,-0.01,0.23,-0.78,-0.05
57815448,-0.001,-0.000,0.999,0.02,0.01,0.00,0.06,0.01,989,1100,1099,1097,1101,1103,0,1500,1500,989,1500,4294967286,0.00,0.00,0.00,-0.06,-0.01,0.00,0.02,0.01,0.00,1.29,-2.06,-0.73
57819448,-0.001,0.000,0.998,0.02,0.01,0.00,0.05,0.01,989,1100,1100,1100,1100,1100,0,1500,1500,989,1500,4294967286,0.00,0.00,0.00,-0.05,-0.01,0.00,0.02,0.01,0.00,0.90,-0.81,-0.11
57823448,0.000,0.001,0.999,0.02,0.01,0.00,0.05,0.01,989,1100,1100,1100,1100,1100,0,1500,1500,989,1500,4294967284,0.00,0.00,0.00,-0.05,-0.01,0.00,0.02,0.01,0.00,0.60,-0.57,-0.02
57827448,0.000,0.001,0.998,0.02,0.01,-0.00,0.05,0.01,989,1100,1100,1100,1100,1100,0,1500,1500,989,1500,4294967285,0.00,0.00,0.00,-0.05,-0.01,0.00,0.02,0.01,-0.00,-0.11,0.10,0.64
57831448,-0.000,0.001,0.997,0.03,0.01,-0.01,0.05,0.01,989,1100,1099,1101,1101,1099,0,1500,1500,989,1500,4294967286,0.00,0.00,0.00,-0.05,-0.01,0.00,0.03,0.01,-0.01,-1.54,-0.48,0.38
57835448,-0.001,0.001,0.997,0.04,0.01,-0.00,0.05,0.01,989,1100,1099,1101,1101,1099,0,1500,1500,989,1500,4294967285,0.00,0.00,0.00,-0.05,-0.01,0.00,0.04,0.01,-0.00,-1.40,-0.94,-0.41
57839448,-0.001,0.001,0.997,0.04,0.01,-0.00,0.05,0.02,989,1100,1100,1100,1100,1100,0,1500,1500,989,1500,4294967286,0.00,0.00,0.00,-0.05,-0.02,0.00,0.04,0.01,-0.00,-0.74,0.18,-0.16
57843448,-0.002,0.001,0.997,0.03,0.00,-0.00,0.05,0.02,989,1100,1101,1099,1099,1101,0,1500,1500,989,1500,4294967286,0.00,0.00,0.00,-0.05,-0.02,0.00,0.03,0.00,-0.00,1.38,-0.52,-0.11
57847448,-0.001,0.001,0.998,0.02,0.00,-0.01,0.05,0.03,989,1100,1100,1098,1100,1102,0,1500,1500,989,1500,4294967286,0.00,0.00,0.00,-0.05,-0.03,0.00,0.02,0.00,-0.01,1.98,-1.67,0.58
57851448,-0.001,0.002,0.998,0.02,-0.01,-0.01,0.05,0.03,989,1100,1101,1101,1099,1099,0,1500,1500,989,1500,3990,0.00,0.00,0.00,-0.05,-0.03,0.00,0.02,-0.01,-0.01,0.12,1.51,0.08
57855448,-0.000,0.002,0.998,0.02,-0.01,-0.00,0.06,0.03,989,1100,1099,1101,1101,1099,0,1500,1500,989,1500,7990,0.00,0.00,0.00,-0.06,-0.03,0.00,0.02,-0.01,-0.00,-1.92,0.16,-0.74
57859448,-0.000,0.002,0.998,0.02,-0.00,-0.00,0.06,0.03,989,1100,1100,1100,1100,1100,0,1500,1500,989,1500,4294967287,0.00,0.00,0.00,-0.06,-0.03,0.00,0.02,-0.00,-0.00,0.10,-0.98,0.22
57863448,-0.000,0.002,0.998,0.01,-0.00,-0.01,0.07,0.03,989,1100,1100,1100,1100,1100,0,1500,1500,989,1500,4294967285,0.00,0.00,0.00,-0.07,-0.03,0.00,0.01,-0.00,-0.01,0.31,-0.12,0.97
57867448,-0.000,0.001,0.997,0.00,-0.01,-0.01,0.07,0.03,989,1100,1102,1102,1098,1098,0,1500,1500,989,1500,4294967283,0.00,0.00,0.00,-0.07,-0.03,0.00,0.00,-0.01,-0.01,0.97,2.12,0.20
57871448,-0.000,0.001,0.997,0.00,-0.01,-0.01,0.06,0.03,989,1100,1101,1101,1099,1099,0,1500,1500,989,1500,4294967286,0.00,0.00,0.00,-0.06,-0.03,0.00,0.00,-0.01,-0.01,0.75,1.13,-0.33
57875448,-0.000,0.001,0.997,-0.01,-0.01,-0.01,0.06,0.02,989,1100,1101,1099,1099,1101,0,1500,1500,989,1500,4294967286,0.00,0.00,0.00,-0.06,-0.02,0.00,-0.01,-0.01,-0.01,1.79,-0.19,-0.16
57879448,-0.000,0.001,0.998,-0.01,-0.01,-0.00,0.06,0.02,989,1100,1100,1100,1100,1100,0,1500,1500,989,1500,4294967286,0.00,0.00,0.00,-0.06,-0.02,0.00,-0.01,-0.01,-0.00,0.56,-0.84,-0.55
57883448,-0.000,0.001,0.998,-0.01,0.01,0.00,0.06,0.02,989,1100,1098,1098,1102,1102,0,1500,1500,989,1500,4294967284,0.00,0.00,0.00,-0.06,-0.02,0.00,-0.01,0.01,0.00,-0.01,-2.46,-0.84
57887448,0.000,0.001,0.997,-0.01,0.02,0.01,0.06,0.02,989,1100,1099,1099,1101,1101,0,1500,1500,989,1500,4294967285,0.00,0.00,0.00,-0.06,-0.02,0.00,-0.01,0.02,0.01,0.02,-1.63,-0.05
57891448,0.001,0.001,0.998,-0.00,0.02,0.01,0.06,0.02,989,1100,1100,1100,1100,1100,0,1500,1500,989,1500,4294967287,0.00,0.00,0.00,-0.06,-0.02,0.00,-0.00,0.02,0.01,-0.98,-0.20,-0.18
57895448,0.001,0.001,0.998,-0.01,0.01,0.00,0.06,0.01,989,1100,1102,1102,1098,1098,0,1500,1500,989,1500,4294967286,0.00,0.00,0.00,-0.06,-0.01,0.00,-0.01,0.01,0.00,0.86,2.93,0.49
57899448,0.001,0.001,0.999,-0.00,0.01,0.00,0.06,0.01,989,1100,1100,1102,1100,1098,0,1500,1500,989,1500,4294967284,0.00,0.00,0.00,-0.06,-0.01,0.00,-0.00,0.01,0.00,-1.27,1.73,-0.03
57903448,0.001,0.001,0.999,0.01,0.01,0.00,0.06,0.00,989,1100,1099,1101,1101,1099,0,1500,1500,989,1500,4294967285,0.00,0.00,0.00,-0.06,-0.00,0.00,0.01,0.01,0.00,-1.58,0.74,-0.20
57907448,0.001,0.000,0.999,0.01,0.02,0.00,0.05,-0.00,989,1100,1100,1100,1100,1100,0,1500,1500,989,1500,4294967286,0.00,0.00,0.00,-0.05,0.00,0.00,0.01,0.02,0.00,0.05,-0.48,0.13
57911448,0.001,-0.001,0.999,0.02,0.04,0.01,0.05,-0.01,989,1100,1098,1098,1102,1102,0,1500,1500,989,1500,4294967285,0.00,0.00,0.00,-0.05,0.01,0.00,0.02,0.04,0.01,0.20,-2.44,-0.42
57915448,0.001,-0.001,1.000,0.02,0.03,0.00,0.04,-0.01,989,1100,1102,1100,1098,1100,0,1500,1500,989,1500,4294967285,0.00,0.00,0.00,-0.04,0.01,0.00,0.02,0.03,0.00,1.51,1.14,0.69
57919448,0.001,-0.001,0.999,0.03,0.04,-0.01,0.03,-0.02,989,1100,1099,1101,1101,1099,0,1500,1500,989,1500,4294967287,0.00,0.00,0.00,-0.03,0.02,0.00,0.03,0.04,-0.01,-1.45,0.09,0.81
57923448,0.001,-0.000,0.999,0.04,0.04,-0.01,0.03,-0.02,989,1100,1099,1101,1101,1099,0,1500,1500,989,1500,4294967286,0.00,0.00,0.00,-0.03,0.02,0.00,0.04,0.04,-0.01,-1.52,0.20,0.70
57927448,0.000,-0.000,0.999,0.04,0.04,-0.01,0.03,-0.02,989,1100,1100,1100,1100,1100,0,1500,1500,989,1500,4294967284,0.00,0.00,0.00,-0.03,0.02,0.00,0.04,0.04,-0.01,0.37,-0.08,0.03
57931448,-0.000,0.000,0.999,0.05,0.04,-0.01,0.02,-0.02,989,1100,1098,1102,1102,1098,0,1500,1500,989,1500,4294967287,0.00,0.00,0.00,-0.02,0.02,0.00,0.05,0.04,-0.01,-2.25,-0.76,-0.16
57935448,-0.001,0.001,0.999,0.05,0.04,-0.02,0.03,-0.01,989,1100,1099,1099,1101,1101,0,1500,1500,989,1500,4294967287,0.00,0.00,0.00,-0.03,0.01,0.00,0.05,0.04,-0.02,0.92,-1.91,0.53
57939448,-0.002,0.002,0.999,0.05,0.05,-0.02,0.03,-0.00,989,1100,1097,1099,1103,1101,0,1500,1500,989,1500,4294967284,0.00,0.00,0.00,-0.03,0.00,0.00,0.05,0.05,-0.02,-1.04,-2.89,0.33
57943448,-0.003,0.002,0.999,0.04,0.04,-0.02,0.04,0.01,989,1100,1099,1099,1101,1101,0,1500,1500,989,1500,4294967285,0.00,0.00,0.00,-0.04,-0.01,0.00,0.04,0.04,-0.02,-0.98,-1.86,0.01
57947448,-0.004,0.002,0.999,0.04,0.04,-0.02,0.05,0.03,989,1100,1099,1099,1101,1101,0,1500,1500,989,1500,4294967285,0.00,0.00,0.00,-0.05,-0.03,0.00,0.04,0.04,-0.02,-0.70,-1.60,-0.02
57951448,-0.003,0.002,0.999,0.03,0.03,-0.02,0.05,0.04,989,1100,1100,1100,1100,1100,0,1500,1500,989,1500,4294967287,0.00,0.00,0.00,-0.05,-0.04,0.00,0.03,0.03,-0.02,0.38,-0.45,-0.55
57955448,-0.003,0.003,0.999,0.02,0.02,-0.01,0.06,0.05,989,1100,1100,1100,1100,1100,0,1500,1500,989,1500,4294967284,0.00,0.00,0.00,-0.06,-0.05,0.00,0.02,0.02,-0.01,0.29,-0.76,-0.38
57959448,-0.002,0.003,0.999,0.01,0.01,-0.01,0.07,0.06,989,1100,1100,1100,1100,1100,0,1500,1500,989,1500,4294967285,0.00,0.00,0.00,-0.07,-0.06,0.00,0.01,0.01,-0.01,-0.00,-0.63,-0.28
57963448,-0.002,0.002,0.998,-0.00,0.01,-0.01,0.07,0.06,989,1100,1101,1099,1099,1101,0,1500,1500,989,1500,4294967286,0.00,0.00,0.00,-0.07,-0.06,0.00,-0.00,0.01,-0.01,1.83,-0.58,-0.09
57967448,-0.002,0.001,0.998,-0.00,0.01,-0.01,0.07,0.07,989,1100,1100,1100,1100,1100,0,1500,1500,989,1500,4294967285,0.00,0.00,0.00,-0.07,-0.07,0.00,-0.00,0.01,-0.01,-0.06,-0.77,0.35
57971448,-0.002,0.001,0.998,-0.01,0.01,-0.01,0.07,0.07,989,1100,1101,1097,1099,1103,0,1500,1500,989,1500,4294967286,0.00,0.00,0.00,-0.07,-0.07,0.00,-0.01,0.01,-0.01,2.76,-1.12,0.33
57975448,-0.001,0.001,0.999,-0.02,0.01,-0.01,0.07,0.07,989,1100,1101,1099,1099,1101,0,1500,1500,989,1500,4294967285,0.00,0.00,0.00,-0.07,-0.07,0.00,-0.02,0.01,-0.01,1.01,0.23,-0.09
57979448,-0.001,0.002,0.999,-0.02,0.01,-0.01,0.07,0.07,989,1100,1100,1100,1100,1100,0,1500,1500,989,1500,4294967286,0.00,0.00,0.00,-0.07,-0.07,0.00,-0.02,0.01,-0.01,0.35,0.26,-0.59
57983448,-0.001,0.002,0.999,-0.02,0.00,0.00,0.07,0.07,989,1100,1100,1102,1100,1098,0,1500,1500,989,1500,4294967285,0.00,0.00,0.00,-0.07,-0.07,0.00,-0.02,0.00,0.00,-1.46,1.18,-0.77
57987448,-0.001,0.002,0.999,-0.00,0.00,-0.00,0.08,0.07,989,1100,1097,1103,1103,1097,0,1500,1500,989,1500,4294967287,0.00,0.00,0.00,-0.08,-0.07,0.00,-0.00,0.00,-0.00,-3.71,-0.41,0.21
57991448,-0.001,0.002,0.998,0.01,0.00,-0.00,0.08,0.07,989,1100,1098,1102,1102,1098,0,1500,1500,989,1500,4294967285,0.00,0.00,0.00,-0.08,-0.07,0.00,0.01,0.00,-0.00,-2.36,-0.03,-0.05
57995448,-0.000,0.002,0.998,0.01,0.01,-0.00,0.08,0.07,989,1100,1100,1100,1100,1100,0,1500,1500,989,1500,4294967285,0.00,0.00,0.00,-0.08,-0.07,0.00,0.01,0.01,-0.00,-0.53,0.03,-0.05
57999448,-0.000,0.001,0.998,0.01,-0.00,0.00,0.08,0.06,989,1100,1102,1102,1098,1098,0,1500,1500,989,1500,4294967285,0.00,0.00,0.00,-0.08,-0.06,0.00,0.01,-0.00,0.00,-0.28,2.33,-0.33
58003448,0.000,0.000,0.998,-0.00,-0.01,0.00,0.08,0.06,989,1100,1104,1100,1096,1100,0,1500,1500,989,1500,4294967286,0.00,0.00,0.00,-0.08,-0.06,0.00,-0.00,-0.01,0.00,2.32,2.70,0.12
58007448,0.001,0.000,0.998,-0.02,-0.01,0.00,0.07,0.05,989,1100,1105,1099,1095,1101,0,1500,1500,989,1500,4294967287,0.00,0.00,0.00,-0.07,-0.05,0.00,-0.02,-0.01,0.00,3.94,2.19,0.03
58011448,0.001,0.000,0.999,-0.01,-0.02,-0.01,0.07,0.04,989,1100,1103,1103,1097,1097,0,1500,1500,989,1500,3991,0.00,0.00,0.00,-0.07,-0.04,0.00,-0.01,-0.02,-0.01,-0.57,3.74,0.70
58015448,0.001,-0.000,1.000,0.01,-0.04,-0.01,0.06,0.03,989,1100,1101,1105,1099,1095,0,1500,1500,989,1500,7991,0.00,0.00,0.00,-0.06,-0.03,0.00,0.01,-0.04,-0.01,-2.64,3.99,0.15
58019448,0.001,-0.001,1.000,0.01,-0.03,-0.01,0.06,0.03,989,1100,1101,1099,1099,1101,0,1500,1500,989,1500,4294967285,0.00,0.00,0.00,-0.06,-0.03,0.00,0.01,-0.03,-0.01,1.89,-0.36,0.28
58023448,0.001,-0.000,1.000,0.02,-0.03,-0.02,0.05,0.02,989,1100,1098,1102,1100,1100,0,1500,1500,989,1500,4294967286,0.00,0.00,0.00,-0.05,-0.02,0.00,0.02,-0.03,-0.02,-1.23,0.86,1.00
58027448,0.000,0.000,1.001,0.02,-0.02,-0.02,0.05,0.02,989,1100,1101,1099,1099,1101,0,1500,1500,989,1500,4294967285,0.00,0.00,0.00,-0.05,-0.02,0.00,0.02,-0.02,-0.02,1.53,-0.27,0.27
58031448,0.000,0.001,1.001,0.02,-0.02,-0.01,0.05,0.02,989,1100,1100,1100,1100,1100,0,1500,1500,989,1500,4294967285,0.00,0.00,0.00,-0.05,-0.02,0.00,0.02,-0.02,-0.01,-0.35,0.31,-0.81
58035448,-0.000,0.002,1.001,0.01,-0.03,-0.01,0.05,0.02,989,1100,1103,1101,1097,1099,0,1500,1500,989,1500,4294967287,0.00,0.00,0.00,-0.05,-0.02,0.00,0.01,-0.03,-0.01,1.08,2.24,-0.60
58039448,0.000,0.002,1.001,0.01,-0.04,-0.01,0.05,0.01,989,1100,1101,1101,1099,1099,0,1500,1500,989,1500,4294967286,0.00,0.00,0.00,-0.05,-0.01,0.00,0.01,-0.04,-0.01,-0.88,1.38,0.03
58043448,-0.000,0.002,1.000,0.00,-0.04,-0.01,0.06,0.01,989,1100,1100,1100,1100,1100,0,1500,1500,989,1500,4294967285,0.00,0.00,0.00,-0.06,-0.01,0.00,0.00,-0.04,-0.01,0.15,0.57,-0.04
58047448,-0.000,0.003,1.000,0.00,-0.04,-0.01,0.07,0.01,989,1100,1099,1101,1101,1099,0,1500,1500,989,1500,4294967285,0.00,0.00,0.00,-0.07,-0.01,0.00,0.00,-0.04,-0.01,-1.09,0.18,0.04
58051448,-0.000,0.002,1.000,-0.00,-0.04,-0.01,0.07,0.01,989,1100,1099,1101,1101,1099,0,1500,1500,989,1500,4294967287,0.00,0.00,0.00,-0.07,-0.01,0.00,-0.00,-0.04,-0.01,-1.17,0.95,-0.11
58055448,-0.000,0.003,1.000,-0.01,-0.05,-0.02,0.08,0.01,989,1100,1099,1101,1099,1101,0,1500,1500,989,1500,4294967285,0.00,0.00,0.00,-0.08,-0.01,0.00,-0.01,-0.05,-0.02,0.48,0.52,1.01
58059448,-0.000,0.003,1.001,-0.02,-0.05,-0.01,0.08,0.01,989,1100,1101,1101,1099,1099,0,1500,1500,989,1500,4294967285,0.00,0.00,0.00,-0.08,-0.01,0.00,-0.02,-0.05,-0.01,0.95,1.20,-0.79
58063448,0.000,0.003,1.002,-0.03,-0.05,-0.01,0.09,0.01,989,1100,1101,1099,1099,1101,0,1500,1500,989,1500,4294967286,0.00,0.00,0.00,-0.09,-0.01,0.00,-0.03,-0.05,-0.01,1.10,0.32,-0.03
58067448,0.000,0.003,1.002,-0.04,-0.05,-0.01,0.09,0.01,989,1100,1100,1100,1100,1100,0,1500,1500,989,1500,3990,0.00,0.00,0.00,-0.09,-0.01,0.00,-0.04,-0.05,-0.01,0.25,0.01,-0.10
58071448,0.000,0.002,1.001,-0.03,-0.05,-0.01,0.10,0.01,989,1100,1098,1102,1102,1098,0,1500,1500,989,1500,7990,0.00,0.00,0.00,-0.10,-0.01,0.00,-0.03,-0.05,-0.01,-2.56,-0.25,0.56
58075448,0.001,0.002,1.001,-0.04,-0.05,-0.01,0.10,0.00,989,1100,1102,1100,1098,1100,0,1500,1500,989,1500,4294967285,0.00,0.00,0.00,-0.10,-0.00,0.00,-0.04,-0.05,-0.01,1.14,1.49,0.21
58079448,0.000,0.002,1.001,-0.05,-0.06,-0.01,0.10,0.00,989,1100,1103,1101,1097,1099,0,1500,1500,989,1500,4294967285,0.00,0.00,0.00,-0.10,-0.00,0.00,-0.05,-0.06,-0.01,1.64,2.09,-0.65
58083448,0.000,0.002,1.001,-0.05,-0.06,-0.00,0.10,0.00,989,1100,1100,1100,1100,1100,0,1500,1500,989,1500,4294967285,0.00,0.00,0.00,-0.10,-0.00,0.00,-0.05,-0.06,-0.00,0.03,0.70,-0.35
58087448,0.000,0.002,1.001,-0.04,-0.06,-0.01,0.10,0.00,989,1100,1099,1101,1101,1099,0,1500,1500,989,1500,4294967286,0.00,0.00,0.00,-0.10,-0.00,0.00,-0.04,-0.06,-0.01,-1.54,-0.14,0.80
58091448,0.000,0.003,1.001,-0.05,-0.06,-0.01,0.11,-0.00,989,1100,1101,1099,1099,1101,0,1500,1500,989,1500,4294967286,0.00,0.00,0.00,-0.11,0.00,0.00,-0.05,-0.06,-0.01,1.20,-0.06,-0.44
58095448,0.001,0.002,1.001,-0.06,-0.04,-0.00,0.11,-0.00,989,1100,1098,1098,1102,1102,0,1500,1500,989,1500,4294967284,0.00,0.00,0.00,-0.11,0.00,0.00,-0.06,-0.04,-0.00,0.27,-2.05,-0.61
58099448,0.001,0.002,1.000,-0.05,-0.05,-0.01,0.11,-0.01,989,1100,1101,1101,1099,1099,0,1500,1500,989,1500,4294967285,0.00,0.00,0.00,-0.11,0.01,0.00,-0.05,-0.05,-0.01,-0.16,1.19,0.62
58103448,0.001,0.001,1.000,-0.04,-0.05,-0.00,0.11,-0.01,989,1100,1099,1101,1101,1099,0,1500,1500,989,1500,4294967286,0.00,0.00,0.00,-0.11,0.01,0.00,-0.04,-0.05,-0.00,-1.46,0.97,-0.44
58107448,0.001,0.000,0.999,-0.03,-0.04,-0.00,0.10,-0.01,989,1100,1100,1100,1100,1100,0,1500,1500,989,1500,4294967285,0.00,0.00,0.00,-0.10,0.01,0.00,-0.03,-0.04,-0.00,-0.85,-0.48,-0.25
58111448,0.001,0.000,0.998,-0.02,-0.04,-0.00,0.09,-0.02,989,1100,1100,1100,1100,1100,0,1500,1500,989,1500,4294967284,0.00,0.00,0.00,-0.09,0.02,0.00,-0.02,-0.04,-0.00,-0.82,0.12,-0.06
58115448,0.000,0.000,0.997,-0.02,-0.03,-0.00,0.09,-0.02,989,1100,1098,1098,1102,1102,0,1500,1500,989,1500,4294967285,0.00,0.00,0.00,-0.09,0.02,0.00,-0.02,-0.03,-0.00,0.12,-2.22,0.29
58119448,-0.001,-0.000,0.997,-0.01,-0.03,-0.00,0.08,-0.01,989,1100,1100,1100,1100,1100,0,1500,1500,989,1500,4294967285,0.00,0.00,0.00,-0.08,0.01,0.00,-0.01,-0.03,-0.00,-0.21,-0.25,0.16
58123448,-0.001,-0.000,0.997,-0.02,-0.03,-0.01,0.07,-0.01,989,1100,1102,1098,1098,1102,0,1500,1500,989,1500,4294967288,0.00,0.00,0.00,-0.07,0.01,0.00,-0.02,-0.03,-0.01,2.64,-0.64,0.17
58127448,-0.001,0.000,0.997,-0.01,-0.02,-0.01,0.07,-0.01,989,1100,1099,1099,1101,1101,0,1500,1500,989,1500,4294967286,0.00,0.00,0.00,-0.07,0.01,0.00,-0.01,-0.02,-0.01,0.50,-1.49,0.13
58131448,-0.000,0.001,0.997,-0.01,-0.02,-0.01,0.06,-0.00,989,1100,1100,1100,1100,1100,0,1500,1500,989,1500,4294967285,0.00,0.00,0.00,-0.06,0.00,0.00,-0.01,-0.02,-0.01,-0.46,-0.87,-0.07
58135448,-0.000,0.001,0.998,0.00,-0.02,-0.00,0.06,-0.00,989,1100,1097,1101,1103,1099,0,1500,1500,989,1500,4294967285,0.00,0.00,0.00,-0.06,0.00,0.00,0.00,-0.02,-0.00,-2.10,-1.64,-0.54
58139448,-0.000,0.002,0.998,0.00,-0.01,-0.00,0.07,-0.00,989,1100,1099,1099,1101,1101,0,1500,1500,989,1500,4294967287,0.00,0.00,0.00,-0.07,0.00,0.00,0.00,-0.01,-0.00,-0.32,-1.77,0.27
58143448,-0.000,0.002,0.998,0.01,-0.01,-0.01,0.07,-0.00,989,1100,1099,1101,1101,1099,0,1500,1500,989,1500,4294967286,0.00,0.00,0.00,-0.07,0.00,0.00,0.01,-0.01,-0.01,-1.93,-0.30,0.82
58147448,-0.000,0.002,0.998,-0.00,-0.01,-0.01,0.07,-0.00,989,1100,1101,1099,1099,1101,0,1500,1500,989,1500,4294967285,0.00,0.00,0.00,-0.07,0.00,0.00,-0.00,-0.01,-0.01,1.17,0.75,-0.20
58151448,-0.000,0.002,0.997,-0.01,-0.01,-0.01,0.07,0.00,989,1100,1101,1099,1099,1101,0,1500,1500,989,1500,4294967285,0.00,0.00,0.00,-0.07,-0.00,0.00,-0.01,-0.01,-0.01,1.76,-0.84,-0.16
58155448,-0.000,0.002,0.997,-0.02,-0.01,-0.01,0.08,0.00,989,1100,1100,1100,1100,1100,0,1500,1500,989,1500,4294967286,0.00,0.00,0.00,-0.08,-0.00,0.00,-0.02,-0.01,-0.01,0.24,0.68,0.09
58159448,-0.000,0.002,0.997,-0.03,-0.01,-0.00,0.08,0.00,989,1100,1101,1099,1099,1101,0,1500,1500,989,1500,4294967284,0.00,0.00,0.00,-0.08,-0.00,0.00,-0.03,-0.01,-0.00,1.60,0.08,-0.76
58163448,0.000,0.002,0.997,-0.03,-0.02,0.01,0.08,0.00,989,1100,1101,1101,1099,1099,0,1500,1500,989,1500,4294967285,0.00,0.00,0.00,-0.08,-0.00,0.00,-0.03,-0.02,0.01,0.33,1.98,-0.68
58167448,0.000,0.002,0.997,-0.03,-0.02,0.01,0.08,0.00,989,1100,1100,1100,1100,1100,0,1500,1500,989,1500,4294967286,0.00,0.00,0.00,-0.08,-0.00,0.00,-0.03,-0.02,0.01,-0.67,-0.74,-0.14
58171448,-0.000,0.002,0.997,-0.02,-0.02,0.00,0.08,0.00,989,1100,1098,1102,1102,1098,0,1500,1500,989,1500,4294967285,0.00,0.00,0.00,-0.08,-0.00,0.00,-0.02,-0.02,0.00,-2.31,0.36,0.21
58175448,0.000,0.001,0.996,-0.01,-0.01,-0.00,0.08,0.00,989,1100,1099,1099,1101,1101,0,1500,1500,989,1500,4294967286,0.00,0.00,0.00,-0.08,-0.00,0.00,-0.01,-0.01,-0.00,-0.88,-1.57,0.63
58179448,0.001,0.001,0.996,-0.01,-0.01,-0.01,0.08,-0.00,989,1100,1099,1101,1101,1099,0,1500,1500,989,1500,4294967283,0.00,0.00,0.00,-0.08,0.00,0.00,-0.01,-0.01,-0.01,-1.28,-0.19,0.33
58183448,0.002,0.001,0.996,-0.01,-0.01,-0.00,0.08,-0.01,989,1100,1101,1101,1099,1099,0,1500,1500,989,1500,4294967287,0.00,0.00,0.00,-0.08,0.01,0.00,-0.01,-0.01,-0.00,0.90,1.19,-0.30
58187448,0.002,0.002,0.997,-0.00,-0.01,-0.01,0.08,-0.01,989,1100,1100,1104,1100,1096,0,1500,1500,989,1500,4294967287,0.00,0.00,0.00,-0.08,0.01,0.00,-0.00,-0.01,-0.01,-2.08,2.55,0.46
58191448,0.002,0.001,0.998,0.00,-0.01,-0.00,0.08,-0.02,989,1100,1099,1101,1101,1099,0,1500,1500,989,1500,4294967285,0.00,0.00,0.00,-0.08,0.02,0.00,0.00,-0.01,-0.00,-1.49,0.84,-0.59
58195448,0.002,0.001,0.998,0.01,-0.01,-0.00,0.08,-0.03,989,1100,1102,1102,1098,1098,0,1500,1500,989,1500,4294967286,0.00,0.00,0.00,-0.08,0.03,0.00,0.01,-0.01,-0.00,-0.50,2.22,-0.05
58199448,0.002,0.001,0.998,0.02,-0.01,0.00,0.08,-0.04,989,1100,1098,1102,1102,1098,0,1500,1500,989,1500,4294967286,0.00,0.00,0.00,-0.08,0.04,0.00,0.02,-0.01,0.00,-2.33,0.40,-0.30
58203448,0.002,0.001,0.998,0.03,-0.01,0.00,0.08,-0.04,989,1100,1100,1102,1100,1098,0,1500,1500,989,1500,4294967286,0.00,0.00,0.00,-0.08,0.04,0.00,0.03,-0.01,0.00,-1.81,1.18,0.21
58207448,0.002,0.001,0.998,0.03,-0.01,-0.00,0.08,-0.05,989,1100,1100,1100,1100,1100,0,1500,1500,989,1500,4294967286,0.00,0.00,0.00,-0.08,0.05,0.00,0.03,-0.01,-0.00,-0.99,0.49,0.26
58211448,0.002,0.000,0.998,0.04,0.00,-0.01,0.07,-0.05,989,1100,1099,1099,1101,1101,0,1500,1500,989,1500,4294967287,0.00,0.00,0.00,-0.07,0.05,0.00,0.04,0.00,-0.01,-0.80,-1.35,0.44
58215448,0.002,0.000,0.998,0.05,0.00,-0.01,0.07,-0.05,989,1100,1101,1101,1099,1099,0,1500,1500,989,1500,4294967286,0.00,0.00,0.00,-0.07,0.05,0.00,0.05,0.00,-0.01,-0.99,1.20,0.09
58219448,0.001,0.000,0.998,0.05,-0.00,-0.00,0.06,-0.05,989,1100,1100,1100,1100,1100,0,1500,1500,989,1500,3990,0.00,0.00,0.00,-0.06,0.05,0.00,0.05,-0.00,-0.00,0.94,0.72,-0.45
58223448,0.001,0.000,0.997,0.06,-0.01,-0.00,0.06,-0.05,989,1100,1101,1101,1099,1099,0,1500,1500,989,1500,4294967286,0.00,0.00,0.00,-0.06,0.05,0.00,0.06,-0.01,-0.00,-0.92,1.42,-0.07
58227448,0.001,0.001,0.997,0.06,-0.00,-0.01,0.06,-0.06,989,1100,1100,1100,1100,1100,0,1500,1500,989,1500,4294967284,0.00,0.00,0.00,-0.06,0.06,0.00,0.06,-0.00,-0.01,0.17,-0.67,0.92
58231448,0.001,0.000,0.997,0.05,0.01,-0.02,0.06,-0.06,989,1100,1099,1099,1101,1101,0,1500,1500,989,1500,4294967285,0.00,0.00,0.00,-0.06,0.06,0.00,0.05,0.01,-0.02,1.00,-1.40,0.60
58235448,0.001,0.000,0.997,0.05,0.01,-0.01,0.05,-0.06,989,1100,1100,1100,1100,1100,0,1500,1500,989,1500,4294967287,0.00,0.00,0.00,-0.05,0.06,0.00,0.05,0.01,-0.01,0.42,-0.26,-0.46
58239448,0.001,0.001,0.998,0.05,0.01,-0.01,0.05,-0.05,989,1100,1100,1098,1100,1102,0,1500,1500,989,1500,4294967286,0.00,0.00,0.00,-0.05,0.05,0.00,0.05,0.01,-0.01,1.55,-1.44,-0.40
58243448,0.001,0.001,0.999,0.05,0.01,-0.02,0.05,-0.05,989,1100,1100,1100,1100,1100,0,1500,1500,989,1500,4294967285,0.00,0.00,0.00,-0.05,0.05,0.00,0.05,0.01,-0.02,-0.57,0.64,0.81
58247448,0.001,0.002,1.000,0.04,0.01,-0.02,0.06,-0.05,989,1100,1101,1099,1099,1101,0,1500,1500,989,1500,4294967285,0.00,0.00,0.00,-0.06,0.05,0.00,0.04,0.01,-0.02,1.67,0.07,0.39
58251448,0.001,0.002,1.000,0.03,0.00,-0.02,0.06,-0.05,989,1100,1100,1100,1100,1100,0,1500,1500,989,1500,4294967287,0.00,0.00,0.00,-0.06,0.05,0.00,0.03,0.00,-0.02,0.79,0.28,0.02
58255448,0.000,0.002,1.001,0.02,0.01,-0.02,0.07,-0.05,989,1100,1100,1100,1100,1100,0,1500,1500,989,1500,4294967285,0.00,0.00,0.00,-0.07,0.05,0.00,0.02,0.01,-0.02,-0.11,-0.65,0.52
58259448,-0.000,0.002,1.000,0.02,0.01,-0.02,0.07,-0.04,989,1100,1099,1099,1101,1101,0,1500,1500,989,1500,4294967285,0.00,0.00,0.00,-0.07,0.04,0.00,0.02,0.01,-0.02,-0.29,-1.87,-0.54
58263448,-0.001,0.001,0.999,0.01,0.03,-0.02,0.07,-0.04,989,1100,1097,1095,1103,1105,0,1500,1500,989,1500,3989,0.00,0.00,0.00,-0.07,0.04,0.00,0.01,0.03,-0.02,1.20,-4.04,0.13
58267448,-0.000,0.001,0.998,0.01,0.03,-0.02,0.07,-0.03,989,1100,1099,1099,1101,1101,0,1500,1500,989,1500,4294967287,0.00,0.00,0.00,-0.07,0.03,0.00,0.01,0.03,-0.02,0.60,-1.76,-0.24
58271448,-0.000,0.001,0.998,0.01,0.02,-0.02,0.07,-0.03,989,1100,1101,1101,1099,1099,0,1500,1500,989,1500,4294967287,0.00,0.00,0.00,-0.07,0.03,0.00,0.01,0.02,-0.02,-0.77,1.44,0.27
58275448,0.000,0.001,0.998,0.02,0.01,-0.02,0.07,-0.03,989,1100,1099,1101,1101,1099,0,1500,1500,989,1500,4294967285,0.00,0.00,0.00,-0.07,0.03,0.00,0.02,0.01,-0.02,-1.33,0.12,-0.38
58279448,0.000,0.001,0.999,0.03,0.01,-0.02,0.07,-0.03,989,1100,1099,1101,1101,1099,0,1500,1500,989,1500,4294967285,0.00,0.00,0.00,-0.07,0.03,0.00,0.03,0.01,-0.02,-1.02,-0.17,-0.05
58283448,-0.000,0.001,1.000,0.03,0.00,-0.02,0.06,-0.02,989,1100,1101,1101,1099,1099,0,1500,1500,989,1500,4294967285,0.00,0.00,0.00,-0.06,0.02,0.00,0.03,0.00,-0.02,-0.32,1.53,0.53
58287448,-0.000,0.001,1.000,0.03,0.01,-0.02,0.06,-0.02,989,1100,1100,1100,1100,1100,0,1500,1500,989,1500,4294967285,0.00,0.00,0.00,-0.06,0.02,0.00,0.03,0.01,-0.02,-0.13,-0.70,0.13
58291448,-0.000,0.001,0.999,0.02,0.01,-0.02,0.06,-0.02,989,1100,1101,1099,1099,1101,0,1500,1500,989,1500,4294967286,0.00,0.00,0.00,-0.06,0.02,0.00,0.02,0.01,-0.02,1.68,-0.76,0.17
58295448,0.000,0.001,0.998,0.03,0.00,-0.01,0.06,-0.02,989,1100,1101,1101,1101,1097,0,1500,1500,989,1500,4294967284,0.00,0.00,0.00,-0.06,0.02,0.00,0.03,0.00,-0.01,-1.12,1.15,-1.10
58299448,-0.000,0.001,0.998,0.03,-0.00,-0.01,0.06,-0.02,989,1100,1100,1100,1100,1100,0,1500,1500,989,1500,4294967285,0.00,0.00,0.00,-0.06,0.02,0.00,0.03,-0.00,-0.01,0.01,-0.12,-0.45
58303448,-0.000,0.001,0.998,0.03,0.01,-0.01,0.06,-0.01,989,1100,1099,1099,1101,1101,0,1500,1500,989,1500,4294967287,0.00,0.00,0.00,-0.06,0.01,0.00,0.03,0.01,-0.01,0.95,-1.43,0.41
58307448,-0.000,0.001,0.998,0.02,0.01,-0.02,0.06,-0.01,989,1100,1099,1099,1099,1103,0,1500,1500,989,1500,4294967284,0.00,0.00,0.00,-0.06,0.01,0.00,0.02,0.01,-0.02,1.39,-1.96,1.01
58311448,-0.000,0.001,0.997,0.02,0.01,-0.02,0.06,-0.01,989,1100,1100,1100,1100,1100,0,1500,1500,989,1500,4294967286,0.00,0.00,0.00,-0.06,0.01,0.00,0.02,0.01,-0.02,0.89,0.75,0.15
58315448,0.000,0.001,0.997,0.02,0.00,-0.02,0.06,-0.01,989,1100,1099,1101,1101,1099,0,1500,1500,989,1500,4294967285,0.00,0.00,0.00,-0.06,0.01,0.00,0.02,0.00,-0.02,-1.06,0.90,-0.34
58319448,0.000,0.001,0.997,0.02,-0.00,-0.02,0.06,-0.01,989,1100,1100,1100,1100,1100,0,1500,1500,989,1500,4294967286,0.00,0.00,0.00,-0.06,0.01,0.00,0.02,-0.00,-0.02,0.03,0.36,-0.28
58323448,0.000,0.000,0.998,0.02,-0.00,-0.02,0.05,-0.01,989,1100,1100,1100,1100,1100,0,1500,1500,989,1500,4294967285,0.00,0.00,0.00,-0.05,0.01,0.00,0.02,-0.00,-0.02,0.05,0.04,0.22
58327448,0.000,0.000,0.998,0.02,0.01,-0.02,0.05,-0.01,989,1100,1100,1098,1100,1102,0,1500,1500,989,1500,4294967285,0.00,0.00,0.00,-0.05,0.01,0.00,0.02,0.01,-0.02,1.32,-1.06,-0.19
58331448,0.001,0.000,0.998,0.02,0.01,-0.02,0.05,-0.01,989,1100,1099,1099,1101,1101,0,1500,1500,989,1500,4294967288,0.00,0.00,0.00,-0.05,0.01,0.00,0.02,0.01,-0.02,-0.27,-1.03,0.03
58335448,0.000,0.000,0.998,0.02,0.01,-0.01,0.04,-0.01,989,1100,1101,1099,1099,1101,0,1500,1500,989,1500,4294967286,0.00,0.00,0.00,-0.04,0.01,0.00,0.02,0.01,-0.01,1.94,-0.36,-0.40
58339448,-0.000,0.001,0.998,0.02,0.02,-0.01,0.04,-0.01,989,1100,1098,1100,1102,1100,0,1500,1500,989,1500,4294967284,0.00,0.00,0.00,-0.04,0.01,0.00,0.02,0.02,-0.01,-1.01,-1.15,-0.02
58343448,-0.000,0.001,0.998,0.02,0.01,-0.01,0.04,-0.01,989,1100,1100,1100,1100,1100,0,1500,1500,989,1500,4294967285,0.00,0.00,0.00,-0.04,0.01,0.00,0.02,0.01,-0.01,0.02,0.45,0.35
58347448,0.000,0.001,0.997,0.02,0.01,-0.02,0.04,-0.01,989,1100,1100,1100,1100,1100,0,1500,1500,989,1500,4294967288,0.00,0.00,0.00,-0.04,0.01,0.00,0.02,0.01,-0.02,-0.21,-0.03,0.89
58351448,0.001,0.001,0.997,0.02,0.01,-0.02,0.04,-0.01,989,1100,1100,1100,1100,1100,0,1500,1500,989,1500,4294967286,0.00,0.00,0.00,-0.04,0.01,0.00,0.02,0.01,-0.02,0.82,0.79,-0.04
58355448,0.001,0.001,0.997,0.02,0.01,-0.02,0.04,-0.01,989,1100,1100,1100,1100,1100,0,1500,1500,989,1500,4294967285,0.00,0.00,0.00,-0.04,0.01,0.00,0.02,0.01,-0.02,0.52,0.11,-0.57
58359448,0.000,0.001,0.998,0.02,0.01,-0.02,0.04,-0.01,989,1100,1100,1100,1100,1100,0,1500,1500,989,1500,4294967286,0.00,0.00,0.00,-0.04,0.01,0.00,0.02,0.01,-0.02,-0.58,0.41,0.59
58363448,0.000,0.001,0.998,0.01,0.01,-0.02,0.05,-0.01,989,1100,1100,1100,1100,1100,0,1500,1500,989,1500,4294967285,0.00,0.00,0.00,-0.05,0.01,0.00,0.01,0.01,-0.02,0.60,0.69,-0.09
58367448,0.000,0.002,0.999,0.02,0.01,-0.02,0.05,-0.01,989,1100,1098,1102,1102,1098,0,1500,1500,989,1500,4294967284,0.00,0.00,0.00,-0.05,0.01,0.00,0.02,0.01,-0.02,-2.44,0.42,0.08
58371448,0.001,0.002,0.998,0.01,0.01,-0.02,0.05,-0.01,989,1100,1101,1099,1099,1101,0,1500,1500,989,1500,4294967285,0.00,0.00,0.00,-0.05,0.01,0.00,0.01,0.01,-0.02,1.22,0.56,-0.28
58375448,0.001,0.002,0.998,0.01,0.00,-0.02,0.06,-0.02,989,1100,1099,1101,1101,1099,0,1500,1500,989,1500,4294967285,0.00,0.00,0.00,-0.06,0.02,0.00,0.01,0.00,-0.02,-1.24,0.83,0.14
58379448,0.001,0.002,0.998,0.01,0.01,-0.02,0.06,-0.02,989,1100,1100,1100,1100,1100,0,1500,1500,989,1500,4294967286,0.00,0.00,0.00,-0.06,0.02,0.00,0.01,0.01,-0.02,-0.15,-0.37,0.13
58383448,0.001,0.002,0.998,0.00,0.00,-0.02,0.07,-0.02,989,1100,1101,1101,1099,1099,0,1500,1500,989,1500,4294967284,0.00,0.00,0.00,-0.07,0.02,0.00,0.00,0.00,-0.02,-0.03,1.04,-0.30
58387448,0.001,0.002,0.998,-0.00,-0.00,-0.01,0.07,-0.02,989,1100,1102,1100,1100,1098,0,1500,1500,989,1500,4294967285,0.00,0.00,0.00,-0.07,0.02,0.00,-0.00,-0.00,-0.01,-0.20,1.61,-1.24
58391448,0.001,0.002,0.998,-0.01,0.00,-0.00,0.07,-0.03,989,1100,1100,1100,1100,1100,0,1500,1500,989,1500,3989,0.00,0.00,0.00,-0.07,0.03,0.00,-0.01,0.00,-0.00,0.42,0.05,-0.47
58395448,0.001,0.002,0.997,-0.02,0.01,0.00,0.08,-0.03,989,1100,1100,1098,1100,1102,0,1500,1500,989,1500,4294967284,0.00,0.00,0.00,-0.08,0.03,0.00,-0.02,0.01,0.00,1.67,-1.02,-0.15
58399448,0.001,0.002,0.996,-0.02,0.00,-0.00,0.08,-0.03,989,1100,1101,1101,1099,1099,0,1500,1500,989,1500,4294967287,0.00,0.00,0.00,-0.08,0.03,0.00,-0.02,0.00,-0.00,-0.46,1.78,0.09
58403448,0.000,0.001,0.996,-0.01,-0.00,-0.01,0.08,-0.03,989,1100,1100,1102,1100,1098,0,1500,1500,989,1500,4294967285,0.00,0.00,0.00,-0.08,0.03,0.00,-0.01,-0.00,-0.01,-1.55,1.32,0.61
58407448,0.000,0.001,0.996,0.00,-0.01,-0.01,0.08,-0.03,989,1100,1099,1101,1101,1099,0,1500,1500,989,1500,4294967285,0.00,0.00,0.00,-0.08,0.03,0.00,0.00,-0.01,-0.01,-1.66,0.39,0.68
58411448,-0.000,0.000,0.997,0.01,-0.00,-0.01,0.07,-0.03,989,1100,1099,1101,1101,1099,0,1500,1500,989,1500,990,0.00,0.00,0.00,-0.07,0.03,0.00,0.01,-0.00,-0.01,-1.49,-0.86,0.18
58415448,-0.000,-0.000,0.997,0.00,-0.01,-0.02,0.06,-0.02,989,1100,1102,1098,1098,1102,0,1500,1500,989,1500,4294967287,0.00,0.00,0.00,-0.06,0.02,0.00,0.00,-0.01,-0.02,2.78,0.01,0.07
58419448,0.000,0.000,0.997,0.00,-0.00,-0.01,0.06,-0.02,989,1100,1100,1098,1100,1102,0,1500,1500,989,1500,4294967285,0.00,0.00,0.00,-0.06,0.02,0.00,0.00,-0.00,-0.01,1.27,-1.52,-0.32
58423448,0.000,0.001,0.998,0.01,-0.01,-0.01,0.06,-0.02,989,1100,1101,1101,1099,1099,0,1500,1500,989,1500,4294967283,0.00,0.00,0.00,-0.06,0.02,0.00,0.01,-0.01,-0.01,-0.25,1.42,0.23
58427448,0.000,0.001,0.998,0.01,-0.01,-0.01,0.06,-0.02,989,1100,1100,1100,1100,1100,0,1500,1500,989,1500,4294967286,0.00,0.00,0.00,-0.06,0.02,0.00,0.01,-0.01,-0.01,-0.78,0.06,-0.23
58431448,0.000,0.002,0.998,0.01,-0.01,-0.01,0.06,-0.02,989,1100,1099,1101,1101,1099,0,1500,1500,989,1500,4294967286,0.00,0.00,0.00,-0.06,0.02,0.00,0.01,-0.01,-0.01,-1.31,-0.00,0.03
58435448,-0.000,0.002,0.999,0.02,-0.01,-0.01,0.06,-0.02,989,1100,1098,1102,1102,1098,0,1500,1500,989,1500,4294967284,0.00,0.00,0.00,-0.06,0.02,0.00,0.02,-0.01,-0.01,-2.29,-0.62,-0.65
58439448,-0.001,0.002,0.999,0.02,-0.01,-0.00,0.07,-0.01,989,1100,1099,1101,1101,1099,0,1500,1500,989,1500,4294967285,0.00,0.00,0.00,-0.07,0.01,0.00,0.02,-0.01,-0.00,-1.16,-0.11,-0.54
58443448,-0.001,0.002,0.998,0.02,-0.01,0.01,0.07,-0.01,989,1100,1099,1099,1101,1101,0,1500,1500,989,1500,4294967287,0.00,0.00,0.00,-0.07,0.01,0.00,0.02,-0.01,0.01,-0.24,-1.51,-0.53
58447448,-0.001,0.002,0.997,0.02,-0.01,0.00,0.07,-0.00,989,1100,1099,1101,1101,1099,0,1500,1500,989,1500,4294967286,0.00,0.00,0.00,-0.07,0.00,0.00,0.02,-0.01,0.00,-1.05,-0.45,0.36
58451448,-0.001,0.002,0.997,0.02,-0.01,-0.01,0.08,-0.00,989,1100,1099,1099,1101,1101,0,1500,1500,989,1500,4294967285,0.00,0.00,0.00,-0.08,0.00,0.00,0.02,-0.01,-0.01,0.32,-1.50,0.73
58455448,-0.001,0.001,0.997,0.01,-0.01,0.00,0.08,0.00,989,1100,1101,1099,1099,1101,0,1500,1500,989,1500,4294967284,0.00,0.00,0.00,-0.08,-0.00,0.00,0.01,-0.01,0.00,1.41,0.82,-0.59
58459448,-0.000,0.001,0.997,0.01,-0.02,-0.00,0.08,0.00,989,1100,1100,1100,1100,1100,0,1500,1500,989,1500,3988,0.00,0.00,0.00,-0.08,-0.00,0.00,0.01,-0.02,-0.00,0.59,0.06,0.48
58463448,0.000,0.001,0.997,0.01,-0.02,-0.01,0.07,0.00,989,1100,1101,1101,1099,1099,0,1500,1500,989,1500,4294967286,0.00,0.00,0.00,-0.07,-0.00,0.00,0.01,-0.02,-0.01,0.70,1.46,0.23
58467448,-0.000,0.001,0.996,0.01,-0.02,-0.00,0.07,0.00,989,1100,1099,1099,1101,1101,0,1500,1500,989,1500,4294967285,0.00,0.00,0.00,-0.07,-0.00,0.00,0.01,-0.02,-0.00,0.42,-1.12,-0.23
58471448,-0.001,0.001,0.997,0.01,-0.02,-0.01,0.07,0.00,989,1100,1099,1101,1101,1099,0,1500,1500,989,1500,4294967284,0.00,0.00,0.00,-0.07,-0.00,0.00,0.01,-0.02,-0.01,-1.10,-0.49,0.11
58475448,-0.001,0.001,0.997,0.01,-0.02,-0.00,0.07,0.01,989,1100,1101,1099,1099,1101,0,1500,1500,989,1500,4294967285,0.00,0.00,0.00,-0.07,-0.01,0.00,0.01,-0.02,-0.00,1.25,0.39,-0.20
58479448,-0.001,0.001,0.997,-0.00,-0.02,0.00,0.07,0.01,989,1100,1100,1096,1100,1104,0,1500,1500,989,1500,4294967287,0.00,0.00,0.00,-0.07,-0.01,0.00,-0.00,-0.02,0.00,2.48,-2.10,-0.38
58483448,-0.001,0.001,0.998,-0.01,-0.01,0.00,0.06,0.02,989,1100,1101,1097,1099,1103,0,1500,1500,989,1500,4294967286,0.00,0.00,0.00,-0.06,-0.02,0.00,-0.01,-0.01,0.00,2.06,-1.39,-0.39
58487448,-0.000,0.000,0.999,-0.01,-0.01,-0.00,0.06,0.02,989,1100,1099,1099,1101,1101,0,1500,1500,989,1500,4294967285,0.00,0.00,0.00,-0.06,-0.02,0.00,-0.01,-0.01,-0.00,-0.36,-1.17,0.44
58491448,-0.000,0.001,1.000,-0.00,-0.01,-0.00,0.06,0.02,989,1100,1099,1101,1101,1099,0,1500,1500,989,1500,4294967285,0.00,0.00,0.00,-0.06,-0.02,0.00,-0.00,-0.01,-0.00,-1.28,0.45,-0.02
58495448,-0.000,0.001,1.001,0.01,-0.01,0.00,0.06,0.01,989,1100,1098,1102,1102,1098,0,1500,1500,989,1500,4294967286,0.00,0.00,0.00,-0.06,-0.01,0.00,0.01,-0.01,0.00,-2.08,0.08,-0.10
58499448,-0.000,0.001,1.001,0.01,-0.01,0.00,0.06,0.01,989,1100,1100,1100,1100,1100,0,1500,1500,989,1500,4294967286,0.00,0.00,0.00,-0.06,-0.01,0.00,0.01,-0.01,0.00,-0.98,0.77,-0.41
58503448,-0.001,0.001,1.003,0.01,-0.01,0.00,0.06,0.02,989,1100,1099,1099,1101,1101,0,1500,1500,989,1500,4294967284,0.00,0.00,0.00,-0.06,-0.02,0.00,0.01,-0.01,0.00,-0.17,-1.32,0.42
58507448,-0.001,0.001,1.002,0.01,-0.02,0.00,0.06,0.02,989,1100,1102,1100,1098,1100,0,1500,1500,989,1500,4294967283,0.00,0.00,0.00,-0.06,-0.02,0.00,0.01,-0.02,0.00,1.23,1.17,-0.07
58511448,-0.002,0.001,1.002,-0.01,-0.02,-0.00,0.06,0.03,989,1100,1103,1097,1097,1103,0,1500,1500,989,1500,4294967285,0.00,0.00,0.00,-0.06,-0.03,0.00,-0.01,-0.02,-0.00,3.32,-0.93,0.62
58515448,-0.002,0.001,1.001,-0.01,-0.02,-0.01,0.06,0.03,989,1100,1100,1100,1100,1100,0,1500,1500,989,1500,4294967285,0.00,0.00,0.00,-0.06,-0.03,0.00,-0.01,-0.02,-0.01,-0.52,-0.54,0.35
58519448,-0.001,0.001,1.000,-0.01,-0.02,-0.00,0.06,0.04,989,1100,1100,1100,1100,1100,0,1500,1500,989,1500,4294967286,0.00,0.00,0.00,-0.06,-0.04,0.00,-0.01,-0.02,-0.00,-0.11,-0.48,-0.55
58523448,-0.001,0.002,1.000,-0.01,-0.03,0.00,0.07,0.04,989,1100,1100,1100,1100,1100,0,1500,1500,989,1500,4294967285,0.00,0.00,0.00,-0.07,-0.04,0.00,-0.01,-0.03,0.00,-0.92,0.37,-0.34
58527448,-0.001,0.002,1.000,-0.01,-0.03,0.01,0.07,0.04,989,1100,1100,1100,1100,1100,0,1500,1500,989,1500,4294967285,0.00,0.00,0.00,-0.07,-0.04,0.00,-0.01,-0.03,0.01,0.16,0.28,-0.55
58531448,-0.001,0.002,0.999,-0.02,-0.03,0.01,0.07,0.04,989,1100,1100,1100,1100,1100,0,1500,1500,989,1500,4294967287,0.00,0.00,0.00,-0.07,-0.04,0.00,-0.02,-0.03,0.01,0.52,0.86,0.00
58535448,-0.000,0.001,0.999,-0.02,-0.03,0.00,0.07,0.04,989,1100,1100,1100,1100,1100,0,1500,1500,989,1500,4294967285,0.00,0.00,0.00,-0.07,-0.04,0.00,-0.02,-0.03,0.00,0.72,-0.36,0.14
58539448,0.000,0.001,0.998,-0.01,-0.03,0.01,0.07,0.04,989,1100,1099,1101,1101,1099,0,1500,1500,989,1500,4294967283,0.00,0.00,0.00,-0.07,-0.04,0.00,-0.01,-0.03,0.01,-1.92,0.39,-0.26
58543448,0.001,-0.000,0.998,-0.01,-0.02,0.00,0.07,0.03,989,1100,1100,1100,1100,1100,0,1500,1500,989,1500,4294967285,0.00,0.00,0.00,-0.07,-0.03,0.00,-0.01,-0.02,0.00,0.37,-0.19,0.58
58547448,0.002,-0.000,0.997,-0.01,-0.02,-0.00,0.06,0.02,989,1100,1102,1098,1098,1102,0,1500,1500,989,1500,4294967287,0.00,0.00,0.00,-0.06,-0.02,0.00,-0.01,-0.02,-0.00,2.04,0.87,0.40
58551448,0.002,0.000,0.997,-0.01,-0.01,-0.01,0.05,0.01,989,1100,1100,1100,1100,1100,0,1500,1500,989,1500,4294967286,0.00,0.00,0.00,-0.05,-0.01,0.00,-0.01,-0.01,-0.01,0.44,-0.05,0.51
58555448,0.002,0.001,0.998,-0.01,0.01,-0.01,0.05,0.00,989,1100,1099,1099,1101,1101,0,1500,1500,989,1500,4294967285,0.00,0.00,0.00,-0.05,-0.00,0.00,-0.01,0.01,-0.01,0.13,-1.57,0.17
58559448,0.002,0.001,0.998,-0.01,0.02,-0.01,0.05,-0.01,989,1100,1100,1100,1100,1100,0,1500,1500,989,1500,4294967285,0.00,0.00,0.00,-0.05,0.01,0.00,-0.01,0.02,-0.01,0.17,-0.05,-0.14
58563448,0.001,0.001,0.999,-0.01,0.02,-0.00,0.05,-0.01,989,1100,1100,1100,1100,1100,0,1500,1500,989,1500,4294967285,0.00,0.00,0.00,-0.05,0.01,0.00,-0.01,0.02,-0.00,0.05,-0.09,-0.50
58567448,0.002,0.001,0.999,-0.01,0.02,-0.00,0.05,-0.02,989,1100,1101,1101,1099,1099,0,1500,1500,989,1500,4294967286,0.00,0.00,0.00,-0.05,0.02,0.00,-0.01,0.02,-0.00,0.92,1.88,-0.01
58571448,0.002,0.001,0.999,-0.01,0.02,-0.00,0.05,-0.02,989,1100,1101,1101,1099,1099,0,1500,1500,989,1500,4294967284,0.00,0.00,0.00,-0.05,0.02,0.00,-0.01,0.02,-0.00,-0.77,1.77,-0.12
58575448,0.001,0.001,0.998,0.00,0.02,-0.01,0.05,-0.03,989,1100,1098,1102,1102,1098,0,1500,1500,989,1500,4294967285,0.00,0.00,0.00,-0.05,0.03,0.00,0.00,0.02,-0.01,-2.76,0.03,0.59
58579448,0.001,0.001,0.999,0.01,0.02,-0.01,0.06,-0.03,989,1100,1099,1101,1101,1099,0,1500,1500,989,1500,4294967285,0.00,0.00,0.00,-0.06,0.03,0.00,0.01,0.02,-0.01,-1.69,-0.28,-0.11
58583448,0.000,0.001,0.999,0.01,0.02,0.00,0.06,-0.03,989,1100,1099,1101,1101,1099,0,1500,1500,989,1500,4294967284,0.00,0.00,0.00,-0.06,0.03,0.00,0.01,0.02,0.00,-1.38,0.09,-0.77
58587448,-0.000,0.001,0.999,-0.00,0.01,0.00,0.06,-0.02,989,1100,1102,1100,1098,1100,0,1500,1500,989,1500,4294967285,0.00,0.00,0.00,-0.06,0.02,0.00,-0.00,0.01,0.00,1.90,1.20,0.09
58591448,-0.000,0.002,1.000,-0.01,0.01,0.00,0.06,-0.02,989,1100,1100,1100,1100,1100,0,1500,1500,989,1500,4294967285,0.00,0.00,0.00,-0.06,0.02,0.00,-0.01,0.01,0.00,0.60,0.65,0.03
58595448,-0.000,0.001,1.000,-0.01,-0.00,-0.00,0.06,-0.02,989,1100,1101,1101,1099,1099,0,1500,1500,989,1500,3989,0.00,0.00,0.00,-0.06,0.02,0.00,-0.01,-0.00,-0.00,0.52,1.48,0.06
58599448,-0.000,0.001,1.000,-0.00,-0.01,-0.00,0.06,-0.01,989,1100,1099,1101,1101,1099,0,1500,1500,989,1500,4294967286,0.00,0.00,0.00,-0.06,0.01,0.00,-0.00,-0.01,-0.00,-1.80,-0.07,0.03
58603448,-0.000,0.001,1.000,0.00,-0.01,0.00,0.07,-0.01,989,1100,1099,1101,1101,1099,0,1500,1500,989,1500,4294967285,0.00,0.00,0.00,-0.07,0.01,0.00,0.00,-0.01,0.00,-1.25,-0.88,-0.06
58607448,0.000,0.002,1.000,0.00,-0.00,0.00,0.07,-0.01,989,1100,1099,1099,1101,1101,0,1500,1500,989,1500,3989,0.00,0.00,0.00,-0.07,0.01,0.00,0.00,-0.00,0.00,-0.06,-1.10,-0.03
58611448,0.001,0.002,1.000,0.00,-0.00,0.00,0.07,-0.01,989,1100,1099,1101,1101,1099,0,1500,1500,989,1500,4294967285,0.00,0.00,0.00,-0.07,0.01,0.00,0.00,-0.00,0.00,-1.36,0.83,-0.20
58615448,0.001,0.002,1.000,0.00,-0.01,0.01,0.07,-0.02,989,1100,1101,1101,1099,1099,0,1500,1500,989,1500,4294967285,0.00,0.00,0.00,-0.07,0.02,0.00,0.00,-0.01,0.01,-0.19,1.82,-0.71
58619448,0.001,0.002,1.000,-0.00,-0.01,0.01,0.08,-0.02,989,1100,1102,1102,1098,1098,0,1500,1500,989,1500,4294967287,0.00,0.00,0.00,-0.08,0.02,0.00,-0.00,-0.01,0.01,-0.80,2.18,0.12
58623448,0.002,0.002,1.000,0.00,-0.01,0.00,0.08,-0.03,989,1100,1099,1101,1101,1099,0,1500,1500,989,1500,4294967285,0.00,0.00,0.00,-0.08,0.03,0.00,0.00,-0.01,0.00,-1.54,0.34,0.32
58627448,0.002,0.002,1.000,0.00,-0.01,-0.00,0.09,-0.04,989,1100,1100,1102,1100,1098,0,1500,1500,989,1500,3989,0.00,0.00,0.00,-0.09,0.04,0.00,0.00,-0.01,-0.00,-1.22,1.10,0.97
58631448,0.002,0.002,1.000,0.00,0.00,-0.01,0.09,-0.04,989,1100,1099,1099,1101,1101,0,1500,1500,989,1500,7989,0.00,0.00,0.00,-0.09,0.04,0.00,0.00,0.00,-0.01,-0.19,-1.19,0.24
58635448,0.001,0.002,0.999,-0.00,0.01,-0.01,0.09,-0.04,989,1100,1100,1100,1100,1100,0,1500,1500,989,1500,4294967286,0.00,0.00,0.00,-0.09,0.04,0.00,-0.00,0.01,-0.01,-0.44,-0.53,-0.14
58639448,0.001,0.002,0.999,0.01,0.01,-0.01,0.10,-0.04,989,1100,1099,1101,1101,1099,0,1500,1500,989,1500,4294967285,0.00,0.00,0.00,-0.10,0.04,0.00,0.01,0.01,-0.01,-1.54,0.07,0.21
58643448,0.001,0.002,0.999,0.00,0.00,-0.01,0.10,-0.04,989,1100,1101,1101,1099,1099,0,1500,1500,989,1500,4294967284,0.00,0.00,0.00,-0.10,0.04,0.00,0.00,0.00,-0.01,0.18,1.25,0.33
58647448,0.001,0.002,0.998,-0.00,-0.00,-0.01,0.10,-0.04,989,1100,1101,1101,1099,1099,0,1500,1500,989,1500,4294967285,0.00,0.00,0.00,-0.10,0.04,0.00,-0.00,-0.00,-0.01,0.68,1.01,0.30
58651448,0.001,0.002,0.998,-0.01,0.01,-0.01,0.10,-0.04,989,1100,1099,1099,1101,1101,0,1500,1500,989,1500,3989,0.00,0.00,0.00,-0.10,0.04,0.00,-0.01,0.01,-0.01,0.77,-1.79,-0.74
58655448,0.001,0.002,0.998,-0.00,0.02,-0.00,0.10,-0.04,989,1100,1098,1100,1102,1100,0,1500,1500,989,1500,7989,0.00,0.00,0.00,-0.10,0.04,0.00,-0.00,0.02,-0.00,-1.27,-1.88,-0.30
58659448,0.001,0.002,0.998,-0.01,0.02,0.00,0.10,-0.04,989,1100,1099,1099,1101,1101,0,1500,1500,989,1500,4294967287,0.00,0.00,0.00,-0.10,0.04,0.00,-0.01,0.02,0.00,0.04,-1.38,-0.35
58663448,0.001,0.001,0.998,0.01,0.02,0.00,0.10,-0.04,989,1100,1098,1102,1102,1098,0,1500,1500,989,1500,4294967286,0.00,0.00,0.00,-0.10,0.04,0.00,0.01,0.02,0.00,-2.20,0.36,-0.03
58667448,0.000,0.001,0.999,0.01,0.03,-0.01,0.10,-0.04,989,1100,1099,1099,1101,1101,0,1500,1500,989,1500,4294967285,0.00,0.00,0.00,-0.10,0.04,0.00,0.01,0.03,-0.01,-0.60,-1.54,0.75
58671448,-0.000,0.000,0.999,0.01,0.02,-0.01,0.09,-0.04,989,1100,1102,1100,1098,1100,0,1500,1500,989,1500,4294967283,0.00,0.00,0.00,-0.09,0.04,0.00,0.01,0.02,-0.01,1.87,1.08,0.07
58675448,-0.000,0.000,0.999,0.01,0.02,-0.01,0.09,-0.03,989,1100,1099,1099,1101,1101,0,1500,1500,989,1500,3987,0.00,0.00,0.00,-0.09,0.03,0.00,0.01,0.02,-0.01,0.27,-1.67,-0.15
58679448,-0.000,0.000,0.999,0.02,0.01,-0.01,0.08,-0.03,989,1100,1101,1101,1099,1099,0,1500,1500,989,1500,4294967286,0.00,0.00,0.00,-0.08,0.03,0.00,0.02,0.01,-0.01,-0.47,1.16,0.41
58683448,-0.001,0.000,0.998,0.02,0.00,-0.00,0.08,-0.02,989,1100,1100,1100,1100,1100,0,1500,1500,989,1500,4294967286,0.00,0.00,0.00,-0.08,0.02,0.00,0.02,0.00,-0.00,0.57,0.84,-0.55
58687448,-0.001,0.000,0.998,0.02,-0.00,-0.00,0.07,-0.02,989,1100,1101,1099,1099,1101,0,1500,1500,989,1500,4294967284,0.00,0.00,0.00,-0.07,0.02,0.00,0.02,-0.00,-0.00,1.58,-0.28,0.06
58691448,-0.001,0.000,0.998,0.01,-0.00,-0.00,0.07,-0.01,989,1100,1100,1098,1100,1102,0,1500,1500,989,1500,4294967285,0.00,0.00,0.00,-0.07,0.01,0.00,0.01,-0.00,-0.00,1.99,-1.27,-0.39
58695448,-0.001,0.001,0.998,0.01,0.00,-0.00,0.06,-0.01,989,1100,1098,1098,1102,1102,0,1500,1500,989,1500,4294967286,0.00,0.00,0.00,-0.06,0.01,0.00,0.01,0.00,-0.00,-0.03,-2.09,0.13
58699448,-0.002,0.001,0.998,0.02,0.00,-0.00,0.06,0.00,989,1100,1099,1099,1101,1101,0,1500,1500,989,1500,4294967285,0.00,0.00,0.00,-0.06,-0.00,0.00,0.02,0.00,-0.00,-0.34,-1.28,-0.06
58703448,-0.001,0.000,0.998,0.02,0.00,-0.01,0.06,0.01,989,1100,1099,1099,1101,1101,0,1500,1500,989,1500,4294967286,0.00,0.00,0.00,-0.06,-0.01,0.00,0.02,0.00,-0.01,-0.59,-1.64,0.79
58707448,-0.001,-0.000,0.998,0.02,0.01,-0.01,0.06,0.01,989,1100,1098,1098,1102,1102,0,1500,1500,989,1500,4294967283,0.00,0.00,0.00,-0.06,-0.01,0.00,0.02,0.01,-0.01,-0.08,-2.45,0.46
58711448,-0.001,-0.000,0.997,0.02,0.01,-0.02,0.05,0.02,989,1100,1102,1098,1098,1102,0,1500,1500,989,1500,4294967287,0.00,0.00,0.00,-0.05,-0.02,0.00,0.02,0.01,-0.02,2.15,-0.64,0.63
58715448,-0.000,-0.000,0.997,0.02,0.02,-0.02,0.05,0.02,989,1100,1099,1099,1101,1101,0,1500,1500,989,1500,4294967285,0.00,0.00,0.00,-0.05,-0.02,0.00,0.02,0.02,-0.02,-0.04,-1.24,0.01
58719448,0.000,-0.000,0.997,0.04,0.03,-0.02,0.04,0.02,989,1100,1097,1101,1103,1099,0,1500,1500,989,1500,4294967283,0.00,0.00,0.00,-0.04,-0.02,0.00,0.04,0.03,-0.02,-2.24,-1.53,0.23
58723448,0.001,-0.000,0.998,0.03,0.03,-0.02,0.04,0.01,989,1100,1102,1098,1098,1102,0,1500,1500,989,1500,4294967286,0.00,0.00,0.00,-0.04,-0.01,0.00,0.03,0.03,-0.02,2.81,-0.82,-0.14
58727448,0.001,0.000,0.998,0.03,0.03,-0.02,0.04,0.01,989,1100,1100,1100,1100,1100,0,1500,1500,989,1500,4294967285,0.00,0.00,0.00,-0.04,-0.01,0.00,0.03,0.03,-0.02,0.64,0.94,-0.32
58731448,0.001,0.000,0.998,0.04,0.04,-0.02,0.04,0.00,989,1100,1099,1101,1101,1099,0,1500,1500,989,1500,4294967284,0.00,0.00,0.00,-0.04,-0.00,0.00,0.04,0.04,-0.02,-1.88,-0.72,0.00
58735448,0.001,0.000,0.998,0.03,0.04,-0.01,0.03,-0.00,989,1100,1100,1100,1100,1100,0,1500,1500,989,1500,4294967285,0.00,0.00,0.00,-0.03,0.00,0.00,0.03,0.04,-0.01,0.95,0.26,-0.55
58739448,0.002,0.000,0.998,0.04,0.05,-0.02,0.03,-0.01,989,1100,1100,1102,1100,1098,0,1500,1500,989,1500,4294967285,0.00,0.00,0.00,-0.03,0.01,0.00,0.04,0.05,-0.02,-1.42,1.21,0.59
58743448,0.002,0.000,0.998,0.05,0.05,-0.02,0.03,-0.02,989,1100,1099,1103,1101,1097,0,1500,1500,989,1500,4294967286,0.00,0.00,0.00,-0.03,0.02,0.00,0.05,0.05,-0.02,-2.06,1.95,0.12
58747448,0.002,0.000,0.999,0.06,0.05,-0.01,0.03,-0.03,989,1100,1099,1101,1101,1099,0,1500,1500,989,1500,4294967287,0.00,0.00,0.00,-0.03,0.03,0.00,0.06,0.05,-0.01,-1.59,0.42,-0.73
58751448,0.001,0.000,1.000,0.06,0.06,-0.01,0.03,-0.03,989,1100,1100,1100,1100,1100,0,1500,1500,989,1500,4294967285,0.00,0.00,0.00,-0.03,0.03,0.00,0.06,0.06,-0.01,-0.14,-0.70,0.43
58755448,0.000,0.000,1.000,0.06,0.06,-0.01,0.03,-0.03,989,1100,1100,1100,1100,1100,0,1500,1500,989,1500,4294967287,0.00,0.00,0.00,-0.03,0.03,0.00,0.06,0.06,-0.01,0.93,-0.49,-0.32
58759448,0.000,0.001,1.001,0.04,0.06,-0.01,0.03,-0.03,989,1100,1102,1098,1098,1102,0,1500,1500,989,1500,4294967286,0.00,0.00,0.00,-0.03,0.03,0.00,0.04,0.06,-0.01,2.65,-0.64,0.20
58763448,-0.000,0.001,1.002,0.04,0.06,-0.02,0.03,-0.03,989,1100,1100,1100,1100,1100,0,1500,1500,989,1500,4294967285,0.00,0.00,0.00,-0.03,0.03,0.00,0.04,0.06,-0.02,0.47,-0.16,0.86
58767448,-0.000,0.001,1.002,0.04,0.05,-0.02,0.03,-0.02,989,1100,1100,1100,1100,1100,0,1500,1500,989,1500,4294967283,0.00,0.00,0.00,-0.03,0.02,0.00,0.04,0.05,-0.02,-0.23,0.95,-0.38
58771448,-0.000,0.002,1.003,0.03,0.04,-0.01,0.04,-0.02,989,1100,1102,1102,1098,1098,0,1500,1500,989,1500,4294967286,0.00,0.00,0.00,-0.04,0.02,0.00,0.03,0.04,-0.01,0.93,2.44,-0.29
58775448,-0.001,0.003,1.002,0.02,0.02,-0.02,0.05,-0.01,989,1100,1101,1101,1099,1099,0,1500,1500,989,1500,3990,0.00,0.00,0.00,-0.05,0.01,0.00,0.02,0.02,-0.02,-0.87,1.28,0.70
58779448,-0.002,0.003,1.002,0.01,0.01,-0.03,0.06,-0.01,989,1100,1101,1101,1099,1099,0,1500,1500,989,1500,4294967286,0.00,0.00,0.00,-0.06,0.01,0.00,0.01,0.01,-0.03,0.84,1.90,0.77
58783448,-0.002,0.004,1.002,0.00,-0.01,-0.02,0.07,0.00,989,1100,1100,1102,1100,1098,0,1500,1500,989,1500,4294967284,0.00,0.00,0.00,-0.07,-0.00,0.00,0.00,-0.01,-0.02,-1.37,1.03,-0.50
58787448,-0.002,0.003,1.002,-0.01,-0.02,-0.02,0.08,0.01,989,1100,1100,1100,1100,1100,0,1500,1500,989,1500,4294967285,0.00,0.00,0.00,-0.08,-0.01,0.00,-0.01,-0.02,-0.02,0.51,0.98,-0.09
58791448,-0.002,0.003,1.002,-0.03,-0.03,-0.02,0.09,0.02,989,1100,1102,1098,1098,1102,0,1500,1500,989,1500,4294967286,0.00,0.00,0.00,-0.09,-0.02,0.00,-0.03,-0.03,-0.02,2.56,-0.29,-0.45
