t_us,ax_g,ay_g,az_g,gx_dps,gy_dps,gz_dps,roll_deg,pitch_deg,throttle_us,motor_us,m1,m2,m3,m4,mode,rc_roll,rc_pitch,rc_throttle,rc_yaw,rc_age_us,att_sp_roll,att_sp_pitch,att_sp_yaw,rate_sp_roll,rate_sp_pitch,rate_sp_yaw,rate_meas_roll,rate_meas_pitch,rate_meas_yaw,rate_out_roll,rate_out_pitch,rate_out_yaw
3604447,0.001,-0.001,0.835,0.01,-0.02,-0.00,-0.09,-0.02,1000,1000,1000,1000,1000,1000,0,1500,1500,989,1500,6983,0.00,0.00,0.00,0.00,0.00,0.00,0.00,0.00,0.00,0.00,0.00,0.00
11064447,0.001,0.000,0.999,-0.01,0.00,0.00,0.01,-0.04,1000,1000,1000,1000,1000,1000,0,1500,1500,989,1500,994,0.00,0.00,0.00,0.00,0.00,0.00,0.00,0.00,0.00,0.00,0.00,0.00
11068447,0.001,-0.000,0.999,-0.02,0.01,0.01,-0.01,-0.06,1000,1000,1000,1000,1000,1000,0,1500,1500,989,1500,994,0.00,0.00,0.00,0.00,0.00,0.00,0.00,0.00,0.00,0.00,0.00,0.00
11072447,0.001,-0.000,0.999,-0.02,0.01,0.00,0.01,-0.04,1000,1000,1000,1000,1000,1000,0,1500,1500,989,1500,993,0.00,0.00,0.00,0.00,0.00,0.00,0.00,0.00,0.00,0.00,0.00,0.00
11076447,0.001,0.000,0.999,-0.01,0.02,-0.00,0.03,-0.04,1000,1000,1000,1000,1000,1000,0,1500,1500,989,1500,992,0.00,0.00,0.00,0.00,0.00,0.00,0.00,0.00,0.00,0.00,0.00,0.00
11080447,0.001,0.000,0.999,-0.02,0.03,0.01,0.03,-0.05,1000,1000,1000,1000,1000,1000,0,1500,1500,989,1500,993,0.00,0.00,0.00,0.00,0.00,0.00,0.00,0.00,0.00,0.00,0.00,0.00
11084447,0.001,0.000,0.999,-0.01,0.03,0.01,0.02,-0.07,1000,1000,1000,1000,1000,1000,0,1500,1500,989,1500,995,0.00,0.00,0.00,0.00,0.00,0.00,0.00,0.00,0.00,0.00,0.00,0.00
11088447,0.001,0.000,0.999,-0.01,0.02,0.01,0.02,-0.07,1000,1000,1000,1000,1000,1000,0,1500,1500,989,1500,994,0.00,0.00,0.00,0.00,0.00,0.00,0.00,0.00,0.00,0.00,0.00,0.00
11092447,0.002,0.000,0.999,-0.01,0.02,0.00,0.02,-0.09,1000,1000,1000,1000,1000,1000,0,1500,1500,989,1500,991,0.00,0.00,0.00,0.00,0.00,0.00,0.00,0.00,0.00,0.00,0.00,0.00
11096447,0.002,0.000,0.999,-0.01,0.01,-0.00,0.01,-0.09,1000,1000,1000,1000,1000,1000,0,1500,1500,989,1500,995,0.00,0.00,0.00,0.00,0.00,0.00,0.00,0.00,0.00,0.00,0.00,0.00
11100447,0.002,0.000,1.000,0.01,0.01,-0.00,0.02,-0.08,1000,1000,1000,1000,1000,1000,0,1500,1500,989,1500,993,0.00,0.00,0.00,0.00,0.00,0.00,0.00,0.00,0.00,0.00,0.00,0.00
11104447,0.001,0.000,1.000,0.00,0.01,-0.01,0.03,-0.06,1000,1000,1000,1000,1000,1000,0,1500,1500,989,1500,992,0.00,0.00,0.00,0.00,0.00,0.00,0.00,0.00,0.00,0.00,0.00,0.00
11108447,0.001,0.001,1.001,0.00,0.01,-0.01,0.03,-0.06,1000,1000,1000,1000,1000,1000,0,1500,1500,989,1500,992,0.00,0.00,0.00,0.00,0.00,0.00,0.00,0.00,0.00,0.00,0.00,0.00
11112447,0.001,0.001,1.001,0.01,0.01,-0.01,0.04,-0.03,1000,1000,1000,1000,1000,1000,0,1500,1500,989,1500,995,0.00,0.00,0.00,0.00,0.00,0.00,0.00,0.00,0.00,0.00,0.00,0.00
11116447,-0.000,0.001,1.000,0.01,0.01,0.00,0.04,-0.00,1000,1000,1000,1000,1000,1000,0,1500,1500,989,1500,993,0.00,0.00,0.00,0.00,0.00,0.00,0.00,0.00,0.00,0.00,0.00,0.00
11120447,-0.000,0.000,1.000,0.01,0.01,0.01,0.03,0.02,1000,1000,1000,1000,1000,1000,0,1500,1500,989,1500,991,0.00,0.00,0.00,0.00,0.00,0.00,0.00,0.00,0.00,0.00,0.00,0.00
11124447,-0.001,0.000,1.000,0.02,0.01,0.01,0.02,0.04,1000,1000,1000,1000,1000,1000,0,1500,1500,989,1500,993,0.00,0.00,0.00,0.00,0.00,0.00,0.00,0.00,0.00,0.00,0.00,0.00
11128447,-0.001,0.000,1.000,0.01,0.01,0.00,0.02,0.04,1000,1000,1000,1000,1000,1000,0,1500,1500,989,1500,993,0.00,0.00,0.00,0.00,0.00,0.00,0.00,0.00,0.00,0.00,0.00,0.00
11132447,-0.000,0.000,1.000,0.01,0.02,-0.00,0.01,0.01,1000,1000,1000,1000,1000,1000,0,1500,1500,989,1500,994,0.00,0.00,0.00,0.00,0.00,0.00,0.00,0.00,0.00,0.00,0.00,0.00
11136447,0.000,-0.000,1.000,0.00,0.01,-0.00,-0.01,-0.01,1000,1000,1000,1000,1000,1000,0,1500,1500,989,1500,992,0.00,0.00,0.00,0.00,0.00,0.00,0.00,0.00,0.00,0.00,0.00,0.00
11140447,0.000,-0.000,1.000,-0.00,0.01,-0.01,-0.01,-0.02,1000,1000,1000,1000,1000,1000,0,1500,1500,989,1500,993,0.00,0.00,0.00,0.00,0.00,0.00,0.00,0.00,0.00,0.00,0.00,0.00
11144447,0.000,0.001,1.000,-0.01,-0.00,-0.01,0.04,-0.01,1000,1000,1000,1000,1000,1000,0,1500,1500,989,1500,992,0.00,0.00,0.00,0.00,0.00,0.00,0.00,0.00,0.00,0.00,0.00,0.00
11148447,-0.000,0.001,0.999,-0.01,-0.00,-0.01,0.05,0.00,1000,1000,1000,1000,1000,1000,0,1500,1500,989,1500,994,0.00,0.00,0.00,0.00,0.00,0.00,0.00,0.00,0.00,0.00,0.00,0.00
11152447,0.000,0.001,0.999,-0.00,-0.00,-0.02,0.06,-0.00,1000,1000,1000,1000,1000,1000,0,1500,1500,989,1500,992,0.00,0.00,0.00,0.00,0.00,0.00,0.00,0.00,0.00,0.00,0.00,0.00
11156447,0.000,0.001,0.999,-0.01,-0.01,-0.01,0.08,-0.03,1000,1000,1000,1000,1000,1000,0,1500,1500,989,1500,992,0.00,0.00,0.00,0.00,0.00,0.00,0.00,0.00,0.00,0.00,0.00,0.00
11160447,0.001,0.001,0.999,0.00,-0.02,-0.01,0.07,-0.06,1000,1000,1000,1000,1000,1000,0,1500,1500,989,1500,995,0.00,0.00,0.00,0.00,0.00,0.00,0.00,0.00,0.00,0.00,0.00,0.00
11164447,0.002,0.001,0.999,-0.00,-0.02,-0.02,0.04,-0.09,1000,1000,1000,1000,1000,1000,0,1500,1500,989,1500,993,0.00,0.00,0.00,0.00,0.00,0.00,0.00,0.00,0.00,0.00,0.00,0.00
11168447,0.001,0.000,0.999,0.00,-0.02,-0.01,-0.00,-0.08,1000,1000,1000,1000,1000,1000,0,1500,1500,989,1500,993,0.00,0.00,0.00,0.00,0.00,0.00,0.00,0.00,0.00,0.00,0.00,0.00
11172447,0.002,0.000,0.999,0.01,-0.01,-0.01,0.01,-0.10,1000,1000,1000,1000,1000,1000,0,1500,1500,989,1500,992,0.00,0.00,0.00,0.00,0.00,0.00,0.00,0.00,0.00,0.00,0.00,0.00
11176447,0.002,0.000,0.999,0.01,-0.01,-0.01,0.02,-0.10,1000,1000,1000,1000,1000,1000,0,1500,1500,989,1500,994,0.00,0.00,0.00,0.00,0.00,0.00,0.00,0.00,0.00,0.00,0.00,0.00
11180447,0.001,0.000,1.000,0.01,-0.02,-0.01,0.02,-0.07,1000,1000,1000,1000,1000,1000,0,1500,1500,989,1500,992,0.00,0.00,0.00,0.00,0.00,0.00,0.00,0.00,0.00,0.00,0.00,0.00
11184447,0.000,0.000,1.000,0.02,-0.02,-0.02,0.02,-0.03,1000,1000,1000,1000,1000,1000,0,1500,1500,989,1500,993,0.00,0.00,0.00,0.00,0.00,0.00,0.00,0.00,0.00,0.00,0.00,0.00
11188447,0.000,0.000,1.000,0.02,-0.02,-0.02,0.02,-0.00,1000,1000,1000,1000,1000,1000,0,1500,1500,989,1500,994,0.00,0.00,0.00,0.00,0.00,0.00,0.00,0.00,0.00,0.00,0.00,0.00
11192447,-0.000,0.001,0.999,0.02,-0.02,-0.01,0.03,0.01,1000,1000,1000,1000,1000,1000,0,1500,1500,989,1500,4994,0.00,0.00,0.00,0.00,0.00,0.00,0.00,0.00,0.00,0.00,0.00,0.00
11196447,0.000,0.001,0.999,0.02,-0.01,-0.00,0.04,-0.02,1000,1000,1000,1000,1000,1000,0,1500,1500,989,1500,994,0.00,0.00,0.00,0.00,0.00,0.00,0.00,0.00,0.00,0.00,0.00,0.00
11200447,0.000,0.001,1.000,0.02,-0.01,-0.01,0.04,-0.02,1000,1000,1000,1000,1000,1000,0,1500,1500,989,1500,992,0.00,0.00,0.00,0.00,0.00,0.00,0.00,0.00,0.00,0.00,0.00,0.00
11204447,0.000,0.001,1.000,0.01,-0.01,-0.02,0.03,-0.02,1000,1000,1000,1000,1000,1000,0,1500,1500,989,1500,993,0.00,0.00,0.00,0.00,0.00,0.00,0.00,0.00,0.00,0.00,0.00,0.00
11208447,-0.000,0.000,1.000,0.00,0.00,-0.02,0.00,0.01,1000,1000,1000,1000,1000,1000,0,1500,1500,989,1500,993,0.00,0.00,0.00,0.00,0.00,0.00,0.00,0.00,0.00,0.00,0.00,0.00
11212447,-0.001,0.000,0.999,-0.00,-0.01,-0.02,0.01,0.04,1000,1000,1000,1000,1000,1000,0,1500,1500,989,1500,994,0.00,0.00,0.00,0.00,0.00,0.00,0.00,0.00,0.00,0.00,0.00,0.00
11216447,-0.001,0.000,0.999,-0.00,-0.01,-0.02,0.01,0.09,1000,1000,1000,1000,1000,1000,0,1500,1500,989,1500,992,0.00,0.00,0.00,0.00,0.00,0.00,0.00,0.00,0.00,0.00,0.00,0.00
11220447,-0.002,-0.000,1.000,-0.00,-0.01,-0.02,-0.01,0.10,1000,1000,1000,1000,1000,1000,0,1500,1500,989,1500,992,0.00,0.00,0.00,0.00,0.00,0.00,0.00,0.00,0.00,0.00,0.00,0.00
11224447,-0.002,-0.000,1.001,-0.01,-0.01,-0.02,-0.02,0.11,1000,1000,1000,1000,1000,1000,0,1500,1500,989,1500,994,0.00,0.00,0.00,0.00,0.00,0.00,0.00,0.00,0.00,0.00,0.00,0.00
11228447,-0.002,-0.001,1.001,-0.01,-0.01,-0.01,-0.04,0.10,1000,1000,1000,1000,1000,1000,0,1500,1500,989,1500,992,0.00,0.00,0.00,0.00,0.00,0.00,0.00,0.00,0.00,0.00,0.00,0.00
11232447,-0.002,-0.001,1.001,-0.00,-0.02,-0.01,-0.03,0.11,1000,1000,1000,1000,1000,1000,0,1500,1500,989,1500,993,0.00,0.00,0.00,0.00,0.00,0.00,0.00,0.00,0.00,0.00,0.00,0.00
11236447,-0.001,-0.001,1.000,-0.01,-0.02,-0.01,-0.03,0.08,1000,1000,1000,1000,1000,1000,0,1500,1500,989,1500,4993,0.00,0.00,0.00,0.00,0.00,0.00,0.00,0.00,0.00,0.00,0.00,0.00
11240447,-0.001,-0.000,0.999,-0.01,-0.01,-0.01,-0.01,0.04,1000,1000,1000,1000,1000,1000,0,1500,1500,989,1500,992,0.00,0.00,0.00,0.00,0.00,0.00,0.00,0.00,0.00,0.00,0.00,0.00
11244447,0.000,0.000,0.999,-0.01,-0.01,-0.00,0.01,-0.00,1000,1000,1000,1000,1000,1000,0,1500,1500,989,1500,994,0.00,0.00,0.00,0.00,0.00,0.00,0.00,0.00,0.00,0.00,0.00,0.00
11248447,0.001,0.000,0.999,-0.00,-0.01,-0.01,0.01,-0.03,1000,1000,1000,1000,1000,1000,0,1500,1500,989,1500,993,0.00,0.00,0.00,0.00,0.00,0.00,0.00,0.00,0.00,0.00,0.00,0.00
11252447,0.001,0.000,0.998,0.00,-0.01,-0.00,-0.01,-0.03,1000,1000,1000,1000,1000,1000,0,1500,1500,989,1500,990,0.00,0.00,0.00,0.00,0.00,0.00,0.00,0.00,0.00,0.00,0.00,0.00
11256447,0.000,-0.000,0.998,0.00,-0.01,0.00,-0.00,-0.02,1000,1000,1000,1000,1000,1000,0,1500,1500,989,1500,994,0.00,0.00,0.00,0.00,0.00,0.00,0.00,0.00,0.00,0.00,0.00,0.00
11260447,-0.000,-0.000,0.998,-0.01,-0.02,-0.00,0.00,0.00,1000,1000,1000,1000,1000,1000,0,1500,1500,989,1500,993,0.00,0.00,0.00,0.00,0.00,0.00,0.00,0.00,0.00,0.00,0.00,0.00
11264447,0.000,0.000,0.998,-0.00,-0.02,0.00,0.01,-0.02,1000,1000,1000,1000,1000,1000,0,1500,1500,989,1500,994,0.00,0.00,0.00,0.00,0.00,0.00,0.00,0.00,0.00,0.00,0.00,0.00
11268447,0.001,0.000,0.998,0.01,-0.01,-0.00,0.01,-0.05,1000,1000,1000,1000,1000,1000,0,1500,1500,989,1500,993,0.00,0.00,0.00,0.00,0.00,0.00,0.00,0.00,0.00,0.00,0.00,0.00
11272447,0.001,0.000,0.999,0.01,-0.01,-0.00,0.03,-0.07,1000,1000,1000,1000,1000,1000,0,1500,1500,989,1500,994,0.00,0.00,0.00,0.00,0.00,0.00,0.00,0.00,0.00,0.00,0.00,0.00
11276447,0.001,0.000,1.000,0.01,-0.01,-0.01,0.03,-0.07,1000,1000,1000,1000,1000,1000,0,1500,1500,989,1500,995,0.00,0.00,0.00,0.00,0.00,0.00,0.00,0.00,0.00,0.00,0.00,0.00
11280447,0.001,0.001,1.000,0.01,-0.00,-0.01,0.05,-0.08,1000,1000,1000,1000,1000,1000,0,1500,1500,989,1500,994,0.00,0.00,0.00,0.00,0.00,0.00,0.00,0.00,0.00,0.00,0.00,0.00
11284447,0.001,0.001,1.000,0.01,-0.01,-0.01,0.07,-0.09,1000,1000,1000,1000,1000,1000,0,1500,1500,989,1500,991,0.00,0.00,0.00,0.00,0.00,0.00,0.00,0.00,0.00,0.00,0.00,0.00
11288447,0.002,0.001,1.001,0.00,0.00,-0.01,0.09,-0.09,1000,1000,1000,1000,1000,1000,0,1500,1500,989,1500,995,0.00,0.00,0.00,0.00,0.00,0.00,0.00,0.00,0.00,0.00,0.00,0.00
11292447,0.002,0.002,1.002,-0.00,0.01,-0.01,0.09,-0.12,1000,1000,1000,1000,1000,1000,0,1500,1500,989,1500,994,0.00,0.00,0.00,0.00,0.00,0.00,0.00,0.00,0.00,0.00,0.00,0.00
11296447,0.002,0.002,1.001,0.00,0.00,-0.01,0.09,-0.10,1000,1000,1000,1000,1000,1000,0,1500,1500,989,1500,993,0.00,0.00,0.00,0.00,0.00,0.00,0.00,0.00,0.00,0.00,0.00,0.00
11300447,0.001,0.002,1.001,0.00,-0.01,-0.01,0.09,-0.07,1000,1000,1000,1000,1000,1000,0,1500,1500,989,1500,992,0.00,0.00,0.00,0.00,0.00,0.00,0.00,0.00,0.00,0.00,0.00,0.00
11304447,0.001,0.001,1.000,-0.00,0.00,-0.00,0.08,-0.03,1000,1000,1000,1000,1000,1000,0,1500,1500,989,1500,991,0.00,0.00,0.00,0.00,0.00,0.00,0.00,0.00,0.00,0.00,0.00,0.00
11308447,0.000,0.001,1.001,-0.00,0.01,-0.01,0.07,-0.00,1000,1000,1000,1000,1000,1000,0,1500,1500,989,1500,994,0.00,0.00,0.00,0.00,0.00,0.00,0.00,0.00,0.00,0.00,0.00,0.00
11312447,-0.001,0.001,1.001,-0.00,0.01,-0.00,0.05,0.03,1000,1000,1000,1000,1000,1000,0,1500,1500,989,1500,993,0.00,0.00,0.00,0.00,0.00,0.00,0.00,0.00,0.00,0.00,0.00,0.00
11316447,-0.001,0.001,1.001,0.00,0.01,-0.00,0.05,0.04,1000,1000,1000,1000,1000,1000,0,1500,1500,989,1500,990,0.00,0.00,0.00,0.00,0.00,0.00,0.00,0.00,0.00,0.00,0.00,0.00
11320447,-0.001,0.002,1.002,0.00,0.02,-0.01,0.09,0.06,1000,1000,1000,1000,1000,1000,0,1500,1500,989,1500,4990,0.00,0.00,0.00,0.00,0.00,0.00,0.00,0.00,0.00,0.00,0.00,0.00
11324447,-0.001,0.002,1.002,0.01,0.01,-0.00,0.14,0.05,1000,1000,1000,1000,1000,1000,0,1500,1500,989,1500,8990,0.00,0.00,0.00,0.00,0.00,0.00,0.00,0.00,0.00,0.00,0.00,0.00
11328447,-0.001,0.002,1.001,0.02,0.02,0.00,0.13,0.04,1000,1000,1000,1000,1000,1000,0,1500,1500,989,1500,992,0.00,0.00,0.00,0.00,0.00,0.00,0.00,0.00,0.00,0.00,0.00,0.00
11332447,-0.001,0.002,1.000,0.01,0.02,0.00,0.13,0.04,1000,1000,1000,1000,1000,1000,0,1500,1500,989,1500,994,0.00,0.00,0.00,0.00,0.00,0.00,0.00,0.00,0.00,0.00,0.00,0.00
11336447,-0.001,0.002,0.998,0.01,0.01,0.01,0.12,0.07,1000,1000,1000,1000,1000,1000,0,1500,1500,989,1500,994,0.00,0.00,0.00,0.00,0.00,0.00,0.00,0.00,0.00,0.00,0.00,0.00
11340447,-0.002,0.002,0.998,0.02,-0.00,0.00,0.12,0.10,1000,1000,1000,1000,1000,1000,0,1500,1500,989,1500,991,0.00,0.00,0.00,0.00,0.00,0.00,0.00,0.00,0.00,0.00,0.00,0.00
11344447,-0.002,0.002,0.999,0.02,-0.01,-0.00,0.12,0.10,1000,1000,1000,1000,1000,1000,0,1500,1500,989,1500,995,0.00,0.00,0.00,0.00,0.00,0.00,0.00,0.00,0.00,0.00,0.00,0.00
11348447,-0.002,0.002,1.000,0.02,-0.01,-0.00,0.11,0.12,1000,1000,1000,1000,1000,1000,0,1500,1500,989,1500,4995,0.00,0.00,0.00,0.00,0.00,0.00,0.00,0.00,0.00,0.00,0.00,0.00
11352447,-0.002,0.002,1.001,0.01,-0.01,-0.00,0.12,0.10,1000,1000,1000,1000,1000,1000,0,1500,1500,989,1500,993,0.00,0.00,0.00,0.00,0.00,0.00,0.00,0.00,0.00,0.00,0.00,0.00
11356447,-0.001,0.002,1.002,0.01,-0.01,0.00,0.12,0.08,1000,1000,1000,1000,1000,1000,0,1500,1500,989,1500,994,0.00,0.00,0.00,0.00,0.00,0.00,0.00,0.00,0.00,0.00,0.00,0.00
11360447,-0.001,0.002,1.002,-0.01,-0.01,0.00,0.13,0.07,1000,1000,1000,1000,1000,1000,0,1500,1500,989,1500,993,0.00,0.00,0.00,0.00,0.00,0.00,0.00,0.00,0.00,0.00,0.00,0.00
11364447,-0.001,0.002,1.003,-0.01,-0.02,-0.01,0.14,0.07,1000,1000,1000,1000,1000,1000,0,1500,1500,989,1500,993,0.00,0.00,0.00,0.00,0.00,0.00,0.00,0.00,0.00,0.00,0.00,0.00
11368447,-0.002,0.002,1.002,-0.02,-0.02,-0.00,0.13,0.09,1000,1000,1000,1000,1000,1000,0,1500,1500,989,1500,994,0.00,0.00,0.00,0.00,0.00,0.00,0.00,0.00,0.00,0.00,0.00,0.00
11372447,-0.002,0.002,1.002,-0.02,-0.03,-0.01,0.12,0.09,1000,1000,1000,1000,1000,1000,0,1500,1500,989,1500,991,0.00,0.00,0.00,0.00,0.00,0.00,0.00,0.00,0.00,0.00,0.00,0.00
11376447,-0.002,0.002,1.002,-0.04,-0.04,-0.00,0.13,0.09,1000,1000,1000,1000,1000,1000,0,1500,1500,989,1500,991,0.00,0.00,0.00,0.00,0.00,0.00,0.00,0.00,0.00,0.00,0.00,0.00
11380447,-0.002,0.002,1.001,-0.05,-0.05,0.00,0.15,0.11,1000,1000,1000,1000,1000,1000,0,1500,1500,989,1500,994,0.00,0.00,0.00,0.00,0.00,0.00,0.00,0.00,0.00,0.00,0.00,0.00
11384447,-0.002,0.003,1.000,-0.07,-0.05,-0.01,0.16,0.11,1000,1000,1000,1000,1000,1000,0,1500,1500,989,1500,994,0.00,0.00,0.00,0.00,0.00,0.00,0.00,0.00,0.00,0.00,0.00,0.00
11388447,-0.001,0.003,1.000,-0.08,-0.06,-0.01,0.17,0.07,1000,1000,1000,1000,1000,1000,0,1500,1500,989,1500,993,0.00,0.00,0.00,0.00,0.00,0.00,0.00,0.00,0.00,0.00,0.00,0.00
11392447,-0.000,0.003,0.998,-0.09,-0.06,-0.00,0.16,0.03,1000,1000,1000,1000,1000,1000,0,1500,1500,989,1500,991,0.00,0.00,0.00,0.00,0.00,0.00,0.00,0.00,0.00,0.00,0.00,0.00
11396447,0.001,0.002,0.997,-0.09,-0.07,-0.00,0.13,-0.01,1000,1000,1000,1000,1000,1000,0,1500,1500,989,1500,994,0.00,0.00,0.00,0.00,0.00,0.00,0.00,0.00,0.00,0.00,0.00,0.00
11400447,0.002,0.000,0.996,-0.10,-0.08,0.00,0.10,-0.04,1000,1000,1000,1000,1000,1000,0,1500,1500,989,1500,992,0.00,0.00,0.00,0.00,0.00,0.00,0.00,0.00,0.00,0.00,0.00,0.00
11404447,0.003,-0.001,0.995,-0.10,-0.07,0.00,0.07,-0.07,1000,1000,1000,1000,1000,1000,0,1500,1500,989,1500,992,0.00,0.00,0.00,0.00,0.00,0.00,0.00,0.00,0.00,0.00,0.00,0.00
11408447,0.003,-0.002,0.996,-0.09,-0.07,-0.00,0.03,-0.10,1000,1000,1000,1000,1000,1000,0,1500,1500,989,1500,991,0.00,0.00,0.00,0.00,0.00,0.00,0.00,0.00,0.00,0.00,0.00,0.00
11412447,0.003,-0.002,0.998,-0.08,-0.05,-0.00,-0.01,-0.12,1000,1000,1000,1000,1000,1000,0,1500,1500,989,1500,994,0.00,0.00,0.00,0.00,0.00,0.00,0.00,0.00,0.00,0.00,0.00,0.00
11416447,0.004,-0.002,0.999,-0.08,-0.04,-0.00,-0.05,-0.15,1000,1000,1000,1000,1000,1000,0,1500,1500,989,1500,994,0.00,0.00,0.00,0.00,0.00,0.00,0.00,0.00,0.00,0.00,0.00,0.00
11420447,0.004,-0.002,0.999,-0.07,-0.03,-0.01,-0.08,-0.18,1000,1000,1000,1000,1000,1000,0,1500,1500,989,1500,992,0.00,0.00,0.00,0.00,0.00,0.00,0.00,0.00,0.00,0.00,0.00,0.00
11424447,0.004,-0.001,0.999,-0.07,-0.03,-0.01,-0.08,-0.22,1000,1000,1000,1000,1000,1000,0,1500,1500,989,1500,992,0.00,0.00,0.00,0.00,0.00,0.00,0.00,0.00,0.00,0.00,0.00,0.00
11428447,0.003,-0.001,0.999,-0.06,-0.03,-0.01,-0.04,-0.20,1000,1000,1000,1000,1000,1000,0,1500,1500,989,1500,992,0.00,0.00,0.00,0.00,0.00,0.00,0.00,0.00,0.00,0.00,0.00,0.00
11432447,0.003,-0.001,0.998,-0.05,-0.04,-0.01,-0.05,-0.17,1000,1000,1000,1000,1000,1000,0,1500,1500,989,1500,995,0.00,0.00,0.00,0.00,0.00,0.00,0.00,0.00,0.00,0.00,0.00,0.00
11436447,0.002,-0.001,0.998,-0.04,-0.03,-0.01,-0.04,-0.13,1000,1000,1000,1000,1000,1000,0,1500,1500,989,1500,993,0.00,0.00,0.00,0.00,0.00,0.00,0.00,0.00,0.00,0.00,0.00,0.00
11440447,0.002,-0.001,0.997,-0.03,-0.03,-0.01,-0.04,-0.13,1000,1000,1000,1000,1000,1000,0,1500,1500,989,1500,991,0.00,0.00,0.00,0.00,0.00,0.00,0.00,0.00,0.00,0.00,0.00,0.00
11444447,0.002,-0.001,0.997,-0.02,-0.02,-0.02,-0.05,-0.13,1000,1000,1000,1000,1000,1000,0,1500,1500,989,1500,994,0.00,0.00,0.00,0.00,0.00,0.00,0.00,0.00,0.00,0.00,0.00,0.00
11448447,0.002,-0.001,0.997,-0.02,-0.01,-0.02,-0.07,-0.13,1000,1000,1000,1000,1000,1000,0,1500,1500,989,1500,995,0.00,0.00,0.00,0.00,0.00,0.00,0.00,0.00,0.00,0.00,0.00,0.00
11452447,0.002,-0.002,0.998,-0.01,0.00,-0.02,-0.10,-0.14,1000,1000,1000,1000,1000,1000,0,1500,1500,989,1500,993,0.00,0.00,0.00,0.00,0.00,0.00,0.00,0.00,0.00,0.00,0.00,0.00
11456447,0.002,-0.002,0.999,0.01,0.01,-0.02,-0.11,-0.12,1000,1000,1000,1000,1000,1000,0,1500,1500,989,1500,991,0.00,0.00,0.00,0.00,0.00,0.00,0.00,0.00,0.00,0.00,0.00,0.00
11460447,0.002,-0.002,1.000,0.02,0.01,-0.02,-0.12,-0.09,1000,1000,1000,1000,1000,1000,0,1500,1500,989,1500,994,0.00,0.00,0.00,0.00,0.00,0.00,0.00,0.00,0.00,0.00,0.00,0.00
11464447,0.001,-0.002,1.001,0.03,0.01,-0.01,-0.11,-0.05,1000,1000,1000,1000,1000,1000,0,1500,1500,989,1500,995,0.00,0.00,0.00,0.00,0.00,0.00,0.00,0.00,0.00,0.00,0.00,0.00
11468447,-0.000,-0.002,1.000,0.03,0.01,-0.01,-0.10,-0.01,1000,1000,1000,1000,1000,1000,0,1500,1500,989,1500,993,0.00,0.00,0.00,0.00,0.00,0.00,0.00,0.00,0.00,0.00,0.00,0.00
11472447,-0.001,-0.001,1.000,0.04,0.01,-0.01,-0.08,0.04,1000,1000,1000,1000,1000,1000,0,1500,1500,989,1500,992,0.00,0.00,0.00,0.00,0.00,0.00,0.00,0.00,0.00,0.00,0.00,0.00
11476447,-0.001,-0.001,1.001,0.03,0.02,-0.01,-0.05,0.06,1000,1000,1000,1000,1000,1000,0,1500,1500,989,1500,994,0.00,0.00,0.00,0.00,0.00,0.00,0.00,0.00,0.00,0.00,0.00,0.00
11480447,-0.001,-0.001,1.002,0.03,0.02,-0.01,-0.04,0.06,1000,1000,1000,1000,1000,1000,0,1500,1500,989,1500,994,0.00,0.00,0.00,0.00,0.00,0.00,0.00,0.00,0.00,0.00,0.00,0.00
11484447,-0.001,-0.000,1.002,0.03,0.02,-0.01,-0.01,0.03,1000,1000,1000,1000,1000,1000,0,1500,1500,989,1500,991,0.00,0.00,0.00,0.00,0.00,0.00,0.00,0.00,0.00,0.00,0.00,0.00
11488447,-0.000,0.000,1.001,0.03,0.02,-0.02,0.01,0.02,1000,1000,1000,1000,1000,1000,0,1500,1500,989,1500,993,0.00,0.00,0.00,0.00,0.00,0.00,0.00,0.00,0.00,0.00,0.00,0.00
11492447,0.000,0.000,1.001,0.01,0.03,-0.02,0.01,-0.01,1000,1000,1000,1000,1000,1000,0,1500,1500,989,1500,993,0.00,0.00,0.00,0.00,0.00,0.00,0.00,0.00,0.00,0.00,0.00,0.00
11496447,0.000,-0.000,1.001,0.01,0.03,-0.02,-0.01,-0.02,1000,1000,1000,1000,1000,1000,0,1500,1500,989,1500,992,0.00,0.00,0.00,0.00,0.00,0.00,0.00,0.00,0.00,0.00,0.00,0.00
11500447,0.001,-0.001,1.001,0.01,0.03,-0.02,-0.04,-0.04,1000,1000,1000,1000,1000,1000,0,1500,1500,989,1500,992,0.00,0.00,0.00,0.00,0.00,0.00,0.00,0.00,0.00,0.00,0.00,0.00
11504447,0.001,-0.001,1.000,0.01,0.04,-0.02,-0.04,-0.04,1000,1000,1000,1000,1000,1000,0,1500,1500,989,1500,993,0.00,0.00,0.00,0.00,0.00,0.00,0.00,0.00,0.00,0.00,0.00,0.00
11508447,0.000,-0.001,1.000,0.02,0.03,-0.01,-0.03,-0.02,1000,1000,1000,1000,1000,1000,0,1500,1500,989,1500,993,0.00,0.00,0.00,0.00,0.00,0.00,0.00,0.00,0.00,0.00,0.00,0.00
11512447,0.000,0.000,1.001,0.02,0.03,-0.02,0.01,-0.03,1000,1000,1000,1000,1000,1000,0,1500,1500,989,1500,994,0.00,0.00,0.00,0.00,0.00,0.00,0.00,0.00,0.00,0.00,0.00,0.00
11516447,0.000,0.000,1.001,0.02,0.03,-0.02,0.03,-0.01,1000,1000,1000,1000,1000,1000,0,1500,1500,989,1500,992,0.00,0.00,0.00,0.00,0.00,0.00,0.00,0.00,0.00,0.00,0.00,0.00
11520447,-0.000,0.000,1.001,0.01,0.03,-0.01,0.02,0.01,1000,1000,1000,1000,1000,1000,0,1500,1500,989,1500,993,0.00,0.00,0.00,0.00,0.00,0.00,0.00,0.00,0.00,0.00,0.00,0.00
11524447,-0.000,0.000,1.001,0.01,0.01,-0.01,0.02,0.02,1000,1000,1000,1000,1000,1000,0,1500,1500,989,1500,994,0.00,0.00,0.00,0.00,0.00,0.00,0.00,0.00,0.00,0.00,0.00,0.00
11528447,-0.001,0.001,1.000,0.01,0.00,-0.01,0.03,0.05,1000,1000,1000,1000,1000,1000,0,1500,1500,989,1500,993,0.00,0.00,0.00,0.00,0.00,0.00,0.00,0.00,0.00,0.00,0.00,0.00
11532447,-0.001,0.000,1.000,0.01,-0.00,-0.01,0.01,0.07,1000,1000,1000,1000,1000,1000,0,1500,1500,989,1500,990,0.00,0.00,0.00,0.00,0.00,0.00,0.00,0.00,0.00,0.00,0.00,0.00
11536447,-0.002,0.000,1.000,0.01,-0.00,-0.01,-0.00,0.09,1000,1000,1000,1000,1000,1000,0,1500,1500,989,1500,994,0.00,0.00,0.00,0.00,0.00,0.00,0.00,0.00,0.00,0.00,0.00,0.00
11540447,-0.002,-0.000,1.001,0.01,-0.00,-0.01,-0.01,0.10,1000,1000,1000,1000,1000,1000,0,1500,1500,989,1500,993,0.00,0.00,0.00,0.00,0.00,0.00,0.00,0.00,0.00,0.00,0.00,0.00
11544447,-0.001,0.000,1.001,0.02,-0.01,-0.01,0.02,0.08,1000,1000,1000,1000,1000,1000,0,1500,1500,989,1500,992,0.00,0.00,0.00,0.00,0.00,0.00,0.00,0.00,0.00,0.00,0.00,0.00
11548447,-0.001,0.001,1.001,0.02,-0.01,-0.01,0.04,0.06,1000,1000,1000,1000,1000,1000,0,1500,1500,989,1500,993,0.00,0.00,0.00,0.00,0.00,0.00,0.00,0.00,0.00,0.00,0.00,0.00
11552447,-0.001,0.001,1.000,0.01,-0.01,-0.01,0.06,0.02,1000,1000,1000,1000,1000,1000,0,1500,1500,989,1500,993,0.00,0.00,0.00,0.00,0.00,0.00,0.00,0.00,0.00,0.00,0.00,0.00
11556447,0.000,0.001,0.999,0.01,-0.01,-0.01,0.07,-0.01,1000,1000,1000,1000,1000,1000,0,1500,1500,989,1500,993,0.00,0.00,0.00,0.00,0.00,0.00,0.00,0.00,0.00,0.00,0.00,0.00
11560447,0.000,0.001,0.998,-0.00,-0.00,-0.00,0.07,-0.02,1000,1000,1000,1000,1000,1000,0,1500,1500,989,1500,994,0.00,0.00,0.00,0.00,0.00,0.00,0.00,0.00,0.00,0.00,0.00,0.00
11564447,0.001,0.001,0.997,-0.00,-0.00,-0.00,0.05,-0.04,1000,1000,1000,1000,1000,1000,0,1500,1500,989,1500,992,0.00,0.00,0.00,0.00,0.00,0.00,0.00,0.00,0.00,0.00,0.00,0.00
11568447,0.001,0.001,0.997,0.00,-0.00,-0.00,0.04,-0.06,1000,1000,1000,1000,1000,1000,0,1500,1500,989,1500,994,0.00,0.00,0.00,0.00,0.00,0.00,0.00,0.00,0.00,0.00,0.00,0.00
11572447,0.001,0.000,0.997,-0.00,0.00,-0.00,0.02,-0.08,1000,1000,1000,1000,1000,1000,0,1500,1500,989,1500,993,0.00,0.00,0.00,0.00,0.00,0.00,0.00,0.00,0.00,0.00,0.00,0.00
11576447,0.002,-0.000,0.998,-0.00,0.00,-0.01,-0.01,-0.11,1000,1000,1000,1000,1000,1000,0,1500,1500,989,1500,993,0.00,0.00,0.00,0.00,0.00,0.00,0.00,0.00,0.00,0.00,0.00,0.00
11580447,0.002,-0.000,0.999,-0.00,-0.00,-0.00,-0.01,-0.12,1000,1000,1000,1000,1000,1000,0,1500,1500,989,1500,991,0.00,0.00,0.00,0.00,0.00,0.00,0.00,0.00,0.00,0.00,0.00,0.00
11584447,0.002,-0.000,0.998,0.00,-0.00,-0.00,-0.01,-0.14,1000,1000,1000,1000,1000,1000,0,1500,1500,989,1500,994,0.00,0.00,0.00,0.00,0.00,0.00,0.00,0.00,0.00,0.00,0.00,0.00
11588447,0.003,0.000,0.998,0.01,-0.00,-0.00,0.00,-0.14,1000,1000,1000,1000,1000,1000,0,1500,1500,989,1500,994,0.00,0.00,0.00,0.00,0.00,0.00,0.00,0.00,0.00,0.00,0.00,0.00
11592447,0.002,-0.000,0.998,0.02,0.01,-0.01,0.01,-0.13,1000,1000,1000,1000,1000,1000,0,1500,1500,989,1500,993,0.00,0.00,0.00,0.00,0.00,0.00,0.00,0.00,0.00,0.00,0.00,0.00
11596447,0.002,0.000,0.998,0.01,0.02,-0.01,0.01,-0.09,1000,1000,1000,1000,1000,1000,0,1500,1500,989,1500,993,0.00,0.00,0.00,0.00,0.00,0.00,0.00,0.00,0.00,0.00,0.00,0.00
11600447,0.001,0.000,0.998,0.03,0.03,-0.02,0.02,-0.08,1000,1000,1000,1000,1000,1000,0,1500,1500,989,1500,993,0.00,0.00,0.00,0.00,0.00,0.00,0.00,0.00,0.00,0.00,0.00,0.00
11604447,0.001,0.000,0.998,0.04,0.04,-0.01,0.02,-0.07,1000,1000,1000,1000,1000,1000,0,1500,1500,989,1500,994,0.00,0.00,0.00,0.00,0.00,0.00,0.00,0.00,0.00,0.00,0.00,0.00
11608447,0.001,0.000,0.999,0.04,0.04,-0.01,0.03,-0.08,1000,1000,1000,1000,1000,1000,0,1500,1500,989,1500,1991,0.00,0.00,0.00,0.00,0.00,0.00,0.00,0.00,0.00,0.00,0.00,0.00
11612447,0.002,0.001,1.000,0.04,0.03,-0.02,0.05,-0.08,1000,1000,1000,1000,1000,1000,0,1500,1500,989,1500,990,0.00,0.00,0.00,0.00,0.00,0.00,0.00,0.00,0.00,0.00,0.00,0.00
11616447,0.001,0.001,1.001,0.03,0.03,-0.02,0.08,-0.06,1000,1000,1000,1000,1000,1000,0,1500,1500,989,1500,994,0.00,0.00,0.00,0.00,0.00,0.00,0.00,0.00,0.00,0.00,0.00,0.00
11620447,0.001,0.002,1.001,0.03,0.02,-0.02,0.09,-0.03,1000,1000,1000,1000,1000,1000,0,1500,1500,989,1500,993,0.00,0.00,0.00,0.00,0.00,0.00,0.00,0.00,0.00,0.00,0.00,0.00
11624447,0.000,0.001,1.002,0.02,0.02,-0.02,0.08,-0.01,1000,1000,1000,1000,1000,1000,0,1500,1500,989,1500,993,0.00,0.00,0.00,0.00,0.00,0.00,0.00,0.00,0.00,0.00,0.00,0.00
11628447,-0.001,0.001,1.001,0.02,0.02,-0.01,0.08,0.03,1000,1000,1000,1000,1000,1000,0,1500,1500,989,1500,991,0.00,0.00,0.00,0.00,0.00,0.00,0.00,0.00,0.00,0.00,0.00,0.00
11632447,-0.001,0.001,1.001,0.01,0.01,-0.00,0.09,0.06,1000,1000,1000,1000,1000,1000,0,1500,1500,989,1500,995,0.00,0.00,0.00,0.00,0.00,0.00,0.00,0.00,0.00,0.00,0.00,0.00
11636447,-0.001,0.001,1.002,0.02,0.01,-0.01,0.08,0.07,1000,1000,1000,1000,1000,1000,0,1500,1500,989,1500,994,0.00,0.00,0.00,0.00,0.00,0.00,0.00,0.00,0.00,0.00,0.00,0.00
11640447,-0.001,0.001,1.002,0.02,0.01,-0.01,0.07,0.05,1000,1000,1000,1000,1000,1000,0,1500,1500,989,1500,993,0.00,0.00,0.00,0.00,0.00,0.00,0.00,0.00,0.00,0.00,0.00,0.00
11644447,-0.000,0.001,1.002,0.02,0.00,-0.01,0.07,0.03,1000,1000,1000,1000,1000,1000,0,1500,1500,989,1500,990,0.00,0.00,0.00,0.00,0.00,0.00,0.00,0.00,0.00,0.00,0.00,0.00
11648447,-0.000,0.001,1.002,0.02,0.00,-0.01,0.03,0.01,1000,1000,1000,1000,1000,1000,0,1500,1500,989,1500,994,0.00,0.00,0.00,0.00,0.00,0.00,0.00,0.00,0.00,0.00,0.00,0.00
11652447,-0.000,0.000,1.001,0.02,0.01,-0.02,0.01,0.01,1000,1000,1000,1000,1000,1000,0,1500,1500,989,1500,994,0.00,0.00,0.00,0.00,0.00,0.00,0.00,0.00,0.00,0.00,0.00,0.00
11656447,-0.000,0.000,1.000,0.00,0.01,-0.02,0.02,0.00,1000,1000,1000,1000,1000,1000,0,1500,1500,989,1500,992,0.00,0.00,0.00,0.00,0.00,0.00,0.00,0.00,0.00,0.00,0.00,0.00
11660447,-0.000,0.001,0.999,-0.00,0.01,-0.02,0.04,0.01,1000,1000,1000,1000,1000,1000,0,1500,1500,989,1500,993,0.00,0.00,0.00,0.00,0.00,0.00,0.00,0.00,0.00,0.00,0.00,0.00
11664447,-0.001,0.001,1.000,0.00,0.00,-0.01,0.07,0.03,1000,1000,1000,1000,1000,1000,0,1500,1500,989,1500,994,0.00,0.00,0.00,0.00,0.00,0.00,0.00,0.00,0.00,0.00,0.00,0.00
11668447,-0.001,0.002,0.999,0.00,0.00,-0.02,0.09,0.04,1000,1000,1000,1000,1000,1000,0,1500,1500,989,1500,994,0.00,0.00,0.00,0.00,0.00,0.00,0.00,0.00,0.00,0.00,0.00,0.00
11672447,-0.001,0.001,1.000,-0.00,-0.00,-0.01,0.06,0.06,1000,1000,1000,1000,1000,1000,0,1500,1500,989,1500,993,0.00,0.00,0.00,0.00,0.00,0.00,0.00,0.00,0.00,0.00,0.00,0.00
11676447,-0.001,0.001,1.000,-0.00,0.00,-0.01,0.05,0.07,1000,1000,1000,1000,1000,1000,0,1500,1500,989,1500,992,0.00,0.00,0.00,0.00,0.00,0.00,0.00,0.00,0.00,0.00,0.00,0.00
11680447,-0.002,0.001,1.000,-0.01,-0.00,-0.01,0.07,0.09,1000,1000,1000,1000,1000,1000,0,1500,1500,989,1500,993,0.00,0.00,0.00,0.00,0.00,0.00,0.00,0.00,0.00,0.00,0.00,0.00
11684447,-0.001,0.002,1.000,-0.00,-0.00,-0.01,0.09,0.07,1000,1000,1000,1000,1000,1000,0,1500,1500,989,1500,992,0.00,0.00,0.00,0.00,0.00,0.00,0.00,0.00,0.00,0.00,0.00,0.00
11688447,-0.000,0.001,1.000,-0.00,-0.00,-0.00,0.07,0.02,1000,1000,1000,1000,1000,1000,0,1500,1500,989,1500,994,0.00,0.00,0.00,0.00,0.00,0.00,0.00,0.00,0.00,0.00,0.00,0.00
11692447,0.001,0.001,1.000,-0.00,-0.01,-0.01,0.06,-0.02,1000,1000,1000,1000,1000,1000,0,1500,1500,989,1500,992,0.00,0.00,0.00,0.00,0.00,0.00,0.00,0.00,0.00,0.00,0.00,0.00
11696447,0.001,0.001,1.000,-0.01,-0.00,-0.02,0.05,-0.07,1000,1000,1000,1000,1000,1000,0,1500,1500,989,1500,992,0.00,0.00,0.00,0.00,0.00,0.00,0.00,0.00,0.00,0.00,0.00,0.00
11700447,0.001,0.001,1.001,-0.02,-0.00,-0.01,0.05,-0.07,1000,1000,1000,1000,1000,1000,0,1500,1500,989,1500,993,0.00,0.00,0.00,0.00,0.00,0.00,0.00,0.00,0.00,0.00,0.00,0.00
11704447,0.001,0.001,1.002,-0.02,-0.00,-0.01,0.07,-0.04,1000,1000,1000,1000,1000,1000,0,1500,1500,989,1500,992,0.00,0.00,0.00,0.00,0.00,0.00,0.00,0.00,0.00,0.00,0.00,0.00
11708447,0.000,0.001,1.002,-0.02,0.00,-0.01,0.08,-0.02,1000,1000,1000,1000,1000,1000,0,1500,1500,989,1500,994,0.00,0.00,0.00,0.00,0.00,0.00,0.00,0.00,0.00,0.00,0.00,0.00
11712447,0.000,0.001,1.002,-0.02,0.00,-0.02,0.09,-0.02,1000,1000,1000,1000,1000,1000,0,1500,1500,989,1500,995,0.00,0.00,0.00,0.00,0.00,0.00,0.00,0.00,0.00,0.00,0.00,0.00
11716447,0.000,0.001,1.001,-0.02,0.01,-0.02,0.09,-0.02,1000,1000,1000,1000,1000,1000,0,1500,1500,989,1500,994,0.00,0.00,0.00,0.00,0.00,0.00,0.00,0.00,0.00,0.00,0.00,0.00
11720447,0.000,0.002,1.000,-0.01,0.00,-0.02,0.10,-0.01,1000,1000,1000,1000,1000,1000,0,1500,1500,989,1500,993,0.00,0.00,0.00,0.00,0.00,0.00,0.00,0.00,0.00,0.00,0.00,0.00
11724447,0.000,0.001,0.999,-0.01,-0.01,-0.01,0.09,-0.03,1000,1000,1000,1000,1000,1000,0,1500,1500,989,1500,992,0.00,0.00,0.00,0.00,0.00,0.00,0.00,0.00,0.00,0.00,0.00,0.00
11728447,0.001,0.001,0.999,-0.01,-0.01,-0.01,0.04,-0.04,1000,1000,1000,1000,1000,1000,0,1500,1500,989,1500,992,0.00,0.00,0.00,0.00,0.00,0.00,0.00,0.00,0.00,0.00,0.00,0.00
11732447,0.001,-0.000,0.998,-0.01,-0.00,-0.02,-0.00,-0.05,1000,1000,1000,1000,1000,1000,0,1500,1500,989,1500,995,0.00,0.00,0.00,0.00,0.00,0.00,0.00,0.00,0.00,0.00,0.00,0.00
11736447,0.001,-0.000,0.999,-0.00,-0.01,-0.01,-0.02,-0.04,1000,1000,1000,1000,1000,1000,0,1500,1500,989,1500,994,0.00,0.00,0.00,0.00,0.00,0.00,0.00,0.00,0.00,0.00,0.00,0.00
11740447,0.001,-0.001,0.998,-0.01,-0.01,-0.01,-0.05,-0.03,1000,1000,1000,1000,1000,1000,0,1500,1500,989,1500,992,0.00,0.00,0.00,0.00,0.00,0.00,0.00,0.00,0.00,0.00,0.00,0.00
11744447,0.001,-0.001,0.998,-0.01,-0.00,-0.01,-0.07,-0.05,1000,1000,1000,1000,1000,1000,0,1500,1500,989,1500,992,0.00,0.00,0.00,0.00,0.00,0.00,0.00,0.00,0.00,0.00,0.00,0.00
11748447,0.001,-0.001,0.998,-0.01,-0.00,-0.01,-0.05,-0.06,1000,1000,1000,1000,1000,1000,0,1500,1500,989,1500,994,0.00,0.00,0.00,0.00,0.00,0.00,0.00,0.00,0.00,0.00,0.00,0.00
11752447,0.001,-0.001,0.998,-0.01,0.02,-0.01,-0.07,-0.09,1000,1000,1000,1000,1000,1000,0,1500,1500,989,1500,993,0.00,0.00,0.00,0.00,0.00,0.00,0.00,0.00,0.00,0.00,0.00,0.00
11756447,0.001,-0.001,0.999,-0.01,0.02,-0.01,-0.06,-0.06,1000,1000,1000,1000,1000,1000,0,1500,1500,989,1500,991,0.00,0.00,0.00,0.00,0.00,0.00,0.00,0.00,0.00,0.00,0.00,0.00
11760447,0.001,-0.001,0.999,-0.01,0.01,-0.00,-0.06,-0.05,1000,1000,1000,1000,1000,1000,0,1500,1500,989,1500,994,0.00,0.00,0.00,0.00,0.00,0.00,0.00,0.00,0.00,0.00,0.00,0.00
11764447,0.001,-0.001,0.998,-0.01,0.00,-0.00,-0.07,-0.03,1000,1000,1000,1000,1000,1000,0,1500,1500,989,1500,994,0.00,0.00,0.00,0.00,0.00,0.00,0.00,0.00,0.00,0.00,0.00,0.00
11768447,-0.000,-0.001,0.999,-0.01,0.00,0.00,-0.06,0.01,1000,1000,1000,1000,1000,1000,0,1500,1500,989,1500,4994,0.00,0.00,0.00,0.00,0.00,0.00,0.00,0.00,0.00,0.00,0.00,0.00
11772447,-0.000,-0.001,1.000,-0.01,0.00,0.01,-0.04,0.01,1000,1000,1000,1000,1000,1000,0,1500,1500,989,1500,992,0.00,0.00,0.00,0.00,0.00,0.00,0.00,0.00,0.00,0.00,0.00,0.00
11776447,-0.000,-0.000,1.001,-0.00,-0.00,0.01,0.00,0.02,1000,1000,1000,1000,1000,1000,0,1500,1500,989,1500,992,0.00,0.00,0.00,0.00,0.00,0.00,0.00,0.00,0.00,0.00,0.00,0.00
11780447,-0.000,0.000,1.001,-0.00,-0.00,0.00,0.02,0.02,1000,1000,1000,1000,1000,1000,0,1500,1500,989,1500,992,0.00,0.00,0.00,0.00,0.00,0.00,0.00,0.00,0.00,0.00,0.00,0.00
11784447,0.000,0.000,1.001,-0.01,0.00,0.00,0.02,-0.01,1000,1000,1000,1000,1000,1000,0,1500,1500,989,1500,994,0.00,0.00,0.00,0.00,0.00,0.00,0.00,0.00,0.00,0.00,0.00,0.00
11788447,0.000,-0.000,1.001,-0.02,0.01,0.00,-0.01,-0.02,1000,1000,1000,1000,1000,1000,0,1500,1500,989,1500,993,0.00,0.00,0.00,0.00,0.00,0.00,0.00,0.00,0.00,0.00,0.00,0.00
11792447,0.000,-0.001,1.000,-0.01,0.01,-0.00,-0.03,-0.01,1000,1000,1000,1000,1000,1000,0,1500,1500,989,1500,991,0.00,0.00,0.00,0.00,0.00,0.00,0.00,0.00,0.00,0.00,0.00,0.00
11796447,0.000,-0.000,1.000,-0.02,-0.00,-0.00,-0.01,-0.02,1000,1000,1000,1000,1000,1000,0,1500,1500,989,1500,994,0.00,0.00,0.00,0.00,0.00,0.00,0.00,0.00,0.00,0.00,0.00,0.00
11800447,0.000,-0.000,1.000,-0.02,-0.00,0.00,-0.01,-0.03,1000,1000,1000,1000,1000,1000,0,1500,1500,989,1500,993,0.00,0.00,0.00,0.00,0.00,0.00,0.00,0.00,0.00,0.00,0.00,0.00
11804447,0.001,-0.000,0.999,-0.02,-0.02,-0.00,-0.02,-0.03,1000,1000,1000,1000,1000,1000,0,1500,1500,989,1500,994,0.00,0.00,0.00,0.00,0.00,0.00,0.00,0.00,0.00,0.00,0.00,0.00
11808447,0.000,-0.000,0.998,-0.02,-0.03,-0.01,-0.02,-0.03,1000,1000,1000,1000,1000,1000,0,1500,1500,989,1500,990,0.00,0.00,0.00,0.00,0.00,0.00,0.00,0.00,0.00,0.00,0.00,0.00
11812447,0.001,-0.000,0.997,-0.02,-0.03,-0.02,0.00,-0.03,1000,1000,1000,1000,1000,1000,0,1500,1500,989,1500,994,0.00,0.00,0.00,0.00,0.00,0.00,0.00,0.00,0.00,0.00,0.00,0.00
11816447,0.001,0.000,0.997,-0.02,-0.03,-0.01,0.02,-0.04,1000,1000,1000,1000,1000,1000,0,1500,1500,989,1500,994,0.00,0.00,0.00,0.00,0.00,0.00,0.00,0.00,0.00,0.00,0.00,0.00
11820447,0.001,0.000,0.997,-0.02,-0.03,-0.01,0.02,-0.04,1000,1000,1000,1000,1000,1000,0,1500,1500,989,1500,992,0.00,0.00,0.00,0.00,0.00,0.00,0.00,0.00,0.00,0.00,0.00,0.00
11824447,0.001,0.001,0.998,-0.03,-0.03,-0.01,0.03,-0.06,1000,1000,1000,1000,1000,1000,0,1500,1500,989,1500,992,0.00,0.00,0.00,0.00,0.00,0.00,0.00,0.00,0.00,0.00,0.00,0.00
11828447,0.001,0.000,0.999,-0.04,-0.03,-0.02,0.02,-0.03,1000,1000,1000,1000,1000,1000,0,1500,1500,989,1500,992,0.00,0.00,0.00,0.00,0.00,0.00,0.00,0.00,0.00,0.00,0.00,0.00
11832447,0.000,0.000,0.999,-0.05,-0.03,-0.02,0.02,-0.01,1000,1000,1000,1000,1000,1000,0,1500,1500,989,1500,995,0.00,0.00,0.00,0.00,0.00,0.00,0.00,0.00,0.00,0.00,0.00,0.00
11836447,0.000,0.000,0.999,-0.05,-0.03,-0.01,0.02,-0.01,1000,1000,1000,1000,1000,1000,0,1500,1500,989,1500,993,0.00,0.00,0.00,0.00,0.00,0.00,0.00,0.00,0.00,0.00,0.00,0.00
11840447,-0.000,0.000,1.000,-0.05,-0.03,-0.01,0.01,0.01,1000,1000,1000,1000,1000,1000,0,1500,1500,989,1500,992,0.00,0.00,0.00,0.00,0.00,0.00,0.00,0.00,0.00,0.00,0.00,0.00
11844447,-0.001,0.000,1.000,-0.03,-0.03,-0.01,0.02,0.05,1000,1000,1000,1000,1000,1000,0,1500,1500,989,1500,992,0.00,0.00,0.00,0.00,0.00,0.00,0.00,0.00,0.00,0.00,0.00,0.00
11848447,-0.002,0.001,1.000,-0.04,-0.03,-0.02,0.04,0.09,1000,1000,1000,1000,1000,1000,0,1500,1500,989,1500,995,0.00,0.00,0.00,0.00,0.00,0.00,0.00,0.00,0.00,0.00,0.00,0.00
11852447,-0.002,0.001,1.000,-0.04,-0.02,-0.01,0.07,0.10,1000,1000,1000,1000,1000,1000,0,1500,1500,989,1500,993,0.00,0.00,0.00,0.00,0.00,0.00,0.00,0.00,0.00,0.00,0.00,0.00
11856447,-0.002,0.002,1.001,-0.04,-0.02,-0.01,0.11,0.10,1000,1000,1000,1000,1000,1000,0,1500,1500,989,1500,991,0.00,0.00,0.00,0.00,0.00,0.00,0.00,0.00,0.00,0.00,0.00,0.00
11860447,-0.002,0.002,1.001,-0.05,-0.02,-0.01,0.13,0.10,1000,1000,1000,1000,1000,1000,0,1500,1500,989,1500,994,0.00,0.00,0.00,0.00,0.00,0.00,0.00,0.00,0.00,0.00,0.00,0.00
11864447,-0.002,0.002,1.001,-0.05,-0.04,-0.02,0.13,0.10,1000,1000,1000,1000,1000,1000,0,1500,1500,989,1500,994,0.00,0.00,0.00,0.00,0.00,0.00,0.00,0.00,0.00,0.00,0.00,0.00
11868447,-0.002,0.002,1.000,-0.06,-0.04,-0.02,0.13,0.08,1000,1000,1000,1000,1000,1000,0,1500,1500,989,1500,993,0.00,0.00,0.00,0.00,0.00,0.00,0.00,0.00,0.00,0.00,0.00,0.00
11872447,-0.001,0.002,0.999,-0.06,-0.05,-0.01,0.11,0.06,1000,1000,1000,1000,1000,1000,0,1500,1500,989,1500,992,0.00,0.00,0.00,0.00,0.00,0.00,0.00,0.00,0.00,0.00,0.00,0.00
11876447,-0.001,0.001,0.998,-0.07,-0.05,-0.01,0.08,0.05,1000,1000,1000,1000,1000,1000,0,1500,1500,989,1500,993,0.00,0.00,0.00,0.00,0.00,0.00,0.00,0.00,0.00,0.00,0.00,0.00
11880447,-0.001,0.001,0.998,-0.07,-0.05,-0.01,0.04,0.03,1000,1000,1000,1000,1000,1000,0,1500,1500,989,1500,993,0.00,0.00,0.00,0.00,0.00,0.00,0.00,0.00,0.00,0.00,0.00,0.00
11884447,0.000,0.000,0.997,-0.06,-0.05,-0.02,0.01,-0.01,1000,1000,1000,1000,1000,1000,0,1500,1500,989,1500,994,0.00,0.00,0.00,0.00,0.00,0.00,0.00,0.00,0.00,0.00,0.00,0.00
11888447,0.001,-0.000,0.997,-0.06,-0.06,-0.01,-0.02,-0.04,1000,1000,1000,1000,1000,1000,0,1500,1500,989,1500,993,0.00,0.00,0.00,0.00,0.00,0.00,0.00,0.00,0.00,0.00,0.00,0.00
11892447,0.001,-0.001,0.998,-0.04,-0.05,-0.01,-0.03,-0.06,1000,1000,1000,1000,1000,1000,0,1500,1500,989,1500,992,0.00,0.00,0.00,0.00,0.00,0.00,0.00,0.00,0.00,0.00,0.00,0.00
11896447,0.001,-0.001,0.999,-0.04,-0.04,-0.01,-0.04,-0.04,1000,1000,1000,1000,1000,1000,0,1500,1500,989,1500,995,0.00,0.00,0.00,0.00,0.00,0.00,0.00,0.00,0.00,0.00,0.00,0.00
11900447,0.001,-0.001,0.999,-0.04,-0.03,-0.01,-0.05,-0.05,1000,1000,1000,1000,1000,1000,0,1500,1500,989,1500,992,0.00,0.00,0.00,0.00,0.00,0.00,0.00,0.00,0.00,0.00,0.00,0.00
11904447,0.001,-0.001,1.000,-0.04,-0.02,-0.02,-0.07,-0.04,1000,1000,1000,1000,1000,1000,0,1500,1500,989,1500,993,0.00,0.00,0.00,0.00,0.00,0.00,0.00,0.00,0.00,0.00,0.00,0.00
11908447,0.001,-0.002,1.000,-0.03,-0.02,-0.03,-0.10,-0.04,1000,1000,1000,1000,1000,1000,0,1500,1500,989,1500,4294967288,0.00,0.00,0.00,0.00,0.00,0.00,0.00,0.00,0.00,0.00,0.00,0.00
11912447,0.000,-0.002,1.000,-0.03,-0.01,-0.03,-0.11,0.01,1000,1000,1000,1000,1000,1000,0,1500,1500,989,1500,994,0.00,0.00,0.00,0.00,0.00,0.00,0.00,0.00,0.00,0.00,0.00,0.00
11916447,-0.001,-0.002,1.000,-0.02,-0.02,-0.02,-0.13,0.04,1000,1000,1000,1000,1000,1000,0,1500,1500,989,1500,4994,0.00,0.00,0.00,0.00,0.00,0.00,0.00,0.00,0.00,0.00,0.00,0.00
11920447,-0.001,-0.002,1.001,-0.02,-0.01,-0.02,-0.14,0.05,1000,1000,1000,1000,1000,1000,0,1500,1500,989,1500,8994,0.00,0.00,0.00,0.00,0.00,0.00,0.00,0.00,0.00,0.00,0.00,0.00
11924447,-0.001,-0.002,1.000,-0.03,-0.00,-0.02,-0.13,0.04,1000,1000,1000,1000,1000,1000,0,1500,1500,989,1500,12994,0.00,0.00,0.00,0.00,0.00,0.00,0.00,0.00,0.00,0.00,0.00,0.00
11928447,-0.001,-0.002,1.000,-0.03,-0.01,-0.02,-0.12,0.03,1000,1000,1000,1000,1000,1000,0,1500,1500,989,1500,992,0.00,0.00,0.00,0.00,0.00,0.00,0.00,0.00,0.00,0.00,0.00,0.00
11932447,-0.001,-0.002,1.000,-0.02,-0.01,-0.02,-0.13,0.04,1000,1000,1000,1000,1000,1000,0,1500,1500,989,1500,992,0.00,0.00,0.00,0.00,0.00,0.00,0.00,0.00,0.00,0.00,0.00,0.00
11936447,-0.000,-0.002,1.000,-0.01,-0.01,-0.01,-0.14,0.02,1000,1000,1000,1000,1000,1000,0,1500,1500,989,1500,995,0.00,0.00,0.00,0.00,0.00,0.00,0.00,0.00,0.00,0.00,0.00,0.00
11940447,-0.000,-0.002,0.999,-0.02,-0.00,0.00,-0.14,0.02,1000,1000,1000,1000,1000,1000,0,1500,1500,989,1500,993,0.00,0.00,0.00,0.00,0.00,0.00,0.00,0.00,0.00,0.00,0.00,0.00
11944447,-0.001,-0.002,0.999,-0.01,-0.00,0.01,-0.11,0.05,1000,1000,1000,1000,1000,1000,0,1500,1500,989,1500,992,0.00,0.00,0.00,0.00,0.00,0.00,0.00,0.00,0.00,0.00,0.00,0.00
11948447,-0.001,-0.002,0.999,-0.01,0.00,0.01,-0.09,0.09,1000,1000,1000,1000,1000,1000,0,1500,1500,989,1500,992,0.00,0.00,0.00,0.00,0.00,0.00,0.00,0.00,0.00,0.00,0.00,0.00
11952447,-0.002,-0.001,1.000,-0.00,-0.00,0.01,-0.08,0.09,1000,1000,1000,1000,1000,1000,0,1500,1500,989,1500,995,0.00,0.00,0.00,0.00,0.00,0.00,0.00,0.00,0.00,0.00,0.00,0.00
11956447,-0.002,-0.001,1.000,0.01,0.00,0.01,-0.05,0.09,1000,1000,1000,1000,1000,1000,0,1500,1500,989,1500,993,0.00,0.00,0.00,0.00,0.00,0.00,0.00,0.00,0.00,0.00,0.00,0.00
11960447,-0.002,-0.000,1.000,0.02,0.01,0.01,-0.01,0.09,1000,1000,1000,1000,1000,1000,0,1500,1500,989,1500,992,0.00,0.00,0.00,0.00,0.00,0.00,0.00,0.00,0.00,0.00,0.00,0.00
11964447,-0.001,0.000,1.001,0.03,0.01,0.02,0.01,0.08,1000,1000,1000,1000,1000,1000,0,1500,1500,989,1500,992,0.00,0.00,0.00,0.00,0.00,0.00,0.00,0.00,0.00,0.00,0.00,0.00
11968447,-0.001,-0.000,1.001,0.02,0.01,0.01,-0.00,0.04,1000,1000,1000,1000,1000,1000,0,1500,1500,989,1500,992,0.00,0.00,0.00,0.00,0.00,0.00,0.00,0.00,0.00,0.00,0.00,0.00
11972447,-0.001,-0.000,1.001,0.01,0.00,0.01,-0.02,0.04,1000,1000,1000,1000,1000,1000,0,1500,1500,989,1500,993,0.00,0.00,0.00,0.00,0.00,0.00,0.00,0.00,0.00,0.00,0.00,0.00
11976447,-0.000,-0.000,1.000,0.01,-0.00,0.01,-0.02,0.02,1000,1000,1000,1000,1000,1000,0,1500,1500,989,1500,991,0.00,0.00,0.00,0.00,0.00,0.00,0.00,0.00,0.00,0.00,0.00,0.00
11980447,-0.001,-0.001,0.999,0.01,0.00,0.00,-0.04,0.03,1000,1000,1000,1000,1000,1000,0,1500,1500,989,1500,994,0.00,0.00,0.00,0.00,0.00,0.00,0.00,0.00,0.00,0.00,0.00,0.00
11984447,-0.001,-0.001,0.998,0.01,0.00,0.00,-0.06,0.04,1000,1000,1000,1000,1000,1000,0,1500,1500,989,1500,994,0.00,0.00,0.00,0.00,0.00,0.00,0.00,0.00,0.00,0.00,0.00,0.00
11988447,-0.001,-0.001,0.998,-0.00,-0.00,0.00,-0.02,0.04,1000,1000,1000,1000,1000,1000,0,1500,1500,989,1500,991,0.00,0.00,0.00,0.00,0.00,0.00,0.00,0.00,0.00,0.00,0.00,0.00
11992447,-0.000,0.000,0.998,-0.00,-0.00,-0.00,0.01,0.02,1000,1000,1000,1000,1000,1000,0,1500,1500,989,1500,993,0.00,0.00,0.00,0.00,0.00,0.00,0.00,0.00,0.00,0.00,0.00,0.00
11996447,0.001,0.001,0.999,-0.00,0.01,-0.00,0.04,-0.02,1000,1000,1000,1000,1000,1000,0,1500,1500,989,1500,993,0.00,0.00,0.00,0.00,0.00,0.00,0.00,0.00,0.00,0.00,0.00,0.00
12000447,0.001,0.001,0.999,0.00,0.01,-0.01,0.06,-0.06,1000,1000,1000,1000,1000,1000,0,1500,1500,989,1500,994,0.00,0.00,0.00,0.00,0.00,0.00,0.00,0.00,0.00,0.00,0.00,0.00
12004447,0.001,0.001,0.999,0.00,0.01,-0.01,0.05,-0.07,1000,1000,1000,1000,1000,1000,0,1500,1500,989,1500,992,0.00,0.00,0.00,0.00,0.00,0.00,0.00,0.00,0.00,0.00,0.00,0.00
12008447,0.001,0.000,0.999,0.01,0.01,-0.01,0.03,-0.07,1000,1000,1000,1000,1000,1000,0,1500,1500,989,1500,991,0.00,0.00,0.00,0.00,0.00,0.00,0.00,0.00,0.00,0.00,0.00,0.00
12012447,0.001,-0.000,0.998,0.01,0.01,-0.01,-0.02,-0.07,1000,1000,1000,1000,1000,1000,0,1500,1500,989,1500,1992,0.00,0.00,0.00,0.00,0.00,0.00,0.00,0.00,0.00,0.00,0.00,0.00
12016447,0.001,-0.001,0.999,0.01,0.01,-0.01,-0.05,-0.06,1000,1000,1000,1000,1000,1000,0,1500,1500,989,1500,992,0.00,0.00,0.00,0.00,0.00,0.00,0.00,0.00,0.00,0.00,0.00,0.00
12020447,0.001,-0.001,0.998,0.02,0.02,-0.01,-0.06,-0.06,1000,1000,1000,1000,1000,1000,0,1500,1500,989,1500,993,0.00,0.00,0.00,0.00,0.00,0.00,0.00,0.00,0.00,0.00,0.00,0.00
12024447,0.001,-0.001,0.999,0.03,0.03,-0.02,-0.04,-0.04,1000,1000,1000,1000,1000,1000,0,1500,1500,989,1500,993,0.00,0.00,0.00,0.00,0.00,0.00,0.00,0.00,0.00,0.00,0.00,0.00
12028447,0.001,-0.001,1.000,0.03,0.03,-0.02,-0.05,-0.06,1000,1000,1000,1000,1000,1000,0,1500,1500,989,1500,993,0.00,0.00,0.00,0.00,0.00,0.00,0.00,0.00,0.00,0.00,0.00,0.00
12032447,0.001,-0.001,1.001,0.03,0.03,-0.02,-0.03,-0.05,1000,1000,1000,1000,1000,1000,0,1500,1500,989,1500,993,0.00,0.00,0.00,0.00,0.00,0.00,0.00,0.00,0.00,0.00,0.00,0.00
12036447,0.001,-0.001,1.001,0.03,0.02,-0.02,-0.04,-0.06,1000,1000,1000,1000,1000,1000,0,1500,1500,989,1500,991,0.00,0.00,0.00,0.00,0.00,0.00,0.00,0.00,0.00,0.00,0.00,0.00
12040447,0.001,-0.001,1.000,0.03,0.02,-0.01,-0.05,-0.06,1000,1000,1000,1000,1000,1000,0,1500,1500,989,1500,993,0.00,0.00,0.00,0.00,0.00,0.00,0.00,0.00,0.00,0.00,0.00,0.00
12044447,0.001,-0.001,1.000,0.03,0.03,-0.00,-0.04,-0.06,1000,1000,1000,1000,1000,1000,0,1500,1500,989,1500,993,0.00,0.00,0.00,0.00,0.00,0.00,0.00,0.00,0.00,0.00,0.00,0.00
12048447,0.001,-0.001,0.999,0.04,0.03,-0.01,-0.06,-0.08,1000,1000,1000,1000,1000,1000,0,1500,1500,989,1500,993,0.00,0.00,0.00,0.00,0.00,0.00,0.00,0.00,0.00,0.00,0.00,0.00
12052447,0.001,-0.001,0.999,0.04,0.04,-0.01,-0.06,-0.06,1000,1000,1000,1000,1000,1000,0,1500,1500,989,1500,994,0.00,0.00,0.00,0.00,0.00,0.00,0.00,0.00,0.00,0.00,0.00,0.00
12056447,0.001,-0.001,0.998,0.05,0.04,0.00,-0.07,-0.08,1000,1000,1000,1000,1000,1000,0,1500,1500,989,1500,993,0.00,0.00,0.00,0.00,0.00,0.00,0.00,0.00,0.00,0.00,0.00,0.00
12060447,0.002,-0.001,0.998,0.06,0.04,0.01,-0.06,-0.09,1000,1000,1000,1000,1000,1000,0,1500,1500,989,1500,992,0.00,0.00,0.00,0.00,0.00,0.00,0.00,0.00,0.00,0.00,0.00,0.00
12064447,0.002,-0.001,0.998,0.07,0.05,0.01,-0.04,-0.11,1000,1000,1000,1000,1000,1000,0,1500,1500,989,1500,992,0.00,0.00,0.00,0.00,0.00,0.00,0.00,0.00,0.00,0.00,0.00,0.00
12068447,0.002,-0.001,0.998,0.08,0.05,0.00,-0.05,-0.08,1000,1000,1000,1000,1000,1000,0,1500,1500,989,1500,992,0.00,0.00,0.00,0.00,0.00,0.00,0.00,0.00,0.00,0.00,0.00,0.00
12072447,0.001,-0.001,0.997,0.08,0.06,-0.00,-0.05,-0.08,1000,1000,1000,1000,1000,1000,0,1500,1500,989,1500,993,0.00,0.00,0.00,0.00,0.00,0.00,0.00,0.00,0.00,0.00,0.00,0.00
12076447,0.001,-0.001,0.997,0.08,0.06,-0.01,-0.06,-0.06,1000,1000,1000,1000,1000,1000,0,1500,1500,989,1500,992,0.00,0.00,0.00,0.00,0.00,0.00,0.00,0.00,0.00,0.00,0.00,0.00
12080447,0.000,-0.001,0.997,0.09,0.07,-0.01,-0.06,-0.01,1000,1000,1000,1000,1000,1000,0,1500,1500,989,1500,994,0.00,0.00,0.00,0.00,0.00,0.00,0.00,0.00,0.00,0.00,0.00,0.00
12084447,-0.001,-0.001,0.997,0.10,0.07,-0.01,-0.04,0.03,1000,1000,1000,1000,1000,1000,0,1500,1500,989,1500,992,0.00,0.00,0.00,0.00,0.00,0.00,0.00,0.00,0.00,0.00,0.00,0.00
12088447,-0.001,-0.000,0.997,0.10,0.07,-0.01,-0.03,0.06,1000,1000,1000,1000,1000,1000,0,1500,1500,989,1500,991,0.00,0.00,0.00,0.00,0.00,0.00,0.00,0.00,0.00,0.00,0.00,0.00
12092447,-0.001,-0.000,0.998,0.09,0.06,-0.01,-0.03,0.06,1000,1000,1000,1000,1000,1000,0,1500,1500,989,1500,994,0.00,0.00,0.00,0.00,0.00,0.00,0.00,0.00,0.00,0.00,0.00,0.00
12096447,-0.001,-0.001,0.999,0.09,0.06,-0.01,-0.04,0.08,1000,1000,1000,1000,1000,1000,0,1500,1500,989,1500,994,0.00,0.00,0.00,0.00,0.00,0.00,0.00,0.00,0.00,0.00,0.00,0.00
12100447,-0.001,-0.001,1.000,0.08,0.06,-0.01,-0.03,0.08,1000,1000,1000,1000,1000,1000,0,1500,1500,989,1500,993,0.00,0.00,0.00,0.00,0.00,0.00,0.00,0.00,0.00,0.00,0.00,0.00
12104447,-0.002,-0.000,1.000,0.09,0.06,-0.01,-0.02,0.08,1000,1000,1000,1000,1000,1000,0,1500,1500,989,1500,991,0.00,0.00,0.00,0.00,0.00,0.00,0.00,0.00,0.00,0.00,0.00,0.00
12108447,-0.001,-0.000,0.999,0.09,0.05,-0.00,0.00,0.07,1000,1000,1000,1000,1000,1000,0,1500,1500,989,1500,994,0.00,0.00,0.00,0.00,0.00,0.00,0.00,0.00,0.00,0.00,0.00,0.00
12112447,-0.001,0.000,0.998,0.09,0.04,0.00,0.01,0.04,1000,1000,1000,1000,1000,1000,0,1500,1500,989,1500,992,0.00,0.00,0.00,0.00,0.00,0.00,0.00,0.00,0.00,0.00,0.00,0.00
12116447,0.000,-0.000,0.997,0.08,0.04,0.00,0.00,-0.01,1000,1000,1000,1000,1000,1000,0,1500,1500,989,1500,991,0.00,0.00,0.00,0.00,0.00,0.00,0.00,0.00,0.00,0.00,0.00,0.00
12120447,0.001,-0.000,0.997,0.08,0.04,0.01,-0.01,-0.05,1000,1000,1000,1000,1000,1000,0,1500,1500,989,1500,993,0.00,0.00,0.00,0.00,0.00,0.00,0.00,0.00,0.00,0.00,0.00,0.00
12124447,0.001,-0.000,0.999,0.09,0.05,0.01,-0.03,-0.06,1000,1000,1000,1000,1000,1000,0,1500,1500,989,1500,992,0.00,0.00,0.00,0.00,0.00,0.00,0.00,0.00,0.00,0.00,0.00,0.00
12128447,0.001,-0.001,0.998,0.09,0.05,0.00,-0.06,-0.06,1000,1000,1000,1000,1000,1000,0,1500,1500,989,1500,994,0.00,0.00,0.00,0.00,0.00,0.00,0.00,0.00,0.00,0.00,0.00,0.00
12132447,0.001,-0.001,0.999,0.10,0.06,0.00,-0.07,-0.06,1000,1000,1000,1000,1000,1000,0,1500,1500,989,1500,992,0.00,0.00,0.00,0.00,0.00,0.00,0.00,0.00,0.00,0.00,0.00,0.00
12136447,0.001,-0.001,1.000,0.09,0.06,0.00,-0.04,-0.06,1000,1000,1000,1000,1000,1000,0,1500,1500,989,1500,991,0.00,0.00,0.00,0.00,0.00,0.00,0.00,0.00,0.00,0.00,0.00,0.00
12140447,0.001,-0.000,1.000,0.09,0.07,0.01,-0.03,-0.07,1000,1000,1000,1000,1000,1000,0,1500,1500,989,1500,994,0.00,0.00,0.00,0.00,0.00,0.00,0.00,0.00,0.00,0.00,0.00,0.00
12144447,0.001,-0.001,1.000,0.09,0.06,0.00,-0.03,-0.07,1000,1000,1000,1000,1000,1000,0,1500,1500,989,1500,994,0.00,0.00,0.00,0.00,0.00,0.00,0.00,0.00,0.00,0.00,0.00,0.00
12148447,0.000,-0.000,1.001,0.08,0.06,-0.00,-0.01,-0.03,1000,1000,1000,1000,1000,1000,0,1500,1500,989,1500,992,0.00,0.00,0.00,0.00,0.00,0.00,0.00,0.00,0.00,0.00,0.00,0.00
12152447,-0.001,0.001,1.002,0.07,0.05,-0.01,0.02,0.01,1000,1000,1000,1000,1000,1000,0,1500,1500,989,1500,991,0.00,0.00,0.00,0.00,0.00,0.00,0.00,0.00,0.00,0.00,0.00,0.00
12156447,-0.001,0.001,1.001,0.07,0.05,-0.01,0.05,0.04,1000,1000,1000,1000,1000,1000,0,1500,1500,989,1500,994,0.00,0.00,0.00,0.00,0.00,0.00,0.00,0.00,0.00,0.00,0.00,0.00
12160447,-0.002,0.002,1.001,0.07,0.05,-0.01,0.08,0.08,1000,1000,1000,1000,1000,1000,0,1500,1500,989,1500,994,0.00,0.00,0.00,0.00,0.00,0.00,0.00,0.00,0.00,0.00,0.00,0.00
12164447,-0.002,0.002,1.001,0.07,0.05,-0.01,0.11,0.11,1000,1000,1000,1000,1000,1000,0,1500,1500,989,1500,992,0.00,0.00,0.00,0.00,0.00,0.00,0.00,0.00,0.00,0.00,0.00,0.00
12168447,-0.002,0.002,1.000,0.06,0.03,-0.01,0.09,0.10,1000,1000,1000,1000,1000,1000,0,1500,1500,989,1500,991,0.00,0.00,0.00,0.00,0.00,0.00,0.00,0.00,0.00,0.00,0.00,0.00
12172447,-0.002,0.002,1.001,0.05,0.02,-0.01,0.11,0.11,1000,1000,1000,1000,1000,1000,0,1500,1500,989,1500,994,0.00,0.00,0.00,0.00,0.00,0.00,0.00,0.00,0.00,0.00,0.00,0.00
12176447,-0.002,0.002,1.001,0.05,0.02,-0.01,0.14,0.10,1000,1000,1000,1000,1000,1000,0,1500,1500,989,1500,993,0.00,0.00,0.00,0.00,0.00,0.00,0.00,0.00,0.00,0.00,0.00,0.00
12180447,-0.001,0.002,1.000,0.04,0.01,-0.00,0.15,0.08,1000,1000,1000,1000,1000,1000,0,1500,1500,989,1500,994,0.00,0.00,0.00,0.00,0.00,0.00,0.00,0.00,0.00,0.00,0.00,0.00
12184447,-0.002,0.003,1.000,0.03,0.00,0.00,0.16,0.09,1000,1000,1000,1000,1000,1000,0,1500,1500,989,1500,993,0.00,0.00,0.00,0.00,0.00,0.00,0.00,0.00,0.00,0.00,0.00,0.00
12188447,-0.001,0.002,0.999,0.02,0.00,0.01,0.12,0.06,1000,1000,1000,1000,1000,1000,0,1500,1500,989,1500,993,0.00,0.00,0.00,0.00,0.00,0.00,0.00,0.00,0.00,0.00,0.00,0.00
12192447,-0.000,0.002,0.999,0.01,-0.00,0.01,0.09,0.03,1000,1000,1000,1000,1000,1000,0,1500,1500,989,1500,992,0.00,0.00,0.00,0.00,0.00,0.00,0.00,0.00,0.00,0.00,0.00,0.00
12196447,-0.001,0.001,0.998,0.00,-0.01,0.01,0.07,0.03,989,1100,1100,1100,1100,1100,0,1500,1500,989,1500,994,0.00,0.00,-0.03,-0.07,-0.03,0.00,0.00,-0.01,0.01,-0.07,-0.02,-0.01
12200447,-0.000,0.001,0.999,0.01,0.00,0.01,0.07,0.01,989,1100,1101,1101,1099,1099,0,1500,1500,989,1500,991,0.00,0.00,-0.03,-0.07,-0.01,0.00,0.01,0.00,0.01,-0.02,1.76,0.30
12204447,0.000,0.001,0.999,0.01,0.00,0.01,0.05,-0.00,989,1100,1106,1100,1094,1100,0,1500,1500,989,1500,994,0.00,0.00,-0.03,-0.05,0.00,0.00,0.01,0.00,0.01,3.26,3.12,0.17
12208447,-0.000,0.001,0.999,0.00,0.01,0.00,0.08,0.01,989,1100,1093,1103,1107,1097,0,1500,1500,989,1500,994,0.00,0.00,-0.03,-0.08,-0.01,0.00,0.00,0.01,0.00,-5.45,-2.76,0.32
12212447,-0.001,0.002,0.999,-0.00,0.01,0.00,0.12,0.04,989,1100,1089,1099,1111,1101,0,1500,1500,989,1500,990,0.00,0.00,-0.03,-0.12,-0.04,0.00,-0.00,0.01,0.00,-5.67,-6.18,0.22
12216447,-0.001,0.003,0.999,-0.01,0.01,-0.00,0.15,0.06,989,1100,1089,1099,1111,1101,0,1500,1500,989,1500,992,0.00,0.00,-0.03,-0.15,-0.06,0.00,-0.01,0.01,-0.00,-5.94,-6.17,0.55
12220447,-0.001,0.003,0.998,-0.02,-0.00,-0.00,0.18,0.07,989,1100,1097,1103,1103,1097,0,1500,1500,989,1500,992,0.00,0.00,-0.03,-0.18,-0.07,0.00,-0.02,-0.00,-0.00,-3.67,0.79,-0.12
12224447,-0.001,0.003,0.998,-0.03,-0.01,0.00,0.18,0.05,989,1100,1104,1104,1096,1096,0,1500,1500,989,1500,994,0.00,0.00,-0.03,-0.18,-0.05,0.00,-0.03,-0.01,0.00,0.67,4.66,-0.37
12228447,-0.001,0.003,0.997,-0.04,-0.00,0.00,0.18,0.05,989,1100,1101,1099,1099,1101,0,1500,1500,989,1500,992,0.00,0.00,-0.03,-0.18,-0.05,0.00,-0.04,-0.00,0.00,1.41,0.33,-0.22
12232447,-0.001,0.003,0.997,-0.04,-0.02,0.00,0.16,0.05,989,1100,1107,1097,1093,1103,0,1500,1500,989,1500,993,0.00,0.00,-0.03,-0.16,-0.05,0.00,-0.04,-0.02,0.00,5.59,2.80,-0.01
12236447,-0.001,0.002,0.998,-0.05,-0.03,0.00,0.13,0.04,989,1100,1110,1096,1090,1104,0,1500,1500,989,1500,993,0.00,0.00,-0.03,-0.13,-0.04,0.00,-0.05,-0.03,0.00,7.31,3.69,-0.10
12240447,-0.000,0.002,0.999,-0.06,-0.02,-0.00,0.10,0.01,989,1100,1115,1095,1085,1105,0,1500,1500,989,1500,993,0.00,0.00,-0.03,-0.10,-0.01,0.00,-0.06,-0.02,-0.00,10.03,5.12,0.58
12244447,0.001,0.001,0.999,-0.07,-0.03,-0.01,0.06,-0.02,989,1100,1116,1100,1084,1100,0,1500,1500,989,1500,994,0.00,0.00,-0.03,-0.06,0.02,0.00,-0.07,-0.03,-0.01,8.33,8.02,0.53
12248447,0.001,0.000,1.000,-0.08,-0.03,-0.01,0.02,-0.05,989,1100,1114,1096,1086,1104,0,1500,1500,989,1500,992,0.00,0.00,-0.03,-0.02,0.05,0.00,-0.08,-0.03,-0.01,9.32,5.65,-0.01
12252447,0.001,0.000,0.999,-0.08,-0.04,-0.00,0.01,-0.05,989,1100,1103,1099,1097,1101,0,1500,1500,989,1500,991,0.00,0.00,-0.03,-0.01,0.05,0.00,-0.08,-0.04,-0.00,2.58,1.99,-0.37
12256447,0.001,-0.000,0.999,-0.08,-0.03,-0.01,-0.03,-0.05,989,1100,1107,1093,1093,1107,0,1500,1500,989,1500,994,0.00,0.00,-0.03,0.03,0.05,0.00,-0.08,-0.03,-0.01,7.11,-0.59,0.44
12260447,0.001,-0.001,0.998,-0.07,-0.04,-0.00,-0.03,-0.05,989,1100,1101,1101,1099,1099,0,1500,1500,989,1500,992,0.00,0.00,-0.03,0.03,0.05,0.00,-0.07,-0.04,-0.00,-0.83,1.10,-0.59
12264447,0.001,-0.001,0.998,-0.06,-0.04,0.01,-0.04,-0.07,989,1100,1105,1105,1095,1095,0,1500,1500,989,1500,991,0.00,0.00,-0.03,0.04,0.07,0.00,-0.06,-0.04,0.01,-0.14,5.05,-0.85
12268447,0.001,-0.001,0.999,-0.06,-0.05,0.00,-0.07,-0.07,989,1100,1105,1095,1095,1105,0,1500,1500,989,1500,991,0.00,0.00,-0.03,0.07,0.07,0.00,-0.06,-0.05,0.00,5.80,0.12,0.50
12272447,0.001,-0.001,0.999,-0.05,-0.04,-0.00,-0.08,-0.04,989,1100,1093,1093,1107,1107,0,1500,1500,989,1500,994,0.00,0.00,-0.03,0.08,0.04,0.00,-0.05,-0.04,-0.00,0.56,-7.15,0.30
12276447,0.001,-0.001,1.000,-0.04,-0.03,-0.01,-0.08,-0.07,989,1100,1100,1104,1100,1096,0,1500,1500,989,1500,994,0.00,0.00,-0.03,0.08,0.07,0.00,-0.04,-0.03,-0.01,-2.12,2.51,0.60
12280447,0.001,-0.001,1.000,-0.03,-0.02,-0.01,-0.08,-0.07,989,1100,1100,1100,1100,1100,0,1500,1500,989,1500,992,0.00,0.00,-0.03,0.08,0.07,0.00,-0.03,-0.02,-0.01,-0.62,0.16,0.14
12284447,0.002,-0.001,1.000,-0.04,-0.03,-0.01,-0.07,-0.10,989,1100,1106,1108,1094,1092,0,1500,1500,989,1500,992,0.00,0.00,-0.03,0.07,0.10,0.00,-0.04,-0.03,-0.01,-1.58,7.04,0.50
12288447,0.002,-0.001,1.000,-0.04,-0.02,-0.02,-0.04,-0.10,989,1100,1096,1104,1104,1096,0,1500,1500,989,1500,992,0.00,0.00,-0.03,0.04,0.10,0.00,-0.04,-0.02,-0.02,-4.59,-0.16,0.28
12292447,0.002,-0.000,1.000,-0.04,-0.03,-0.02,-0.01,-0.11,989,1100,1096,1110,1104,1090,0,1500,1500,989,1500,993,0.00,0.00,-0.03,0.01,0.11,0.00,-0.04,-0.03,-0.02,-7.57,3.02,0.12
12296447,0.002,0.000,1.000,-0.03,-0.03,-0.01,0.02,-0.09,989,1100,1088,1104,1112,1096,0,1500,1500,989,1500,992,0.00,0.00,-0.03,-0.02,0.09,0.00,-0.03,-0.03,-0.01,-8.14,-4.10,-0.41
12300447,0.001,0.000,1.000,-0.03,-0.04,-0.01,0.02,-0.09,989,1100,1100,1100,1100,1100,0,1500,1500,989,1500,993,0.00,0.00,-0.03,-0.02,0.09,0.00,-0.03,-0.04,-0.01,-0.48,0.85,0.19
12304447,0.001,-0.000,1.000,-0.04,-0.03,-0.02,-0.01,-0.06,989,1100,1102,1086,1098,1114,0,1500,1500,989,1500,994,0.00,0.00,-0.03,0.01,0.06,0.00,-0.04,-0.03,-0.02,8.52,-6.41,0.09
12308447,0.001,-0.000,1.000,-0.04,-0.02,-0.01,-0.01,-0.04,989,1100,1095,1093,1105,1107,0,1500,1500,989,1500,991,0.00,0.00,-0.03,0.01,0.04,0.00,-0.04,-0.02,-0.01,1.86,-6.44,-0.01
12312447,-0.000,0.000,1.001,-0.04,-0.02,-0.01,0.02,0.00,989,1100,1086,1098,1114,1102,0,1500,1500,989,1500,4294967288,0.00,0.00,-0.03,-0.02,-0.00,0.00,-0.04,-0.02,-0.01,-6.18,-8.70,-0.28
12316447,-0.000,0.001,1.001,-0.04,-0.02,-0.01,0.04,0.01,989,1100,1097,1103,1103,1097,0,1500,1500,989,1500,992,0.00,0.00,-0.03,-0.04,-0.01,0.00,-0.04,-0.02,-0.01,-3.66,-0.73,-0.41
12320447,-0.000,0.001,1.001,-0.04,-0.03,-0.00,0.05,0.01,989,1100,1098,1102,1102,1098,0,1500,1500,989,1500,994,0.00,0.00,-0.03,-0.05,-0.01,0.00,-0.04,-0.03,-0.00,-2.25,0.69,-0.55
12324447,-0.000,0.001,1.001,-0.04,-0.04,-0.00,0.07,0.03,989,1100,1095,1103,1105,1097,0,1500,1500,989,1500,990,0.00,0.00,-0.03,-0.07,-0.03,0.00,-0.04,-0.04,-0.00,-4.31,-1.08,0.20
12328447,-0.001,0.001,1.001,-0.04,-0.04,-0.01,0.08,0.05,989,1100,1095,1099,1105,1101,0,1500,1500,989,1500,4990,0.00,0.00,-0.03,-0.08,-0.05,0.00,-0.04,-0.04,-0.01,-2.84,-3.51,0.35
12332447,-0.001,0.001,1.000,-0.04,-0.03,-0.01,0.07,0.05,989,1100,1100,1098,1100,1102,0,1500,1500,989,1500,992,0.00,0.00,-0.03,-0.07,-0.05,0.00,-0.04,-0.03,-0.01,1.22,-1.42,-0.06
12336447,-0.001,0.001,1.000,-0.04,-0.03,-0.01,0.06,0.05,989,1100,1100,1096,1100,1104,0,1500,1500,989,1500,995,0.00,0.00,-0.03,-0.06,-0.05,0.00,-0.04,-0.03,-0.01,2.40,-2.18,0.11
12340447,-0.001,0.001,0.999,-0.04,-0.03,-0.01,0.05,0.05,989,1100,1103,1099,1097,1101,0,1500,1500,989,1500,993,0.00,0.00,-0.03,-0.05,-0.05,0.00,-0.04,-0.03,-0.01,2.62,1.47,0.04
12344447,-0.000,0.000,0.998,-0.03,-0.02,-0.02,0.02,0.02,989,1100,1106,1098,1094,1102,0,1500,1500,989,1500,991,0.00,0.00,-0.03,-0.02,-0.02,0.00,-0.03,-0.02,-0.02,4.31,2.71,0.83
12348447,-0.001,-0.000,0.998,-0.03,-0.02,-0.02,-0.00,0.03,989,1100,1101,1095,1099,1105,0,1500,1500,989,1500,992,0.00,0.00,-0.03,0.00,-0.03,0.00,-0.03,-0.02,-0.02,3.96,-2.16,-0.07
12352447,-0.001,-0.000,0.998,-0.03,-0.02,-0.02,-0.02,0.02,989,1100,1105,1099,1095,1101,0,1500,1500,989,1500,994,0.00,0.00,-0.03,0.02,-0.02,0.00,-0.03,-0.02,-0.02,3.54,2.90,0.22
12356447,-0.000,0.000,0.998,-0.02,-0.02,-0.01,0.01,0.00,989,1100,1097,1111,1103,1089,0,1500,1500,989,1500,992,0.00,0.00,-0.03,-0.01,-0.00,0.00,-0.02,-0.02,-0.01,-7.75,4.53,-0.63
12360447,0.000,0.000,0.998,-0.02,-0.03,-0.01,0.02,-0.03,989,1100,1106,1106,1094,1094,0,1500,1500,989,1500,991,0.00,0.00,-0.03,-0.02,0.03,0.00,-0.02,-0.03,-0.01,-0.83,6.42,0.24
12364447,0.001,0.001,0.998,-0.02,-0.02,-0.02,0.04,-0.04,989,1100,1096,1108,1104,1092,0,1500,1500,989,1500,994,0.00,0.00,-0.03,-0.04,0.04,0.00,-0.02,-0.02,-0.02,-6.48,2.54,0.46
12368447,0.001,0.001,0.998,-0.01,-0.02,-0.02,0.05,-0.05,989,1100,1098,1102,1102,1098,0,1500,1500,989,1500,994,0.00,0.00,-0.03,-0.05,0.05,0.00,-0.01,-0.02,-0.02,-2.38,-0.04,-0.19
12372447,0.001,0.001,0.998,-0.01,-0.02,-0.01,0.05,-0.04,989,1100,1100,1100,1100,1100,0,1500,1500,989,1500,992,0.00,0.00,-0.03,-0.05,0.04,0.00,-0.01,-0.02,-0.01,-0.15,-0.21,-0.24
12376447,0.001,0.001,0.998,-0.00,-0.02,-0.02,0.03,-0.03,989,1100,1101,1097,1099,1103,0,1500,1500,989,1500,992,0.00,0.00,-0.03,-0.03,0.03,0.00,-0.00,-0.02,-0.02,2.57,-1.77,0.59
12380447,0.001,0.000,0.999,0.00,-0.01,-0.02,0.03,-0.04,989,1100,1100,1100,1100,1100,0,1500,1500,989,1500,992,0.00,0.00,-0.03,-0.03,0.04,0.00,0.00,-0.01,-0.02,-0.40,0.38,0.00
12384447,0.001,0.001,0.999,-0.00,-0.01,-0.01,0.05,-0.06,989,1100,1099,1105,1101,1095,0,1500,1500,989,1500,995,0.00,0.00,-0.03,-0.05,0.06,0.00,-0.00,-0.01,-0.01,-3.73,2.25,-0.49
12388447,0.001,0.001,1.000,-0.00,-0.01,-0.01,0.05,-0.06,989,1100,1100,1100,1100,1100,0,1500,1500,989,1500,993,0.00,0.00,-0.03,-0.05,0.06,0.00,-0.00,-0.01,-0.01,-0.19,-0.70,-0.44
12392447,0.001,0.001,1.000,0.00,0.01,-0.01,0.06,-0.07,989,1100,1096,1104,1104,1096,0,1500,1500,989,1500,992,0.00,0.00,-0.03,-0.06,0.07,0.00,0.00,0.01,-0.01,-4.40,-0.10,-0.10
12396447,0.001,0.001,1.000,0.01,0.01,-0.01,0.07,-0.07,989,1100,1098,1102,1102,1098,0,1500,1500,989,1500,992,0.00,0.00,-0.03,-0.07,0.07,0.00,0.01,0.01,-0.01,-2.01,0.74,0.51
12400447,0.001,0.001,1.001,0.01,0.00,-0.01,0.06,-0.05,989,1100,1100,1096,1100,1104,0,1500,1500,989,1500,993,0.00,0.00,-0.03,-0.06,0.05,0.00,0.01,0.00,-0.01,2.03,-2.74,-0.13
12404447,0.001,0.001,1.001,-0.00,-0.00,-0.01,0.03,-0.03,989,1100,1105,1089,1095,1111,0,1500,1500,989,1500,994,0.00,0.00,-0.03,-0.03,0.03,0.00,-0.00,-0.00,-0.01,8.51,-3.35,-0.05
12408447,0.001,-0.000,1.001,-0.01,0.00,-0.01,-0.01,-0.05,989,1100,1111,1093,1089,1107,0,1500,1500,989,1500,992,0.00,0.00,-0.03,0.01,0.05,0.00,-0.01,0.00,-0.01,9.75,2.42,0.12
12412447,0.001,-0.000,1.001,-0.00,0.01,-0.01,-0.01,-0.06,989,1100,1099,1103,1101,1097,0,1500,1500,989,1500,992,0.00,0.00,-0.03,0.01,0.06,0.00,-0.00,0.01,-0.01,-2.42,1.12,-0.04
12416447,0.001,0.000,1.000,0.01,0.01,-0.00,0.01,-0.08,989,1100,1100,1108,1100,1092,0,1500,1500,989,1500,994,0.00,0.00,-0.03,-0.01,0.08,0.00,0.01,0.01,-0.00,-4.55,4.19,-0.74
12420447,0.002,0.000,1.000,0.02,0.01,-0.01,0.03,-0.11,989,1100,1099,1111,1101,1089,0,1500,1500,989,1500,991,0.00,0.00,-0.03,-0.03,0.11,0.00,0.02,0.01,-0.01,-6.46,5.34,0.27
12424447,0.002,0.001,0.999,0.02,0.02,-0.01,0.03,-0.12,989,1100,1101,1101,1099,1099,0,1500,1500,989,1500,994,0.00,0.00,-0.03,-0.03,0.12,0.00,0.02,0.02,-0.01,-0.21,1.14,-0.16
12428447,0.002,0.001,0.999,0.02,0.02,-0.00,0.05,-0.13,989,1100,1099,1107,1101,1093,0,1500,1500,989,1500,992,0.00,0.00,-0.03,-0.05,0.13,0.00,0.02,0.02,-0.00,-4.18,3.08,-0.43
12432447,0.002,0.001,0.999,0.01,0.02,0.00,0.08,-0.12,989,1100,1092,1100,1108,1100,0,1500,1500,989,1500,994,0.00,0.00,-0.03,-0.08,0.12,0.00,0.01,0.02,0.00,-4.29,-4.15,-0.13
12436447,0.002,0.002,1.000,0.01,0.02,-0.01,0.11,-0.09,989,1100,1089,1099,1111,1101,0,1500,1500,989,1500,992,0.00,0.00,-0.03,-0.11,0.09,0.00,0.01,0.02,-0.01,-5.69,-6.62,0.64
