t_us,ax_g,ay_g,az_g,gx_dps,gy_dps,gz_dps,roll_deg,pitch_deg,throttle_us,motor_us,m1,m2,m3,m4,mode,rc_roll,rc_pitch,rc_throttle,rc_yaw,rc_age_us,att_sp_roll,att_sp_pitch,att_sp_yaw,rate_sp_roll,rate_sp_pitch,rate_sp_yaw,rate_meas_roll,rate_meas_pitch,rate_meas_yaw,rate_out_roll,rate_out_pitch,rate_out_yaw
54980449,0.107,-0.018,1.028,-0.10,0.01,0.05,-1.28,-5.92,989,1100,1000,1000,1000,1000,0,1500,1500,989,1500,992,0.00,0.00,0.10,1.32,5.82,0.00,-0.24,-0.17,0.10,29.99,8.70,1.34
54984449,0.106,-0.017,1.029,-0.08,0.00,0.06,-1.23,-5.92,989,1100,1000,1000,1000,1000,0,1500,1500,989,1500,991,0.00,0.00,0.10,1.32,5.82,0.00,-0.24,-0.17,0.10,29.99,8.70,1.34
54988449,0.105,-0.017,1.027,-0.08,-0.02,0.07,-1.19,-5.91,989,1100,1000,1000,1000,1000,0,1500,1500,989,1500,989,0.00,0.00,0.10,1.32,5.82,0.00,-0.24,-0.17,0.10,29.99,8.70,1.34
54992449,0.105,-0.017,1.024,-0.08,-0.02,0.07,-1.14,-5.89,989,1100,1000,1000,1000,1000,0,1500,1500,989,1500,989,0.00,0.00,0.10,1.32,5.82,0.00,-0.24,-0.17,0.10,29.99,8.70,1.34
54996449,0.105,-0.018,1.022,-0.07,-0.01,0.08,-1.10,-5.88,989,1100,1000,1000,1000,1000,0,1500,1500,989,1500,992,0.00,0.00,0.10,1.32,5.82,0.00,-0.24,-0.17,0.10,29.99,8.70,1.34
55000449,0.107,-0.021,1.020,-0.06,0.01,0.07,-1.10,-5.91,989,1100,1000,1000,1000,1000,0,1500,1500,989,1500,990,0.00,0.00,0.10,1.32,5.82,0.00,-0.24,-0.17,0.10,29.99,8.70,1.34
55004449,0.110,-0.024,1.022,-0.06,0.00,0.07,-1.13,-5.94,989,1100,1000,1000,1000,1000,0,1500,1500,989,1500,991,0.00,0.00,0.10,1.32,5.82,0.00,-0.24,-0.17,0.10,29.99,8.70,1.34
55008449,0.112,-0.023,1.025,-0.05,-0.02,0.08,-1.16,-5.98,989,1100,1000,1000,1000,1000,0,1500,1500,989,1500,991,0.00,0.00,0.10,1.32,5.82,0.00,-0.24,-0.17,0.10,29.99,8.70,1.34
55012449,0.111,-0.023,1.028,-0.06,-0.00,0.07,-1.18,-6.02,989,1100,1000,1000,1000,1000,0,1500,1500,989,1500,992,0.00,0.00,0.10,1.32,5.82,0.00,-0.24,-0.17,0.10,29.99,8.70,1.34
55016449,0.111,-0.022,1.031,-0.05,-0.02,0.05,-1.20,-6.06,989,1100,1000,1000,1000,1000,0,1500,1500,989,1500,989,0.00,0.00,0.10,1.32,5.82,0.00,-0.24,-0.17,0.10,29.99,8.70,1.34
55020449,0.110,-0.022,1.031,-0.05,-0.02,0.05,-1.24,-6.07,989,1100,1000,1000,1000,1000,0,1500,1500,989,1500,990,0.00,0.00,0.10,1.32,5.82,0.00,-0.24,-0.17,0.10,29.99,8.70,1.34
55024449,0.107,-0.022,1.032,-0.06,-0.01,0.05,-1.23,-6.03,989,1100,1000,1000,1000,1000,0,1500,1500,989,1500,990,0.00,0.00,0.10,1.32,5.82,0.00,-0.24,-0.17,0.10,29.99,8.70,1.34
55028449,0.107,-0.023,1.029,-0.06,-0.01,0.04,-1.25,-5.99,989,1100,1000,1000,1000,1000,0,1500,1500,989,1500,990,0.00,0.00,0.10,1.32,5.82,0.00,-0.24,-0.17,0.10,29.99,8.70,1.34
55032449,0.111,-0.023,1.028,-0.08,-0.00,0.06,-1.27,-6.03,989,1100,1000,1000,1000,1000,0,1500,1500,989,1500,991,0.00,0.00,0.10,1.32,5.82,0.00,-0.24,-0.17,0.10,29.99,8.70,1.34
55036449,0.114,-0.026,1.030,-0.07,-0.02,0.05,-1.29,-6.07,989,1100,1000,1000,1000,1000,0,1500,1500,989,1500,989,0.00,0.00,0.10,1.32,5.82,0.00,-0.24,-0.17,0.10,29.99,8.70,1.34
55040449,0.114,-0.027,1.033,-0.07,-0.03,0.05,-1.32,-6.10,989,1100,1000,1000,1000,1000,0,1500,1500,989,1500,991,0.00,0.00,0.10,1.32,5.82,0.00,-0.24,-0.17,0.10,29.99,8.70,1.34
55044449,0.113,-0.026,1.034,-0.09,-0.03,0.06,-1.35,-6.14,989,1100,1000,1000,1000,1000,0,1500,1500,989,1500,991,0.00,0.00,0.10,1.32,5.82,0.00,-0.24,-0.17,0.10,29.99,8.70,1.34
55048449,0.110,-0.025,1.032,-0.08,-0.04,0.07,-1.39,-6.14,989,1100,1000,1000,1000,1000,0,1500,1500,989,1500,4991,0.00,0.00,0.10,1.32,5.82,0.00,-0.24,-0.17,0.10,29.99,8.70,1.34
55052449,0.110,-0.024,1.027,-0.09,-0.04,0.05,-1.36,-6.10,989,1100,1000,1000,1000,1000,0,1500,1500,989,1500,990,0.00,0.00,0.10,1.32,5.82,0.00,-0.24,-0.17,0.10,29.99,8.70,1.34
55056449,0.108,-0.025,1.024,-0.08,-0.03,0.04,-1.38,-6.07,989,1100,1000,1000,1000,1000,0,1500,1500,989,1500,991,0.00,0.00,0.10,1.32,5.82,0.00,-0.24,-0.17,0.10,29.99,8.70,1.34
55060449,0.106,-0.025,1.023,-0.07,-0.04,0.04,-1.39,-6.03,989,1100,1000,1000,1000,1000,0,1500,1500,989,1500,991,0.00,0.00,0.10,1.32,5.82,0.00,-0.24,-0.17,0.10,29.99,8.70,1.34
55064449,0.106,-0.024,1.024,-0.08,-0.02,0.03,-1.38,-5.98,989,1100,1000,1000,1000,1000,0,1500,1500,989,1500,992,0.00,0.00,0.10,1.32,5.82,0.00,-0.24,-0.17,0.10,29.99,8.70,1.34
55068449,0.105,-0.023,1.028,-0.07,-0.03,0.04,-1.36,-5.94,989,1100,1000,1000,1000,1000,0,1500,1500,989,1500,1991,0.00,0.00,0.10,1.32,5.82,0.00,-0.24,-0.17,0.10,29.99,8.70,1.34
55072449,0.107,-0.024,1.030,-0.06,-0.02,0.04,-1.33,-5.92,989,1100,1000,1000,1000,1000,0,1500,1500,989,1500,990,0.00,0.00,0.10,1.32,5.82,0.00,-0.24,-0.17,0.10,29.99,8.70,1.34
55076449,0.106,-0.022,1.030,-0.06,-0.02,0.05,-1.29,-5.91,989,1100,1000,1000,1000,1000,0,1500,1500,989,1500,991,0.00,0.00,0.10,1.32,5.82,0.00,-0.24,-0.17,0.10,29.99,8.70,1.34
55080449,0.103,-0.021,1.031,-0.05,-0.02,0.06,-1.27,-5.87,989,1100,1000,1000,1000,1000,0,1500,1500,989,1500,991,0.00,0.00,0.10,1.32,5.82,0.00,-0.24,-0.17,0.10,29.99,8.70,1.34
55084449,0.101,-0.021,1.034,-0.04,0.00,0.06,-1.25,-5.83,989,1100,1000,1000,1000,1000,0,1500,1500,989,1500,992,0.00,0.00,0.10,1.32,5.82,0.00,-0.24,-0.17,0.10,29.99,8.70,1.34
55088449,0.099,-0.020,1.037,-0.04,0.00,0.06,-1.24,-5.79,989,1100,1000,1000,1000,1000,0,1500,1500,989,1500,990,0.00,0.00,0.10,1.32,5.82,0.00,-0.24,-0.17,0.10,29.99,8.70,1.34
55092449,0.101,-0.018,1.039,-0.05,0.00,0.07,-1.21,-5.75,989,1100,1000,1000,1000,1000,0,1500,1500,989,1500,991,0.00,0.00,0.10,1.32,5.82,0.00,-0.24,-0.17,0.10,29.99,8.70,1.34
55096449,0.100,-0.015,1.038,-0.04,-0.01,0.09,-1.18,-5.72,989,1100,1000,1000,1000,1000,0,1500,1500,989,1500,990,0.00,0.00,0.10,1.32,5.82,0.00,-0.24,-0.17,0.10,29.99,8.70,1.34
55100449,0.099,-0.016,1.035,-0.02,-0.03,0.08,-1.14,-5.70,989,1100,1000,1000,1000,1000,0,1500,1500,989,1500,991,0.00,0.00,0.10,1.32,5.82,0.00,-0.24,-0.17,0.10,29.99,8.70,1.34
55104449,0.100,-0.017,1.032,-0.04,0.01,0.08,-1.10,-5.67,989,1100,1000,1000,1000,1000,0,1500,1500,989,1500,989,0.00,0.00,0.10,1.32,5.82,0.00,-0.24,-0.17,0.10,29.99,8.70,1.34
55108449,0.100,-0.018,1.033,-0.02,-0.00,0.08,-1.07,-5.64,989,1100,1000,1000,1000,1000,0,1500,1500,989,1500,990,0.00,0.00,0.10,1.32,5.82,0.00,-0.24,-0.17,0.10,29.99,8.70,1.34
55112449,0.102,-0.019,1.032,-0.01,-0.02,0.07,-1.07,-5.61,989,1100,1000,1000,1000,1000,0,1500,1500,989,1500,990,0.00,0.00,0.10,1.32,5.82,0.00,-0.24,-0.17,0.10,29.99,8.70,1.34
55116449,0.105,-0.020,1.034,-0.02,-0.02,0.05,-1.07,-5.66,989,1100,1000,1000,1000,1000,0,1500,1500,989,1500,991,0.00,0.00,0.10,1.32,5.82,0.00,-0.24,-0.17,0.10,29.99,8.70,1.34
55120449,0.106,-0.022,1.032,0.01,-0.04,0.03,-1.10,-5.70,989,1100,1000,1000,1000,1000,0,1500,1500,989,1500,989,0.00,0.00,0.10,1.32,5.82,0.00,-0.24,-0.17,0.10,29.99,8.70,1.34
55124449,0.106,-0.024,1.031,-0.02,-0.04,0.04,-1.14,-5.73,989,1100,1000,1000,1000,1000,0,1500,1500,989,1500,992,0.00,0.00,0.10,1.32,5.82,0.00,-0.24,-0.17,0.10,29.99,8.70,1.34
55128449,0.105,-0.025,1.033,-0.02,-0.04,0.05,-1.18,-5.74,989,1100,1000,1000,1000,1000,0,1500,1500,989,1500,992,0.00,0.00,0.10,1.32,5.82,0.00,-0.24,-0.17,0.10,29.99,8.70,1.34
55132449,0.105,-0.024,1.033,-0.02,-0.03,0.04,-1.22,-5.75,989,1100,1000,1000,1000,1000,0,1500,1500,989,1500,991,0.00,0.00,0.10,1.32,5.82,0.00,-0.24,-0.17,0.10,29.99,8.70,1.34
55136449,0.105,-0.021,1.034,-0.04,-0.01,0.03,-1.21,-5.77,989,1100,1000,1000,1000,1000,0,1500,1500,989,1500,988,0.00,0.00,0.10,1.32,5.82,0.00,-0.24,-0.17,0.10,29.99,8.70,1.34
55140449,0.105,-0.019,1.036,-0.02,-0.03,0.02,-1.17,-5.77,989,1100,1000,1000,1000,1000,0,1500,1500,989,1500,990,0.00,0.00,0.10,1.32,5.82,0.00,-0.24,-0.17,0.10,29.99,8.70,1.34
55144449,0.105,-0.019,1.035,-0.02,-0.04,0.04,-1.12,-5.78,989,1100,1000,1000,1000,1000,0,1500,1500,989,1500,990,0.00,0.00,0.10,1.32,5.82,0.00,-0.24,-0.17,0.10,29.99,8.70,1.34
55148449,0.106,-0.019,1.033,-0.03,-0.04,0.04,-1.09,-5.81,989,1100,1000,1000,1000,1000,0,1500,1500,989,1500,991,0.00,0.00,0.10,1.32,5.82,0.00,-0.24,-0.17,0.10,29.99,8.70,1.34
55152449,0.106,-0.021,1.027,-0.05,-0.03,0.07,-1.10,-5.85,989,1100,1000,1000,1000,1000,0,1500,1500,989,1500,990,0.00,0.00,0.10,1.32,5.82,0.00,-0.24,-0.17,0.10,29.99,8.70,1.34
55156449,0.105,-0.022,1.028,-0.08,-0.05,0.07,-1.15,-5.85,989,1100,1000,1000,1000,1000,0,1500,1500,989,1500,989,0.00,0.00,0.10,1.32,5.82,0.00,-0.24,-0.17,0.10,29.99,8.70,1.34
55160449,0.105,-0.023,1.032,-0.06,-0.06,0.07,-1.19,-5.84,989,1100,1000,1000,1000,1000,0,1500,1500,989,1500,992,0.00,0.00,0.10,1.32,5.82,0.00,-0.24,-0.17,0.10,29.99,8.70,1.34
55164449,0.105,-0.023,1.033,-0.07,-0.05,0.06,-1.24,-5.83,989,1100,1000,1000,1000,1000,0,1500,1500,989,1500,989,0.00,0.00,0.10,1.32,5.82,0.00,-0.24,-0.17,0.10,29.99,8.70,1.34
55168449,0.104,-0.022,1.032,-0.06,-0.03,0.06,-1.24,-5.79,989,1100,1000,1000,1000,1000,0,1500,1500,989,1500,988,0.00,0.00,0.10,1.32,5.82,0.00,-0.24,-0.17,0.10,29.99,8.70,1.34
55172449,0.104,-0.020,1.028,-0.05,-0.02,0.07,-1.20,-5.76,989,1100,1000,1000,1000,1000,0,1500,1500,989,1500,990,0.00,0.00,0.10,1.32,5.82,0.00,-0.24,-0.17,0.10,29.99,8.70,1.34
55176449,0.105,-0.021,1.023,-0.06,-0.02,0.07,-1.17,-5.78,989,1100,1000,1000,1000,1000,0,1500,1500,989,1500,992,0.00,0.00,0.10,1.32,5.82,0.00,-0.24,-0.17,0.10,29.99,8.70,1.34
55180449,0.106,-0.021,1.019,-0.05,-0.01,0.07,-1.18,-5.83,989,1100,1000,1000,1000,1000,0,1500,1500,989,1500,991,0.00,0.00,0.10,1.32,5.82,0.00,-0.24,-0.17,0.10,29.99,8.70,1.34
55184449,0.107,-0.022,1.018,-0.03,-0.01,0.08,-1.19,-5.87,989,1100,1000,1000,1000,1000,0,1500,1500,989,1500,989,0.00,0.00,0.10,1.32,5.82,0.00,-0.24,-0.17,0.10,29.99,8.70,1.34
55188449,0.106,-0.024,1.020,-0.03,-0.03,0.08,-1.23,-5.90,989,1100,1000,1000,1000,1000,0,1500,1500,989,1500,990,0.00,0.00,0.10,1.32,5.82,0.00,-0.24,-0.17,0.10,29.99,8.70,1.34
55192449,0.105,-0.025,1.024,-0.04,-0.04,0.07,-1.27,-5.90,989,1100,1000,1000,1000,1000,0,1500,1500,989,1500,992,0.00,0.00,0.10,1.32,5.82,0.00,-0.24,-0.17,0.10,29.99,8.70,1.34
55196449,0.105,-0.026,1.027,-0.03,-0.03,0.06,-1.31,-5.88,989,1100,1000,1000,1000,1000,0,1500,1500,989,1500,991,0.00,0.00,0.10,1.32,5.82,0.00,-0.24,-0.17,0.10,29.99,8.70,1.34
55200449,0.105,-0.026,1.027,-0.03,-0.01,0.06,-1.36,-5.87,989,1100,1000,1000,1000,1000,0,1500,1500,989,1500,988,0.00,0.00,0.10,1.32,5.82,0.00,-0.24,-0.17,0.10,29.99,8.70,1.34
55204449,0.107,-0.026,1.026,-0.06,0.01,0.06,-1.40,-5.89,989,1100,1000,1000,1000,1000,0,1500,1500,989,1500,992,0.00,0.00,0.10,1.32,5.82,0.00,-0.24,-0.17,0.10,29.99,8.70,1.34
55208449,0.109,-0.023,1.026,-0.07,0.01,0.06,-1.38,-5.93,989,1100,1000,1000,1000,1000,0,1500,1500,989,1500,991,0.00,0.00,0.10,1.32,5.82,0.00,-0.24,-0.17,0.10,29.99,8.70,1.34
55212449,0.110,-0.024,1.027,-0.07,-0.01,0.05,-1.36,-5.97,989,1100,1000,1000,1000,1000,0,1500,1500,989,1500,991,0.00,0.00,0.10,1.32,5.82,0.00,-0.24,-0.17,0.10,29.99,8.70,1.34
55216449,0.108,-0.026,1.030,-0.06,-0.02,0.05,-1.38,-6.00,989,1100,1000,1000,1000,1000,0,1500,1500,989,1500,989,0.00,0.00,0.10,1.32,5.82,0.00,-0.24,-0.17,0.10,29.99,8.70,1.34
55220449,0.106,-0.028,1.030,-0.04,-0.03,0.05,-1.42,-5.98,989,1100,1000,1000,1000,1000,0,1500,1500,989,1500,990,0.00,0.00,0.10,1.32,5.82,0.00,-0.24,-0.17,0.10,29.99,8.70,1.34
55224449,0.104,-0.029,1.030,-0.06,-0.02,0.06,-1.45,-5.95,989,1100,1000,1000,1000,1000,0,1500,1500,989,1500,992,0.00,0.00,0.10,1.32,5.82,0.00,-0.24,-0.17,0.10,29.99,8.70,1.34
55228449,0.103,-0.029,1.031,-0.07,-0.01,0.06,-1.48,-5.91,989,1100,1000,1000,1000,1000,0,1500,1500,989,1500,991,0.00,0.00,0.10,1.32,5.82,0.00,-0.24,-0.17,0.10,29.99,8.70,1.34
55232449,0.103,-0.028,1.035,-0.08,-0.00,0.05,-1.50,-5.87,989,1100,1000,1000,1000,1000,0,1500,1500,989,1500,989,0.00,0.00,0.10,1.32,5.82,0.00,-0.24,-0.17,0.10,29.99,8.70,1.34
55236449,0.104,-0.027,1.037,-0.08,-0.01,0.05,-1.50,-5.82,989,1100,1000,1000,1000,1000,0,1500,1500,989,1500,992,0.00,0.00,0.10,1.32,5.82,0.00,-0.24,-0.17,0.10,29.99,8.70,1.34
55240449,0.105,-0.025,1.036,-0.07,-0.02,0.04,-1.47,-5.79,989,1100,1000,1000,1000,1000,0,1500,1500,989,1500,4992,0.00,0.00,0.10,1.32,5.82,0.00,-0.24,-0.17,0.10,29.99,8.70,1.34
55244449,0.105,-0.023,1.034,-0.07,-0.03,0.04,-1.43,-5.79,989,1100,1000,1000,1000,1000,0,1500,1500,989,1500,992,0.00,0.00,0.10,1.32,5.82,0.00,-0.24,-0.17,0.10,29.99,8.70,1.34
55248449,0.104,-0.023,1.035,-0.06,-0.00,0.03,-1.38,-5.78,989,1100,1000,1000,1000,1000,0,1500,1500,989,1500,990,0.00,0.00,0.10,1.32,5.82,0.00,-0.24,-0.17,0.10,29.99,8.70,1.34
55252449,0.103,-0.023,1.032,-0.06,0.00,0.04,-1.35,-5.75,989,1100,1000,1000,1000,1000,0,1500,1500,989,1500,991,0.00,0.00,0.10,1.32,5.82,0.00,-0.24,-0.17,0.10,29.99,8.70,1.34
55256449,0.101,-0.024,1.029,-0.06,0.01,0.04,-1.34,-5.71,989,1100,1000,1000,1000,1000,0,1500,1500,989,1500,991,0.00,0.00,0.10,1.32,5.82,0.00,-0.24,-0.17,0.10,29.99,8.70,1.34
55260449,0.102,-0.022,1.026,-0.06,0.00,0.04,-1.31,-5.68,989,1100,1000,1000,1000,1000,0,1500,1500,989,1500,991,0.00,0.00,0.10,1.32,5.82,0.00,-0.24,-0.17,0.10,29.99,8.70,1.34
55264449,0.103,-0.021,1.023,-0.07,0.00,0.04,-1.27,-5.70,989,1100,1000,1000,1000,1000,0,1500,1500,989,1500,991,0.00,0.00,0.10,1.32,5.82,0.00,-0.24,-0.17,0.10,29.99,8.70,1.34
55268449,0.105,-0.021,1.026,-0.09,-0.01,0.04,-1.24,-5.73,989,1100,1000,1000,1000,1000,0,1500,1500,989,1500,4294967287,0.00,0.00,0.10,1.32,5.82,0.00,-0.24,-0.17,0.10,29.99,8.70,1.34
55272449,0.105,-0.022,1.029,-0.09,-0.01,0.04,-1.22,-5.78,989,1100,1000,1000,1000,1000,0,1500,1500,989,1500,991,0.00,0.00,0.10,1.32,5.82,0.00,-0.24,-0.17,0.10,29.99,8.70,1.34
55276449,0.103,-0.022,1.033,-0.10,-0.03,0.06,-1.21,-5.75,989,1100,1000,1000,1000,1000,0,1500,1500,989,1500,990,0.00,0.00,0.10,1.32,5.82,0.00,-0.24,-0.17,0.10,29.99,8.70,1.34
55280449,0.101,-0.023,1.032,-0.11,-0.03,0.06,-1.22,-5.70,989,1100,1000,1000,1000,1000,0,1500,1500,989,1500,991,0.00,0.00,0.10,1.32,5.82,0.00,-0.24,-0.17,0.10,29.99,8.70,1.34
55284449,0.100,-0.024,1.030,-0.09,-0.02,0.05,-1.25,-5.67,989,1100,1000,1000,1000,1000,0,1500,1500,989,1500,990,0.00,0.00,0.10,1.32,5.82,0.00,-0.24,-0.17,0.10,29.99,8.70,1.34
55288449,0.101,-0.024,1.029,-0.07,-0.00,0.06,-1.28,-5.64,989,1100,1000,1000,1000,1000,0,1500,1500,989,1500,990,0.00,0.00,0.10,1.32,5.82,0.00,-0.24,-0.17,0.10,29.99,8.70,1.34
55292449,0.106,-0.023,1.028,-0.04,0.01,0.08,-1.29,-5.68,989,1100,1000,1000,1000,1000,0,1500,1500,989,1500,992,0.00,0.00,0.10,1.32,5.82,0.00,-0.24,-0.17,0.10,29.99,8.70,1.34
55296449,0.109,-0.021,1.027,-0.03,0.01,0.10,-1.28,-5.72,989,1100,1000,1000,1000,1000,0,1500,1500,989,1500,991,0.00,0.00,0.10,1.32,5.82,0.00,-0.24,-0.17,0.10,29.99,8.70,1.34
55300449,0.111,-0.021,1.029,-0.04,0.01,0.11,-1.27,-5.76,989,1100,1000,1000,1000,1000,0,1500,1500,989,1500,989,0.00,0.00,0.10,1.32,5.82,0.00,-0.24,-0.17,0.10,29.99,8.70,1.34
55304449,0.113,-0.022,1.028,-0.05,0.01,0.09,-1.26,-5.81,989,1100,1000,1000,1000,1000,0,1500,1500,989,1500,989,0.00,0.00,0.10,1.32,5.82,0.00,-0.24,-0.17,0.10,29.99,8.70,1.34
55308449,0.112,-0.025,1.027,-0.04,0.02,0.08,-1.27,-5.85,989,1100,1000,1000,1000,1000,0,1500,1500,989,1500,992,0.00,0.00,0.10,1.32,5.82,0.00,-0.24,-0.17,0.10,29.99,8.70,1.34
55312449,0.111,-0.025,1.027,-0.03,0.02,0.07,-1.28,-5.90,989,1100,1000,1000,1000,1000,0,1500,1500,989,1500,989,0.00,0.00,0.10,1.32,5.82,0.00,-0.24,-0.17,0.10,29.99,8.70,1.34
55316449,0.110,-0.025,1.028,-0.05,0.01,0.05,-1.30,-5.94,989,1100,1000,1000,1000,1000,0,1500,1500,989,1500,989,0.00,0.00,0.10,1.32,5.82,0.00,-0.24,-0.17,0.10,29.99,8.70,1.34
55320449,0.109,-0.024,1.029,-0.05,-0.00,0.04,-1.31,-5.98,989,1100,1000,1000,1000,1000,0,1500,1500,989,1500,992,0.00,0.00,0.10,1.32,5.82,0.00,-0.24,-0.17,0.10,29.99,8.70,1.34
55324449,0.108,-0.023,1.028,-0.03,0.01,0.03,-1.28,-5.99,989,1100,1000,1000,1000,1000,0,1500,1500,989,1500,992,0.00,0.00,0.10,1.32,5.82,0.00,-0.24,-0.17,0.10,29.99,8.70,1.34
55328449,0.108,-0.023,1.031,-0.05,-0.01,0.04,-1.27,-6.01,989,1100,1000,1000,1000,1000,0,1500,1500,989,1500,990,0.00,0.00,0.10,1.32,5.82,0.00,-0.24,-0.17,0.10,29.99,8.70,1.34
55332449,0.110,-0.024,1.033,-0.05,-0.00,0.07,-1.30,-6.04,989,1100,1000,1000,1000,1000,0,1500,1500,989,1500,991,0.00,0.00,0.10,1.32,5.82,0.00,-0.24,-0.17,0.10,29.99,8.70,1.34
55336449,0.110,-0.026,1.035,-0.04,-0.01,0.07,-1.35,-6.05,989,1100,1000,1000,1000,1000,0,1500,1500,989,1500,991,0.00,0.00,0.10,1.32,5.82,0.00,-0.24,-0.17,0.10,29.99,8.70,1.34
55340449,0.113,-0.028,1.034,-0.04,-0.01,0.06,-1.38,-6.08,989,1100,1000,1000,1000,1000,0,1500,1500,989,1500,4991,0.00,0.00,0.10,1.32,5.82,0.00,-0.24,-0.17,0.10,29.99,8.70,1.34
55344449,0.112,-0.028,1.035,-0.06,-0.02,0.05,-1.42,-6.11,989,1100,1000,1000,1000,1000,0,1500,1500,989,1500,8991,0.00,0.00,0.10,1.32,5.82,0.00,-0.24,-0.17,0.10,29.99,8.70,1.34
55348449,0.110,-0.028,1.033,-0.07,-0.02,0.06,-1.46,-6.11,989,1100,1000,1000,1000,1000,0,1500,1500,989,1500,992,0.00,0.00,0.10,1.32,5.82,0.00,-0.24,-0.17,0.10,29.99,8.70,1.34
55352449,0.107,-0.026,1.031,-0.07,-0.01,0.04,-1.48,-6.07,989,1100,1000,1000,1000,1000,0,1500,1500,989,1500,991,0.00,0.00,0.10,1.32,5.82,0.00,-0.24,-0.17,0.10,29.99,8.70,1.34
55356449,0.107,-0.025,1.030,-0.07,-0.00,0.05,-1.46,-6.03,989,1100,1000,1000,1000,1000,0,1500,1500,989,1500,988,0.00,0.00,0.10,1.32,5.82,0.00,-0.24,-0.17,0.10,29.99,8.70,1.34
55360449,0.107,-0.025,1.030,-0.06,0.00,0.05,-1.43,-5.99,989,1100,1000,1000,1000,1000,0,1500,1500,989,1500,992,0.00,0.00,0.10,1.32,5.82,0.00,-0.24,-0.17,0.10,29.99,8.70,1.34
55364449,0.108,-0.024,1.031,-0.05,-0.00,0.04,-1.39,-5.98,989,1100,1000,1000,1000,1000,0,1500,1500,989,1500,4992,0.00,0.00,0.10,1.32,5.82,0.00,-0.24,-0.17,0.10,29.99,8.70,1.34
55368449,0.108,-0.024,1.031,-0.04,-0.01,0.03,-1.34,-5.97,989,1100,1000,1000,1000,1000,0,1500,1500,989,1500,992,0.00,0.00,0.10,1.32,5.82,0.00,-0.24,-0.17,0.10,29.99,8.70,1.34
55372449,0.105,-0.026,1.030,-0.03,-0.00,0.06,-1.36,-5.93,989,1100,1000,1000,1000,1000,0,1500,1500,989,1500,990,0.00,0.00,0.10,1.32,5.82,0.00,-0.24,-0.17,0.10,29.99,8.70,1.34
55376449,0.104,-0.027,1.028,-0.01,-0.01,0.07,-1.39,-5.90,989,1100,1000,1000,1000,1000,0,1500,1500,989,1500,991,0.00,0.00,0.10,1.32,5.82,0.00,-0.24,-0.17,0.10,29.99,8.70,1.34
55380449,0.103,-0.027,1.026,-0.01,-0.01,0.08,-1.42,-5.86,989,1100,1000,1000,1000,1000,0,1500,1500,989,1500,991,0.00,0.00,0.10,1.32,5.82,0.00,-0.24,-0.17,0.10,29.99,8.70,1.34
55384449,0.102,-0.026,1.025,-0.03,-0.02,0.07,-1.42,-5.81,989,1100,1000,1000,1000,1000,0,1500,1500,989,1500,989,0.00,0.00,0.10,1.32,5.82,0.00,-0.24,-0.17,0.10,29.99,8.70,1.34
55388449,0.102,-0.024,1.027,-0.04,-0.01,0.06,-1.41,-5.77,989,1100,1000,1000,1000,1000,0,1500,1500,989,1500,990,0.00,0.00,0.10,1.32,5.82,0.00,-0.24,-0.17,0.10,29.99,8.70,1.34
55392449,0.103,-0.021,1.026,-0.05,0.00,0.06,-1.36,-5.76,989,1100,1000,1000,1000,1000,0,1500,1500,989,1500,989,0.00,0.00,0.10,1.32,5.82,0.00,-0.24,-0.17,0.10,29.99,8.70,1.34
55396449,0.103,-0.023,1.025,-0.04,0.01,0.05,-1.32,-5.75,989,1100,1000,1000,1000,1000,0,1500,1500,989,1500,992,0.00,0.00,0.10,1.32,5.82,0.00,-0.24,-0.17,0.10,29.99,8.70,1.34
55400449,0.103,-0.025,1.024,-0.05,0.00,0.04,-1.33,-5.74,989,1100,1000,1000,1000,1000,0,1500,1500,989,1500,990,0.00,0.00,0.10,1.32,5.82,0.00,-0.24,-0.17,0.10,29.99,8.70,1.34
55404449,0.104,-0.027,1.022,-0.05,0.01,0.04,-1.38,-5.75,989,1100,1000,1000,1000,1000,0,1500,1500,989,1500,991,0.00,0.00,0.10,1.32,5.82,0.00,-0.24,-0.17,0.10,29.99,8.70,1.34
55408449,0.106,-0.028,1.023,-0.06,-0.00,0.03,-1.42,-5.77,989,1100,1000,1000,1000,1000,0,1500,1500,989,1500,991,0.00,0.00,0.10,1.32,5.82,0.00,-0.24,-0.17,0.10,29.99,8.70,1.34
55412449,0.109,-0.029,1.022,-0.07,-0.01,0.03,-1.45,-5.81,989,1100,1000,1000,1000,1000,0,1500,1500,989,1500,990,0.00,0.00,0.10,1.32,5.82,0.00,-0.24,-0.17,0.10,29.99,8.70,1.34
55416449,0.109,-0.029,1.022,-0.06,-0.01,0.05,-1.47,-5.85,989,1100,1000,1000,1000,1000,0,1500,1500,989,1500,989,0.00,0.00,0.10,1.32,5.82,0.00,-0.24,-0.17,0.10,29.99,8.70,1.34
55420449,0.110,-0.030,1.022,-0.05,-0.00,0.06,-1.50,-5.88,989,1100,1000,1000,1000,1000,0,1500,1500,989,1500,990,0.00,0.00,0.10,1.32,5.82,0.00,-0.24,-0.17,0.10,29.99,8.70,1.34
55424449,0.110,-0.031,1.021,-0.05,0.01,0.07,-1.53,-5.92,989,1100,1000,1000,1000,1000,0,1500,1500,989,1500,990,0.00,0.00,0.10,1.32,5.82,0.00,-0.24,-0.17,0.10,29.99,8.70,1.34
55428449,0.109,-0.031,1.022,-0.06,0.01,0.06,-1.56,-5.95,989,1100,1000,1000,1000,1000,0,1500,1500,989,1500,992,0.00,0.00,0.10,1.32,5.82,0.00,-0.24,-0.17,0.10,29.99,8.70,1.34
55432449,0.108,-0.031,1.023,-0.06,0.01,0.06,-1.60,-5.98,989,1100,1000,1000,1000,1000,0,1500,1500,989,1500,991,0.00,0.00,0.10,1.32,5.82,0.00,-0.24,-0.17,0.10,29.99,8.70,1.34
55436449,0.107,-0.029,1.026,-0.06,0.00,0.06,-1.63,-5.97,989,1100,1000,1000,1000,1000,0,1500,1500,989,1500,989,0.00,0.00,0.10,1.32,5.82,0.00,-0.24,-0.17,0.10,29.99,8.70,1.34
55440449,0.105,-0.027,1.026,-0.05,0.00,0.06,-1.60,-5.94,989,1100,1000,1000,1000,1000,0,1500,1500,989,1500,991,0.00,0.00,0.10,1.32,5.82,0.00,-0.24,-0.17,0.10,29.99,8.70,1.34
55444449,0.105,-0.025,1.027,-0.06,0.01,0.06,-1.56,-5.92,989,1100,1000,1000,1000,1000,0,1500,1500,989,1500,990,0.00,0.00,0.10,1.32,5.82,0.00,-0.24,-0.17,0.10,29.99,8.70,1.34
55448449,0.106,-0.023,1.028,-0.05,0.01,0.06,-1.51,-5.91,989,1100,1000,1000,1000,1000,0,1500,1500,989,1500,992,0.00,0.00,0.10,1.32,5.82,0.00,-0.24,-0.17,0.10,29.99,8.70,1.34
55452449,0.106,-0.022,1.028,-0.05,0.00,0.06,-1.47,-5.91,989,1100,1000,1000,1000,1000,0,1500,1500,989,1500,990,0.00,0.00,0.10,1.32,5.82,0.00,-0.24,-0.17,0.10,29.99,8.70,1.34
55456449,0.104,-0.023,1.025,-0.05,0.00,0.07,-1.43,-5.89,989,1100,1000,1000,1000,1000,0,1500,1500,989,1500,990,0.00,0.00,0.10,1.32,5.82,0.00,-0.24,-0.17,0.10,29.99,8.70,1.34
55460449,0.104,-0.023,1.021,-0.05,0.00,0.08,-1.39,-5.87,989,1100,1000,1000,1000,1000,0,1500,1500,989,1500,992,0.00,0.00,0.10,1.32,5.82,0.00,-0.24,-0.17,0.10,29.99,8.70,1.34
55464449,0.105,-0.025,1.019,-0.05,0.00,0.09,-1.39,-5.86,989,1100,1000,1000,1000,1000,0,1500,1500,989,1500,990,0.00,0.00,0.10,1.32,5.82,0.00,-0.24,-0.17,0.10,29.99,8.70,1.34
55468449,0.106,-0.025,1.018,-0.04,-0.01,0.08,-1.42,-5.88,989,1100,1000,1000,1000,1000,0,1500,1500,989,1500,991,0.00,0.00,0.10,1.32,5.82,0.00,-0.24,-0.17,0.10,29.99,8.70,1.34
55472449,0.109,-0.025,1.019,-0.02,-0.00,0.07,-1.42,-5.93,989,1100,1000,1000,1000,1000,0,1500,1500,989,1500,1991,0.00,0.00,0.10,1.32,5.82,0.00,-0.24,-0.17,0.10,29.99,8.70,1.34
55476449,0.111,-0.025,1.022,-0.02,0.00,0.05,-1.42,-5.98,989,1100,1000,1000,1000,1000,0,1500,1500,989,1500,992,0.00,0.00,0.10,1.32,5.82,0.00,-0.24,-0.17,0.10,29.99,8.70,1.34
55480449,0.112,-0.026,1.025,-0.02,-0.01,0.04,-1.42,-6.02,989,1100,1000,1000,1000,1000,0,1500,1500,989,1500,991,0.00,0.00,0.10,1.32,5.82,0.00,-0.24,-0.17,0.10,29.99,8.70,1.34
55484449,0.111,-0.023,1.027,-0.02,0.02,0.03,-1.41,-6.06,989,1100,1000,1000,1000,1000,0,1500,1500,989,1500,989,0.00,0.00,0.10,1.32,5.82,0.00,-0.24,-0.17,0.10,29.99,8.70,1.34
55488449,0.111,-0.020,1.027,-0.03,0.01,0.03,-1.36,-6.08,989,1100,1000,1000,1000,1000,0,1500,1500,989,1500,990,0.00,0.00,0.10,1.32,5.82,0.00,-0.24,-0.17,0.10,29.99,8.70,1.34
55492449,0.109,-0.019,1.025,-0.03,-0.01,0.05,-1.32,-6.08,989,1100,1000,1000,1000,1000,0,1500,1500,989,1500,992,0.00,0.00,0.10,1.32,5.82,0.00,-0.24,-0.17,0.10,29.99,8.70,1.34
55496449,0.107,-0.017,1.025,-0.02,-0.00,0.06,-1.27,-6.07,989,1100,1000,1000,1000,1000,0,1500,1500,989,1500,991,0.00,0.00,0.10,1.32,5.82,0.00,-0.24,-0.17,0.10,29.99,8.70,1.34
55500449,0.106,-0.017,1.026,-0.04,0.00,0.07,-1.23,-6.05,989,1100,1000,1000,1000,1000,0,1500,1500,989,1500,988,0.00,0.00,0.10,1.32,5.82,0.00,-0.24,-0.17,0.10,29.99,8.70,1.34
55504449,0.103,-0.017,1.027,-0.03,-0.02,0.08,-1.20,-6.02,989,1100,1000,1000,1000,1000,0,1500,1500,989,1500,992,0.00,0.00,0.10,1.32,5.82,0.00,-0.24,-0.17,0.10,29.99,8.70,1.34
55508449,0.102,-0.017,1.029,-0.05,-0.05,0.07,-1.17,-5.99,989,1100,1000,1000,1000,1000,0,1500,1500,989,1500,992,0.00,0.00,0.10,1.32,5.82,0.00,-0.24,-0.17,0.10,29.99,8.70,1.34
55512449,0.103,-0.017,1.031,-0.05,-0.04,0.06,-1.14,-5.95,989,1100,1000,1000,1000,1000,0,1500,1500,989,1500,989,0.00,0.00,0.10,1.32,5.82,0.00,-0.24,-0.17,0.10,29.99,8.70,1.34
55516449,0.106,-0.019,1.031,-0.07,-0.02,0.05,-1.11,-5.92,989,1100,1000,1000,1000,1000,0,1500,1500,989,1500,990,0.00,0.00,0.10,1.32,5.82,0.00,-0.24,-0.17,0.10,29.99,8.70,1.34
55520449,0.108,-0.019,1.034,-0.07,-0.03,0.05,-1.09,-5.94,989,1100,1000,1000,1000,1000,0,1500,1500,989,1500,991,0.00,0.00,0.10,1.32,5.82,0.00,-0.24,-0.17,0.10,29.99,8.70,1.34
55524449,0.109,-0.019,1.037,-0.05,-0.03,0.05,-1.07,-5.99,989,1100,1000,1000,1000,1000,0,1500,1500,989,1500,990,0.00,0.00,0.10,1.32,5.82,0.00,-0.24,-0.17,0.10,29.99,8.70,1.34
55528449,0.107,-0.020,1.034,-0.06,-0.03,0.05,-1.08,-5.98,989,1100,1000,1000,1000,1000,0,1500,1500,989,1500,991,0.00,0.00,0.10,1.32,5.82,0.00,-0.24,-0.17,0.10,29.99,8.70,1.34
55532449,0.104,-0.021,1.031,-0.06,-0.03,0.06,-1.10,-5.93,989,1100,1000,1000,1000,1000,0,1500,1500,989,1500,4991,0.00,0.00,0.10,1.32,5.82,0.00,-0.24,-0.17,0.10,29.99,8.70,1.34
55536449,0.103,-0.022,1.029,-0.06,-0.04,0.06,-1.13,-5.89,989,1100,1000,1000,1000,1000,0,1500,1500,989,1500,988,0.00,0.00,0.10,1.32,5.82,0.00,-0.24,-0.17,0.10,29.99,8.70,1.34
55540449,0.103,-0.022,1.030,-0.04,-0.02,0.05,-1.15,-5.85,989,1100,1000,1000,1000,1000,0,1500,1500,989,1500,990,0.00,0.00,0.10,1.32,5.82,0.00,-0.24,-0.17,0.10,29.99,8.70,1.34
55544449,0.104,-0.022,1.033,-0.04,-0.01,0.08,-1.17,-5.81,989,1100,1000,1000,1000,1000,0,1500,1500,989,1500,992,0.00,0.00,0.10,1.32,5.82,0.00,-0.24,-0.17,0.10,29.99,8.70,1.34
55548449,0.104,-0.021,1.036,-0.04,-0.03,0.09,-1.17,-5.77,989,1100,1000,1000,1000,1000,0,1500,1500,989,1500,991,0.00,0.00,0.10,1.32,5.82,0.00,-0.24,-0.17,0.10,29.99,8.70,1.34
55552449,0.106,-0.023,1.038,-0.04,-0.03,0.09,-1.21,-5.79,989,1100,1000,1000,1000,1000,0,1500,1500,989,1500,989,0.00,0.00,0.10,1.32,5.82,0.00,-0.24,-0.17,0.10,29.99,8.70,1.34
55556449,0.108,-0.023,1.038,-0.04,-0.03,0.07,-1.23,-5.83,989,1100,1000,1000,1000,1000,0,1500,1500,989,1500,992,0.00,0.00,0.10,1.32,5.82,0.00,-0.24,-0.17,0.10,29.99,8.70,1.34
55560449,0.107,-0.024,1.035,-0.06,-0.02,0.06,-1.26,-5.86,989,1100,1000,1000,1000,1000,0,1500,1500,989,1500,4992,0.00,0.00,0.10,1.32,5.82,0.00,-0.24,-0.17,0.10,29.99,8.70,1.34
55564449,0.106,-0.023,1.031,-0.06,-0.01,0.06,-1.29,-5.85,989,1100,1000,1000,1000,1000,0,1500,1500,989,1500,8992,0.00,0.00,0.10,1.32,5.82,0.00,-0.24,-0.17,0.10,29.99,8.70,1.34
55568449,0.104,-0.023,1.033,-0.08,-0.03,0.05,-1.29,-5.80,989,1100,1000,1000,1000,1000,0,1500,1500,989,1500,990,0.00,0.00,0.10,1.32,5.82,0.00,-0.24,-0.17,0.10,29.99,8.70,1.34
55572449,0.103,-0.023,1.032,-0.09,-0.01,0.07,-1.29,-5.76,989,1100,1000,1000,1000,1000,0,1500,1500,989,1500,989,0.00,0.00,0.10,1.32,5.82,0.00,-0.24,-0.17,0.10,29.99,8.70,1.34
55576449,0.101,-0.023,1.034,-0.08,-0.02,0.07,-1.29,-5.71,989,1100,1000,1000,1000,1000,0,1500,1500,989,1500,4989,0.00,0.00,0.10,1.32,5.82,0.00,-0.24,-0.17,0.10,29.99,8.70,1.34
55580449,0.100,-0.020,1.038,-0.05,-0.01,0.09,-1.27,-5.67,989,1100,1000,1000,1000,1000,0,1500,1500,989,1500,8989,0.00,0.00,0.10,1.32,5.82,0.00,-0.24,-0.17,0.10,29.99,8.70,1.34
55584449,0.101,-0.019,1.041,-0.05,0.00,0.08,-1.23,-5.65,989,1100,1000,1000,1000,1000,0,1500,1500,989,1500,12989,0.00,0.00,0.10,1.32,5.82,0.00,-0.24,-0.17,0.10,29.99,8.70,1.34
55588449,0.103,-0.019,1.041,-0.03,-0.02,0.08,-1.18,-5.64,989,1100,1000,1000,1000,1000,0,1500,1500,989,1500,16989,0.00,0.00,0.10,1.32,5.82,0.00,-0.24,-0.17,0.10,29.99,8.70,1.34
55592449,0.104,-0.020,1.039,-0.05,-0.03,0.08,-1.15,-5.67,989,1100,1000,1000,1000,1000,0,1500,1500,989,1500,20989,0.00,0.00,0.10,1.32,5.82,0.00,-0.24,-0.17,0.10,29.99,8.70,1.34
55596449,0.104,-0.020,1.040,-0.07,-0.03,0.07,-1.13,-5.71,989,1100,1000,1000,1000,1000,0,1500,1500,989,1500,990,0.00,0.00,0.10,1.32,5.82,0.00,-0.24,-0.17,0.10,29.99,8.70,1.34
55600449,0.102,-0.019,1.039,-0.07,-0.04,0.06,-1.10,-5.68,989,1100,1000,1000,1000,1000,0,1500,1500,989,1500,991,0.00,0.00,0.10,1.32,5.82,0.00,-0.24,-0.17,0.10,29.99,8.70,1.34
55604449,0.101,-0.018,1.034,-0.09,-0.06,0.07,-1.07,-5.64,989,1100,1000,1000,1000,1000,0,1500,1500,989,1500,990,0.00,0.00,0.10,1.32,5.82,0.00,-0.24,-0.17,0.10,29.99,8.70,1.34
55608449,0.100,-0.019,1.031,-0.09,-0.07,0.08,-1.05,-5.61,989,1100,1000,1000,1000,1000,0,1500,1500,989,1500,991,0.00,0.00,0.10,1.32,5.82,0.00,-0.24,-0.17,0.10,29.99,8.70,1.34
55612449,0.101,-0.019,1.030,-0.11,-0.06,0.08,-1.05,-5.58,989,1100,1000,1000,1000,1000,0,1500,1500,989,1500,988,0.00,0.00,0.10,1.32,5.82,0.00,-0.24,-0.17,0.10,29.99,8.70,1.34
55616449,0.103,-0.019,1.029,-0.12,-0.06,0.07,-1.06,-5.62,989,1100,1000,1000,1000,1000,0,1500,1500,989,1500,989,0.00,0.00,0.10,1.32,5.82,0.00,-0.24,-0.17,0.10,29.99,8.70,1.34
55620449,0.105,-0.019,1.024,-0.11,-0.07,0.05,-1.07,-5.67,989,1100,1000,1000,1000,1000,0,1500,1500,989,1500,992,0.00,0.00,0.10,1.32,5.82,0.00,-0.24,-0.17,0.10,29.99,8.70,1.34
55624449,0.106,-0.021,1.021,-0.12,-0.07,0.06,-1.08,-5.71,989,1100,1000,1000,1000,1000,0,1500,1500,989,1500,990,0.00,0.00,0.10,1.32,5.82,0.00,-0.24,-0.17,0.10,29.99,8.70,1.34
55628449,0.105,-0.022,1.022,-0.11,-0.09,0.05,-1.11,-5.75,989,1100,1000,1000,1000,1000,0,1500,1500,989,1500,991,0.00,0.00,0.10,1.32,5.82,0.00,-0.24,-0.17,0.10,29.99,8.70,1.34
55632449,0.104,-0.024,1.022,-0.11,-0.11,0.06,-1.15,-5.77,989,1100,1000,1000,1000,1000,0,1500,1500,989,1500,991,0.00,0.00,0.10,1.32,5.82,0.00,-0.24,-0.17,0.10,29.99,8.70,1.34
55636449,0.105,-0.024,1.023,-0.11,-0.11,0.05,-1.19,-5.79,989,1100,1000,1000,1000,1000,0,1500,1500,989,1500,991,0.00,0.00,0.10,1.32,5.82,0.00,-0.24,-0.17,0.10,29.99,8.70,1.34
55640449,0.105,-0.023,1.024,-0.11,-0.12,0.04,-1.23,-5.82,989,1100,1000,1000,1000,1000,0,1500,1500,989,1500,991,0.00,0.00,0.10,1.32,5.82,0.00,-0.24,-0.17,0.10,29.99,8.70,1.34
55644449,0.105,-0.022,1.025,-0.11,-0.14,0.03,-1.24,-5.86,989,1100,1000,1000,1000,1000,0,1500,1500,989,1500,989,0.00,0.00,0.10,1.32,5.82,0.00,-0.24,-0.17,0.10,29.99,8.70,1.34
55648449,0.107,-0.023,1.027,-0.12,-0.14,0.04,-1.27,-5.90,989,1100,1000,1000,1000,1000,0,1500,1500,989,1500,989,0.00,0.00,0.10,1.32,5.82,0.00,-0.24,-0.17,0.10,29.99,8.70,1.34
55652449,0.107,-0.022,1.027,-0.11,-0.14,0.04,-1.27,-5.94,989,1100,1000,1000,1000,1000,0,1500,1500,989,1500,992,0.00,0.00,0.10,1.32,5.82,0.00,-0.24,-0.17,0.10,29.99,8.70,1.34
55656449,0.106,-0.022,1.027,-0.11,-0.12,0.03,-1.23,-5.93,989,1100,1000,1000,1000,1000,0,1500,1500,989,1500,990,0.00,0.00,0.10,1.32,5.82,0.00,-0.24,-0.17,0.10,29.99,8.70,1.34
55660449,0.106,-0.022,1.027,-0.12,-0.11,0.04,-1.21,-5.91,989,1100,1000,1000,1000,1000,0,1500,1500,989,1500,991,0.00,0.00,0.10,1.32,5.82,0.00,-0.24,-0.17,0.10,29.99,8.70,1.34
55664449,0.107,-0.023,1.025,-0.12,-0.10,0.04,-1.23,-5.94,989,1100,1000,1000,1000,1000,0,1500,1500,989,1500,990,0.00,0.00,0.10,1.32,5.82,0.00,-0.24,-0.17,0.10,29.99,8.70,1.34
55668449,0.109,-0.024,1.024,-0.11,-0.09,0.03,-1.26,-5.97,989,1100,1000,1000,1000,1000,0,1500,1500,989,1500,992,0.00,0.00,0.10,1.32,5.82,0.00,-0.24,-0.17,0.10,29.99,8.70,1.34
55672449,0.110,-0.025,1.027,-0.09,-0.08,0.02,-1.29,-6.01,989,1100,1000,1000,1000,1000,0,1500,1500,989,1500,990,0.00,0.00,0.10,1.32,5.82,0.00,-0.24,-0.17,0.10,29.99,8.70,1.34
55676449,0.111,-0.026,1.030,-0.08,-0.09,0.02,-1.33,-6.04,989,1100,1000,1000,1000,1000,0,1500,1500,989,1500,990,0.00,0.00,0.10,1.32,5.82,0.00,-0.24,-0.17,0.10,29.99,8.70,1.34
55680449,0.110,-0.027,1.035,-0.10,-0.07,0.03,-1.37,-6.05,989,1100,1000,1000,1000,1000,0,1500,1500,989,1500,991,0.00,0.00,0.10,1.32,5.82,0.00,-0.24,-0.17,0.10,29.99,8.70,1.34
55684449,0.111,-0.027,1.035,-0.11,-0.08,0.04,-1.41,-6.07,989,1100,1000,1000,1000,1000,0,1500,1500,989,1500,991,0.00,0.00,0.10,1.32,5.82,0.00,-0.24,-0.17,0.10,29.99,8.70,1.34
55688449,0.112,-0.027,1.033,-0.10,-0.07,0.03,-1.44,-6.10,989,1100,1000,1000,1000,1000,0,1500,1500,989,1500,989,0.00,0.00,0.10,1.32,5.82,0.00,-0.24,-0.17,0.10,29.99,8.70,1.34
55692449,0.109,-0.027,1.030,-0.07,-0.07,0.04,-1.47,-6.10,989,1100,1000,1000,1000,1000,0,1500,1500,989,1500,990,0.00,0.00,0.10,1.32,5.82,0.00,-0.24,-0.17,0.10,29.99,8.70,1.34
55696449,0.104,-0.026,1.026,-0.05,-0.05,0.04,-1.47,-6.05,989,1100,1000,1000,1000,1000,0,1500,1500,989,1500,991,0.00,0.00,0.10,1.32,5.82,0.00,-0.24,-0.17,0.10,29.99,8.70,1.34
55700449,0.099,-0.024,1.028,-0.06,-0.04,0.04,-1.46,-6.01,989,1100,1000,1000,1000,1000,0,1500,1500,989,1500,990,0.00,0.00,0.10,1.32,5.82,0.00,-0.24,-0.17,0.10,29.99,8.70,1.34
55704449,0.099,-0.025,1.033,-0.06,-0.03,0.04,-1.45,-5.96,989,1100,1000,1000,1000,1000,0,1500,1500,989,1500,991,0.00,0.00,0.10,1.32,5.82,0.00,-0.24,-0.17,0.10,29.99,8.70,1.34
55708449,0.101,-0.027,1.038,-0.07,-0.02,0.05,-1.46,-5.92,989,1100,1000,1000,1000,1000,0,1500,1500,989,1500,990,0.00,0.00,0.10,1.32,5.82,0.00,-0.24,-0.17,0.10,29.99,8.70,1.34
55712449,0.104,-0.028,1.037,-0.05,-0.03,0.06,-1.47,-5.87,989,1100,1000,1000,1000,1000,0,1500,1500,989,1500,989,0.00,0.00,0.10,1.32,5.82,0.00,-0.24,-0.17,0.10,29.99,8.70,1.34
55716449,0.108,-0.027,1.032,-0.07,-0.03,0.06,-1.49,-5.89,989,1100,1000,1000,1000,1000,0,1500,1500,989,1500,992,0.00,0.00,0.10,1.32,5.82,0.00,-0.24,-0.17,0.10,29.99,8.70,1.34
55720449,0.110,-0.027,1.028,-0.05,-0.04,0.06,-1.50,-5.94,989,1100,1000,1000,1000,1000,0,1500,1500,989,1500,991,0.00,0.00,0.10,1.32,5.82,0.00,-0.24,-0.17,0.10,29.99,8.70,1.34
55724449,0.108,-0.026,1.024,-0.03,-0.05,0.05,-1.48,-5.98,989,1100,1000,1000,1000,1000,0,1500,1500,989,1500,989,0.00,0.00,0.10,1.32,5.82,0.00,-0.24,-0.17,0.10,29.99,8.70,1.34
55728449,0.105,-0.025,1.025,-0.02,-0.05,0.04,-1.45,-5.95,989,1100,1000,1000,1000,1000,0,1500,1500,989,1500,989,0.00,0.00,0.10,1.32,5.82,0.00,-0.24,-0.17,0.10,29.99,8.70,1.34
55732449,0.104,-0.024,1.024,-0.04,-0.03,0.06,-1.43,-5.91,989,1100,1000,1000,1000,1000,0,1500,1500,989,1500,992,0.00,0.00,0.10,1.32,5.82,0.00,-0.24,-0.17,0.10,29.99,8.70,1.34
55736449,0.103,-0.026,1.024,-0.08,-0.03,0.06,-1.43,-5.86,989,1100,1000,1000,1000,1000,0,1500,1500,989,1500,990,0.00,0.00,0.10,1.32,5.82,0.00,-0.24,-0.17,0.10,29.99,8.70,1.34
55740449,0.104,-0.025,1.023,-0.10,-0.02,0.05,-1.42,-5.82,989,1100,1000,1000,1000,1000,0,1500,1500,989,1500,990,0.00,0.00,0.10,1.32,5.82,0.00,-0.24,-0.17,0.10,29.99,8.70,1.34
55744449,0.106,-0.022,1.024,-0.09,-0.00,0.04,-1.38,-5.84,989,1100,1000,1000,1000,1000,0,1500,1500,989,1500,990,0.00,0.00,0.10,1.32,5.82,0.00,-0.24,-0.17,0.10,29.99,8.70,1.34
55748449,0.108,-0.020,1.025,-0.08,-0.01,0.05,-1.34,-5.86,989,1100,1000,1000,1000,1000,0,1500,1500,989,1500,992,0.00,0.00,0.10,1.32,5.82,0.00,-0.24,-0.17,0.10,29.99,8.70,1.34
55752449,0.110,-0.020,1.025,-0.06,-0.01,0.07,-1.31,-5.89,989,1100,1000,1000,1000,1000,0,1500,1500,989,1500,991,0.00,0.00,0.10,1.32,5.82,0.00,-0.24,-0.17,0.10,29.99,8.70,1.34
55756449,0.110,-0.022,1.024,-0.04,-0.01,0.08,-1.29,-5.93,989,1100,1000,1000,1000,1000,0,1500,1500,989,1500,989,0.00,0.00,0.10,1.32,5.82,0.00,-0.24,-0.17,0.10,29.99,8.70,1.34
55760449,0.109,-0.026,1.023,-0.04,-0.02,0.07,-1.30,-5.97,989,1100,1000,1000,1000,1000,0,1500,1500,989,1500,989,0.00,0.00,0.10,1.32,5.82,0.00,-0.24,-0.17,0.10,29.99,8.70,1.34
55764449,0.108,-0.030,1.023,-0.05,-0.03,0.07,-1.35,-5.99,989,1100,1000,1000,1000,1000,0,1500,1500,989,1500,990,0.00,0.00,0.10,1.32,5.82,0.00,-0.24,-0.17,0.10,29.99,8.70,1.34
55768449,0.107,-0.033,1.023,-0.08,-0.03,0.07,-1.39,-5.99,989,1100,1000,1000,1000,1000,0,1500,1500,989,1500,989,0.00,0.00,0.10,1.32,5.82,0.00,-0.24,-0.17,0.10,29.99,8.70,1.34
55772449,0.108,-0.033,1.023,-0.09,-0.03,0.07,-1.44,-5.99,989,1100,1000,1000,1000,1000,0,1500,1500,989,1500,990,0.00,0.00,0.10,1.32,5.82,0.00,-0.24,-0.17,0.10,29.99,8.70,1.34
55776449,0.109,-0.030,1.020,-0.09,-0.02,0.06,-1.48,-6.00,989,1100,1000,1000,1000,1000,0,1500,1500,989,1500,992,0.00,0.00,0.10,1.32,5.82,0.00,-0.24,-0.17,0.10,29.99,8.70,1.34
55780449,0.111,-0.027,1.017,-0.07,-0.01,0.07,-1.50,-6.05,989,1100,1000,1000,1000,1000,0,1500,1500,989,1500,4992,0.00,0.00,0.10,1.32,5.82,0.00,-0.24,-0.17,0.10,29.99,8.70,1.34
55784449,0.111,-0.027,1.014,-0.05,-0.00,0.07,-1.50,-6.09,989,1100,1000,1000,1000,1000,0,1500,1500,989,1500,8992,0.00,0.00,0.10,1.32,5.82,0.00,-0.24,-0.17,0.10,29.99,8.70,1.34
55788449,0.108,-0.027,1.014,-0.05,0.00,0.06,-1.51,-6.11,989,1100,1000,1000,1000,1000,0,1500,1500,989,1500,991,0.00,0.00,0.10,1.32,5.82,0.00,-0.24,-0.17,0.10,29.99,8.70,1.34
55792449,0.106,-0.028,1.016,-0.04,0.01,0.06,-1.53,-6.07,989,1100,1000,1000,1000,1000,0,1500,1500,989,1500,989,0.00,0.00,0.10,1.32,5.82,0.00,-0.24,-0.17,0.10,29.99,8.70,1.34
55796449,0.105,-0.029,1.018,-0.03,0.00,0.05,-1.55,-6.03,989,1100,1000,1000,1000,1000,0,1500,1500,989,1500,990,0.00,0.00,0.10,1.32,5.82,0.00,-0.24,-0.17,0.10,29.99,8.70,1.34
55800449,0.104,-0.030,1.024,-0.01,0.01,0.06,-1.57,-5.99,989,1100,1000,1000,1000,1000,0,1500,1500,989,1500,992,0.00,0.00,0.10,1.32,5.82,0.00,-0.24,-0.17,0.10,29.99,8.70,1.34
55804449,0.103,-0.029,1.030,0.01,0.04,0.07,-1.59,-5.95,989,1100,1000,1000,1000,1000,0,1500,1500,989,1500,991,0.00,0.00,0.10,1.32,5.82,0.00,-0.24,-0.17,0.10,29.99,8.70,1.34
55808449,0.102,-0.026,1.036,-0.01,0.05,0.08,-1.58,-5.90,989,1100,1000,1000,1000,1000,0,1500,1500,989,1500,989,0.00,0.00,0.10,1.32,5.82,0.00,-0.24,-0.17,0.10,29.99,8.70,1.34
55812449,0.100,-0.023,1.037,-0.01,0.05,0.09,-1.55,-5.87,989,1100,1000,1000,1000,1000,0,1500,1500,989,1500,992,0.00,0.00,0.10,1.32,5.82,0.00,-0.24,-0.17,0.10,29.99,8.70,1.34
55816449,0.102,-0.021,1.035,-0.02,0.03,0.08,-1.52,-5.84,989,1100,1000,1000,1000,1000,0,1500,1500,989,1500,991,0.00,0.00,0.10,1.32,5.82,0.00,-0.24,-0.17,0.10,29.99,8.70,1.34
55820449,0.103,-0.020,1.031,-0.02,0.03,0.06,-1.48,-5.82,989,1100,1000,1000,1000,1000,0,1500,1500,989,1500,990,0.00,0.00,0.10,1.32,5.82,0.00,-0.24,-0.17,0.10,29.99,8.70,1.34
55824449,0.103,-0.020,1.026,-0.00,0.03,0.06,-1.43,-5.80,989,1100,1000,1000,1000,1000,0,1500,1500,989,1500,990,0.00,0.00,0.10,1.32,5.82,0.00,-0.24,-0.17,0.10,29.99,8.70,1.34
55828449,0.102,-0.022,1.024,-0.02,0.01,0.05,-1.39,-5.79,989,1100,1000,1000,1000,1000,0,1500,1500,989,1500,991,0.00,0.00,0.10,1.32,5.82,0.00,-0.24,-0.17,0.10,29.99,8.70,1.34
55832449,0.102,-0.026,1.024,-0.03,0.01,0.05,-1.39,-5.75,989,1100,1000,1000,1000,1000,0,1500,1500,989,1500,990,0.00,0.00,0.10,1.32,5.82,0.00,-0.24,-0.17,0.10,29.99,8.70,1.34
55836449,0.103,-0.027,1.024,-0.03,0.01,0.03,-1.43,-5.73,989,1100,1000,1000,1000,1000,0,1500,1500,989,1500,992,0.00,0.00,0.10,1.32,5.82,0.00,-0.24,-0.17,0.10,29.99,8.70,1.34
55840449,0.102,-0.027,1.023,-0.03,0.01,0.04,-1.47,-5.72,989,1100,1000,1000,1000,1000,0,1500,1500,989,1500,988,0.00,0.00,0.10,1.32,5.82,0.00,-0.24,-0.17,0.10,29.99,8.70,1.34
55844449,0.103,-0.026,1.025,-0.04,0.00,0.06,-1.49,-5.72,989,1100,1000,1000,1000,1000,0,1500,1500,989,1500,992,0.00,0.00,0.10,1.32,5.82,0.00,-0.24,-0.17,0.10,29.99,8.70,1.34
55848449,0.105,-0.025,1.026,-0.03,0.01,0.06,-1.46,-5.75,989,1100,1000,1000,1000,1000,0,1500,1500,989,1500,992,0.00,0.00,0.10,1.32,5.82,0.00,-0.24,-0.17,0.10,29.99,8.70,1.34
55852449,0.105,-0.022,1.025,-0.03,0.00,0.05,-1.42,-5.77,989,1100,1000,1000,1000,1000,0,1500,1500,989,1500,990,0.00,0.00,0.10,1.32,5.82,0.00,-0.24,-0.17,0.10,29.99,8.70,1.34
55856449,0.103,-0.020,1.026,-0.02,-0.00,0.06,-1.38,-5.77,989,1100,1000,1000,1000,1000,0,1500,1500,989,1500,988,0.00,0.00,0.10,1.32,5.82,0.00,-0.24,-0.17,0.10,29.99,8.70,1.34
55860449,0.102,-0.019,1.026,-0.02,0.01,0.06,-1.33,-5.76,989,1100,1000,1000,1000,1000,0,1500,1500,989,1500,991,0.00,0.00,0.10,1.32,5.82,0.00,-0.24,-0.17,0.10,29.99,8.70,1.34
55864449,0.102,-0.018,1.029,-0.04,0.01,0.06,-1.29,-5.75,989,1100,1000,1000,1000,1000,0,1500,1500,989,1500,992,0.00,0.00,0.10,1.32,5.82,0.00,-0.24,-0.17,0.10,29.99,8.70,1.34
55868449,0.101,-0.017,1.029,-0.04,0.02,0.05,-1.25,-5.73,989,1100,1000,1000,1000,1000,0,1500,1500,989,1500,991,0.00,0.00,0.10,1.32,5.82,0.00,-0.24,-0.17,0.10,29.99,8.70,1.34
55872449,0.103,-0.016,1.029,-0.06,0.01,0.04,-1.20,-5.72,989,1100,1000,1000,1000,1000,0,1500,1500,989,1500,4991,0.00,0.00,0.10,1.32,5.82,0.00,-0.24,-0.17,0.10,29.99,8.70,1.34
55876449,0.107,-0.018,1.030,-0.05,0.02,0.03,-1.16,-5.74,989,1100,1000,1000,1000,1000,0,1500,1500,989,1500,1990,0.00,0.00,0.10,1.32,5.82,0.00,-0.24,-0.17,0.10,29.99,8.70,1.34
55880449,0.108,-0.021,1.029,-0.05,0.01,0.03,-1.15,-5.79,989,1100,1000,1000,1000,1000,0,1500,1500,989,1500,989,0.00,0.00,0.10,1.32,5.82,0.00,-0.24,-0.17,0.10,29.99,8.70,1.34
55884449,0.110,-0.022,1.030,-0.06,0.03,0.04,-1.16,-5.83,989,1100,1000,1000,1000,1000,0,1500,1500,989,1500,992,0.00,0.00,0.10,1.32,5.82,0.00,-0.24,-0.17,0.10,29.99,8.70,1.34
55888449,0.111,-0.021,1.030,-0.07,0.02,0.05,-1.17,-5.88,989,1100,1000,1000,1000,1000,0,1500,1500,989,1500,990,0.00,0.00,0.10,1.32,5.82,0.00,-0.24,-0.17,0.10,29.99,8.70,1.34
55892449,0.111,-0.021,1.029,-0.06,0.04,0.07,-1.17,-5.92,989,1100,1000,1000,1000,1000,0,1500,1500,989,1500,988,0.00,0.00,0.10,1.32,5.82,0.00,-0.24,-0.17,0.10,29.99,8.70,1.34
55896449,0.109,-0.022,1.030,-0.07,0.04,0.07,-1.18,-5.97,989,1100,1000,1000,1000,1000,0,1500,1500,989,1500,992,0.00,0.00,0.10,1.32,5.82,0.00,-0.24,-0.17,0.10,29.99,8.70,1.34
55900449,0.108,-0.021,1.031,-0.07,0.03,0.07,-1.19,-5.98,989,1100,1000,1000,1000,1000,0,1500,1500,989,1500,991,0.00,0.00,0.10,1.32,5.82,0.00,-0.24,-0.17,0.10,29.99,8.70,1.34
55904449,0.108,-0.021,1.034,-0.07,0.01,0.05,-1.17,-5.95,989,1100,1000,1000,1000,1000,0,1500,1500,989,1500,989,0.00,0.00,0.10,1.32,5.82,0.00,-0.24,-0.17,0.10,29.99,8.70,1.34
55908449,0.106,-0.019,1.035,-0.07,0.01,0.05,-1.14,-5.92,989,1100,1000,1000,1000,1000,0,1500,1500,989,1500,990,0.00,0.00,0.10,1.32,5.82,0.00,-0.24,-0.17,0.10,29.99,8.70,1.34
55912449,0.105,-0.020,1.035,-0.06,0.02,0.06,-1.12,-5.87,989,1100,1000,1000,1000,1000,0,1500,1500,989,1500,990,0.00,0.00,0.10,1.32,5.82,0.00,-0.24,-0.17,0.10,29.99,8.70,1.34
55916449,0.105,-0.021,1.036,-0.06,0.01,0.08,-1.13,-5.83,989,1100,1000,1000,1000,1000,0,1500,1500,989,1500,990,0.00,0.00,0.10,1.32,5.82,0.00,-0.24,-0.17,0.10,29.99,8.70,1.34
55920449,0.104,-0.022,1.037,-0.07,0.01,0.08,-1.16,-5.79,989,1100,1000,1000,1000,1000,0,1500,1500,989,1500,991,0.00,0.00,0.10,1.32,5.82,0.00,-0.24,-0.17,0.10,29.99,8.70,1.34
55924449,0.103,-0.021,1.034,-0.07,-0.01,0.06,-1.16,-5.75,989,1100,1000,1000,1000,1000,0,1500,1500,989,1500,989,0.00,0.00,0.10,1.32,5.82,0.00,-0.24,-0.17,0.10,29.99,8.70,1.34
55928449,0.105,-0.022,1.031,-0.07,0.01,0.05,-1.20,-5.75,989,1100,1000,1000,1000,1000,0,1500,1500,989,1500,990,0.00,0.00,0.10,1.32,5.82,0.00,-0.24,-0.17,0.10,29.99,8.70,1.34
55932449,0.106,-0.023,1.032,-0.10,0.00,0.03,-1.22,-5.79,989,1100,1000,1000,1000,1000,0,1500,1500,989,1500,992,0.00,0.00,0.10,1.32,5.82,0.00,-0.24,-0.17,0.10,29.99,8.70,1.34
55936449,0.108,-0.022,1.034,-0.07,-0.01,0.05,-1.23,-5.83,989,1100,1000,1000,1000,1000,0,1500,1500,989,1500,991,0.00,0.00,0.10,1.32,5.82,0.00,-0.24,-0.17,0.10,29.99,8.70,1.34
55940449,0.107,-0.020,1.035,-0.07,-0.00,0.06,-1.21,-5.86,989,1100,1000,1000,1000,1000,0,1500,1500,989,1500,990,0.00,0.00,0.10,1.32,5.82,0.00,-0.24,-0.17,0.10,29.99,8.70,1.34
55944449,0.108,-0.019,1.036,-0.07,-0.00,0.07,-1.17,-5.89,989,1100,1000,1000,1000,1000,0,1500,1500,989,1500,990,0.00,0.00,0.10,1.32,5.82,0.00,-0.24,-0.17,0.10,29.99,8.70,1.34
55948449,0.106,-0.021,1.035,-0.06,0.00,0.06,-1.14,-5.88,989,1100,1000,1000,1000,1000,0,1500,1500,989,1500,993,0.00,0.00,0.10,1.32,5.82,0.00,-0.24,-0.17,0.10,29.99,8.70,1.34
55952449,0.106,-0.021,1.036,-0.06,0.02,0.07,-1.16,-5.85,989,1100,1000,1000,1000,1000,0,1500,1500,989,1500,991,0.00,0.00,0.10,1.32,5.82,0.00,-0.24,-0.17,0.10,29.99,8.70,1.34
55956449,0.105,-0.022,1.034,-0.08,-0.00,0.06,-1.18,-5.81,989,1100,1000,1000,1000,1000,0,1500,1500,989,1500,989,0.00,0.00,0.10,1.32,5.82,0.00,-0.24,-0.17,0.10,29.99,8.70,1.34
55960449,0.104,-0.022,1.033,-0.07,-0.01,0.06,-1.22,-5.79,989,1100,1000,1000,1000,1000,0,1500,1500,989,1500,990,0.00,0.00,0.10,1.32,5.82,0.00,-0.24,-0.17,0.10,29.99,8.70,1.34
55964449,0.103,-0.023,1.033,-0.06,-0.01,0.06,-1.24,-5.75,989,1100,1000,1000,1000,1000,0,1500,1500,989,1500,991,0.00,0.00,0.10,1.32,5.82,0.00,-0.24,-0.17,0.10,29.99,8.70,1.34
55968449,0.103,-0.025,1.034,-0.05,-0.00,0.06,-1.28,-5.73,989,1100,1000,1000,1000,1000,0,1500,1500,989,1500,989,0.00,0.00,0.10,1.32,5.82,0.00,-0.24,-0.17,0.10,29.99,8.70,1.34
55972449,0.104,-0.026,1.035,-0.02,-0.00,0.06,-1.33,-5.73,989,1100,1000,1000,1000,1000,0,1500,1500,989,1500,990,0.00,0.00,0.10,1.32,5.82,0.00,-0.24,-0.17,0.10,29.99,8.70,1.34
55976449,0.105,-0.026,1.033,-0.04,0.02,0.04,-1.37,-5.74,989,1100,1000,1000,1000,1000,0,1500,1500,989,1500,989,0.00,0.00,0.10,1.32,5.82,0.00,-0.24,-0.17,0.10,29.99,8.70,1.34
55980449,0.107,-0.024,1.030,-0.03,0.03,0.04,-1.37,-5.79,989,1100,1000,1000,1000,1000,0,1500,1500,989,1500,992,0.00,0.00,0.10,1.32,5.82,0.00,-0.24,-0.17,0.10,29.99,8.70,1.34
55984449,0.107,-0.024,1.028,-0.02,0.03,0.04,-1.36,-5.83,989,1100,1000,1000,1000,1000,0,1500,1500,989,1500,991,0.00,0.00,0.10,1.32,5.82,0.00,-0.24,-0.17,0.10,29.99,8.70,1.34
55988449,0.107,-0.022,1.026,-0.03,0.04,0.06,-1.33,-5.86,989,1100,1000,1000,1000,1000,0,1500,1500,989,1500,989,0.00,0.00,0.10,1.32,5.82,0.00,-0.24,-0.17,0.10,29.99,8.70,1.34
55992449,0.106,-0.022,1.027,-0.03,0.03,0.07,-1.29,-5.89,989,1100,1000,1000,1000,1000,0,1500,1500,989,1500,992,0.00,0.00,0.10,1.32,5.82,0.00,-0.24,-0.17,0.10,29.99,8.70,1.34
55996449,0.106,-0.021,1.028,-0.03,0.02,0.08,-1.24,-5.89,989,1100,1000,1000,1000,1000,0,1500,1500,989,1500,992,0.00,0.00,0.10,1.32,5.82,0.00,-0.24,-0.17,0.10,29.99,8.70,1.34
56000449,0.106,-0.021,1.028,-0.03,0.01,0.09,-1.20,-5.90,989,1100,1000,1000,1000,1000,0,1500,1500,989,1500,990,0.00,0.00,0.10,1.32,5.82,0.00,-0.24,-0.17,0.10,29.99,8.70,1.34
56004449,0.106,-0.021,1.026,-0.04,0.02,0.09,-1.18,-5.91,989,1100,1000,1000,1000,1000,0,1500,1500,989,1500,991,0.00,0.00,0.10,1.32,5.82,0.00,-0.24,-0.17,0.10,29.99,8.70,1.34
56008449,0.107,-0.020,1.028,-0.05,0.02,0.08,-1.15,-5.95,989,1100,1000,1000,1000,1000,0,1500,1500,989,1500,991,0.00,0.00,0.10,1.32,5.82,0.00,-0.24,-0.17,0.10,29.99,8.70,1.34
56012449,0.108,-0.019,1.028,-0.06,0.01,0.08,-1.11,-5.97,989,1100,1000,1000,1000,1000,0,1500,1500,989,1500,990,0.00,0.00,0.10,1.32,5.82,0.00,-0.24,-0.17,0.10,29.99,8.70,1.34
56016449,0.111,-0.021,1.026,-0.06,0.02,0.06,-1.12,-6.01,989,1100,1000,1000,1000,1000,0,1500,1500,989,1500,989,0.00,0.00,0.10,1.32,5.82,0.00,-0.24,-0.17,0.10,29.99,8.70,1.34
56020449,0.113,-0.022,1.022,-0.06,0.01,0.07,-1.14,-6.06,989,1100,1000,1000,1000,1000,0,1500,1500,989,1500,990,0.00,0.00,0.10,1.32,5.82,0.00,-0.24,-0.17,0.10,29.99,8.70,1.34
56024449,0.113,-0.023,1.019,-0.05,0.01,0.08,-1.16,-6.10,989,1100,1000,1000,1000,1000,0,1500,1500,989,1500,991,0.00,0.00,0.10,1.32,5.82,0.00,-0.24,-0.17,0.10,29.99,8.70,1.34
56028449,0.114,-0.024,1.020,-0.04,0.00,0.08,-1.18,-6.14,989,1100,1000,1000,1000,1000,0,1500,1500,989,1500,990,0.00,0.00,0.10,1.32,5.82,0.00,-0.24,-0.17,0.10,29.99,8.70,1.34
56032449,0.113,-0.025,1.024,-0.05,-0.01,0.08,-1.22,-6.16,989,1100,1000,1000,1000,1000,0,1500,1500,989,1500,991,0.00,0.00,0.10,1.32,5.82,0.00,-0.24,-0.17,0.10,29.99,8.70,1.34
56036449,0.111,-0.026,1.025,-0.05,-0.01,0.08,-1.27,-6.17,989,1100,1000,1000,1000,1000,0,1500,1500,989,1500,990,0.00,0.00,0.10,1.32,5.82,0.00,-0.24,-0.17,0.10,29.99,8.70,1.34
56040449,0.112,-0.028,1.025,-0.04,-0.01,0.06,-1.31,-6.17,989,1100,1000,1000,1000,1000,0,1500,1500,989,1500,991,0.00,0.00,0.10,1.32,5.82,0.00,-0.24,-0.17,0.10,29.99,8.70,1.34
56044449,0.111,-0.029,1.026,-0.04,-0.01,0.07,-1.36,-6.18,989,1100,1000,1000,1000,1000,0,1500,1500,989,1500,991,0.00,0.00,0.10,1.32,5.82,0.00,-0.24,-0.17,0.10,29.99,8.70,1.34
56048449,0.110,-0.031,1.026,-0.03,-0.01,0.06,-1.40,-6.17,989,1100,1000,1000,1000,1000,0,1500,1500,989,1500,989,0.00,0.00,0.10,1.32,5.82,0.00,-0.24,-0.17,0.10,29.99,8.70,1.34
56052449,0.110,-0.032,1.025,-0.04,0.00,0.05,-1.45,-6.16,989,1100,1000,1000,1000,1000,0,1500,1500,989,1500,990,0.00,0.00,0.10,1.32,5.82,0.00,-0.24,-0.17,0.10,29.99,8.70,1.34
56056449,0.110,-0.032,1.026,-0.05,-0.01,0.04,-1.49,-6.16,989,1100,1000,1000,1000,1000,0,1500,1500,989,1500,991,0.00,0.00,0.10,1.32,5.82,0.00,-0.24,-0.17,0.10,29.99,8.70,1.34
56060449,0.109,-0.031,1.028,-0.05,-0.01,0.03,-1.54,-6.14,989,1100,1000,1000,1000,1000,0,1500,1500,989,1500,990,0.00,0.00,0.10,1.32,5.82,0.00,-0.24,-0.17,0.10,29.99,8.70,1.34
56064449,0.110,-0.028,1.026,-0.06,-0.02,0.04,-1.56,-6.11,989,1100,1000,1000,1000,1000,0,1500,1500,989,1500,990,0.00,0.00,0.10,1.32,5.82,0.00,-0.24,-0.17,0.10,29.99,8.70,1.34
56068449,0.109,-0.026,1.023,-0.06,0.01,0.04,-1.52,-6.11,989,1100,1000,1000,1000,1000,0,1500,1500,989,1500,991,0.00,0.00,0.10,1.32,5.82,0.00,-0.24,-0.17,0.10,29.99,8.70,1.34
56072449,0.107,-0.024,1.024,-0.07,0.03,0.04,-1.48,-6.08,989,1100,1000,1000,1000,1000,0,1500,1500,989,1500,991,0.00,0.00,0.10,1.32,5.82,0.00,-0.24,-0.17,0.10,29.99,8.70,1.34
56076449,0.105,-0.023,1.026,-0.04,0.05,0.03,-1.45,-6.05,989,1100,1000,1000,1000,1000,0,1500,1500,989,1500,990,0.00,0.00,0.10,1.32,5.82,0.00,-0.24,-0.17,0.10,29.99,8.70,1.34
56080449,0.105,-0.021,1.027,-0.02,0.06,0.03,-1.41,-6.02,989,1100,1000,1000,1000,1000,0,1500,1500,989,1500,991,0.00,0.00,0.10,1.32,5.82,0.00,-0.24,-0.17,0.10,29.99,8.70,1.34
56084449,0.104,-0.020,1.029,-0.02,0.06,0.03,-1.38,-5.99,989,1100,1000,1000,1000,1000,0,1500,1500,989,1500,989,0.00,0.00,0.10,1.32,5.82,0.00,-0.24,-0.17,0.10,29.99,8.70,1.34
56088449,0.103,-0.019,1.032,-0.02,0.05,0.03,-1.34,-5.96,989,1100,1000,1000,1000,1000,0,1500,1500,989,1500,990,0.00,0.00,0.10,1.32,5.82,0.00,-0.24,-0.17,0.10,29.99,8.70,1.34
56092449,0.103,-0.016,1.034,-0.03,0.06,0.03,-1.31,-5.93,989,1100,1000,1000,1000,1000,0,1500,1500,989,1500,992,0.00,0.00,0.10,1.32,5.82,0.00,-0.24,-0.17,0.10,29.99,8.70,1.34
56096449,0.104,-0.013,1.037,-0.02,0.05,0.03,-1.27,-5.91,989,1100,1000,1000,1000,1000,0,1500,1500,989,1500,991,0.00,0.00,0.10,1.32,5.82,0.00,-0.24,-0.17,0.10,29.99,8.70,1.34
56100449,0.104,-0.012,1.038,-0.04,0.04,0.03,-1.22,-5.90,989,1100,1000,1000,1000,1000,0,1500,1500,989,1500,988,0.00,0.00,0.10,1.32,5.82,0.00,-0.24,-0.17,0.10,29.99,8.70,1.34
56104449,0.103,-0.013,1.038,-0.03,0.04,0.03,-1.18,-5.88,989,1100,1000,1000,1000,1000,0,1500,1500,989,1500,991,0.00,0.00,0.10,1.32,5.82,0.00,-0.24,-0.17,0.10,29.99,8.70,1.34
56108449,0.104,-0.014,1.037,-0.04,0.01,0.03,-1.14,-5.86,989,1100,1000,1000,1000,1000,0,1500,1500,989,1500,992,0.00,0.00,0.10,1.32,5.82,0.00,-0.24,-0.17,0.10,29.99,8.70,1.34
56112449,0.104,-0.016,1.037,-0.06,0.01,0.04,-1.10,-5.84,989,1100,1000,1000,1000,1000,0,1500,1500,989,1500,989,0.00,0.00,0.10,1.32,5.82,0.00,-0.24,-0.17,0.10,29.99,8.70,1.34
56116449,0.104,-0.019,1.033,-0.07,0.02,0.05,-1.06,-5.81,989,1100,1000,1000,1000,1000,0,1500,1500,989,1500,991,0.00,0.00,0.10,1.32,5.82,0.00,-0.24,-0.17,0.10,29.99,8.70,1.34
56120449,0.104,-0.020,1.029,-0.07,-0.00,0.05,-1.08,-5.78,989,1100,1000,1000,1000,1000,0,1500,1500,989,1500,991,0.00,0.00,0.10,1.32,5.82,0.00,-0.24,-0.17,0.10,29.99,8.70,1.34
56124449,0.104,-0.020,1.028,-0.07,0.00,0.06,-1.12,-5.76,989,1100,1000,1000,1000,1000,0,1500,1500,989,1500,991,0.00,0.00,0.10,1.32,5.82,0.00,-0.24,-0.17,0.10,29.99,8.70,1.34
56128449,0.104,-0.021,1.029,-0.08,-0.01,0.07,-1.15,-5.77,989,1100,1000,1000,1000,1000,0,1500,1500,989,1500,989,0.00,0.00,0.10,1.32,5.82,0.00,-0.24,-0.17,0.10,29.99,8.70,1.34
56132449,0.104,-0.019,1.027,-0.08,-0.02,0.09,-1.11,-5.78,989,1100,1000,1000,1000,1000,0,1500,1500,989,1500,990,0.00,0.00,0.10,1.32,5.82,0.00,-0.24,-0.17,0.10,29.99,8.70,1.34
56136449,0.104,-0.018,1.024,-0.10,0.00,0.08,-1.06,-5.78,989,1100,1000,1000,1000,1000,0,1500,1500,989,1500,990,0.00,0.00,0.10,1.32,5.82,0.00,-0.24,-0.17,0.10,29.99,8.70,1.34
56140449,0.105,-0.020,1.023,-0.09,-0.02,0.06,-1.07,-5.81,989,1100,1000,1000,1000,1000,0,1500,1500,989,1500,992,0.00,0.00,0.10,1.32,5.82,0.00,-0.24,-0.17,0.10,29.99,8.70,1.34
56144449,0.109,-0.022,1.022,-0.10,-0.03,0.06,-1.09,-5.85,989,1100,1000,1000,1000,1000,0,1500,1500,989,1500,989,0.00,0.00,0.10,1.32,5.82,0.00,-0.24,-0.17,0.10,29.99,8.70,1.34
56148449,0.111,-0.024,1.023,-0.09,-0.04,0.06,-1.12,-5.89,989,1100,1000,1000,1000,1000,0,1500,1500,989,1500,990,0.00,0.00,0.10,1.32,5.82,0.00,-0.24,-0.17,0.10,29.99,8.70,1.34
56152449,0.112,-0.025,1.022,-0.09,-0.03,0.05,-1.15,-5.93,989,1100,1000,1000,1000,1000,0,1500,1500,989,1500,991,0.00,0.00,0.10,1.32,5.82,0.00,-0.24,-0.17,0.10,29.99,8.70,1.34
56156449,0.113,-0.024,1.025,-0.10,-0.01,0.05,-1.17,-5.96,989,1100,1000,1000,1000,1000,0,1500,1500,989,1500,991,0.00,0.00,0.10,1.32,5.82,0.00,-0.24,-0.17,0.10,29.99,8.70,1.34
56160449,0.113,-0.023,1.026,-0.09,-0.02,0.05,-1.19,-6.01,989,1100,1000,1000,1000,1000,0,1500,1500,989,1500,989,0.00,0.00,0.10,1.32,5.82,0.00,-0.24,-0.17,0.10,29.99,8.70,1.34
56164449,0.112,-0.021,1.026,-0.08,-0.01,0.04,-1.19,-6.05,989,1100,1000,1000,1000,1000,0,1500,1500,989,1500,989,0.00,0.00,0.10,1.32,5.82,0.00,-0.24,-0.17,0.10,29.99,8.70,1.34
56168449,0.109,-0.020,1.029,-0.09,-0.02,0.05,-1.17,-6.07,989,1100,1000,1000,1000,1000,0,1500,1500,989,1500,989,0.00,0.00,0.10,1.32,5.82,0.00,-0.24,-0.17,0.10,29.99,8.70,1.34
56172449,0.105,-0.020,1.028,-0.07,-0.01,0.06,-1.15,-6.03,989,1100,1000,1000,1000,1000,0,1500,1500,989,1500,992,0.00,0.00,0.10,1.32,5.82,0.00,-0.24,-0.17,0.10,29.99,8.70,1.34
56176449,0.103,-0.022,1.028,-0.08,-0.01,0.06,-1.16,-5.98,989,1100,1000,1000,1000,1000,0,1500,1500,989,1500,4992,0.00,0.00,0.10,1.32,5.82,0.00,-0.24,-0.17,0.10,29.99,8.70,1.34
56180449,0.102,-0.023,1.032,-0.06,-0.04,0.07,-1.17,-5.94,989,1100,1000,1000,1000,1000,0,1500,1500,989,1500,989,0.00,0.00,0.10,1.32,5.82,0.00,-0.24,-0.17,0.10,29.99,8.70,1.34
56184449,0.103,-0.023,1.033,-0.06,-0.02,0.07,-1.19,-5.89,989,1100,1000,1000,1000,1000,0,1500,1500,989,1500,990,0.00,0.00,0.10,1.32,5.82,0.00,-0.24,-0.17,0.10,29.99,8.70,1.34
56188449,0.105,-0.023,1.033,-0.07,-0.01,0.04,-1.22,-5.86,989,1100,1000,1000,1000,1000,0,1500,1500,989,1500,992,0.00,0.00,0.10,1.32,5.82,0.00,-0.24,-0.17,0.10,29.99,8.70,1.34
56192449,0.106,-0.024,1.031,-0.07,-0.02,0.04,-1.26,-5.85,989,1100,1000,1000,1000,1000,0,1500,1500,989,1500,991,0.00,0.00,0.10,1.32,5.82,0.00,-0.24,-0.17,0.10,29.99,8.70,1.34
56196449,0.107,-0.024,1.029,-0.08,-0.03,0.04,-1.30,-5.88,989,1100,1000,1000,1000,1000,0,1500,1500,989,1500,988,0.00,0.00,0.10,1.32,5.82,0.00,-0.24,-0.17,0.10,29.99,8.70,1.34
56200449,0.108,-0.027,1.027,-0.07,-0.02,0.05,-1.33,-5.91,989,1100,1000,1000,1000,1000,0,1500,1500,989,1500,992,0.00,0.00,0.10,1.32,5.82,0.00,-0.24,-0.17,0.10,29.99,8.70,1.34
56204449,0.107,-0.027,1.031,-0.06,-0.02,0.06,-1.38,-5.91,989,1100,1000,1000,1000,1000,0,1500,1500,989,1500,992,0.00,0.00,0.10,1.32,5.82,0.00,-0.24,-0.17,0.10,29.99,8.70,1.34
56208449,0.107,-0.027,1.028,-0.05,-0.02,0.06,-1.42,-5.91,989,1100,1000,1000,1000,1000,0,1500,1500,989,1500,989,0.00,0.00,0.10,1.32,5.82,0.00,-0.24,-0.17,0.10,29.99,8.70,1.34
56212449,0.109,-0.029,1.023,-0.05,-0.01,0.07,-1.46,-5.94,989,1100,1000,1000,1000,1000,0,1500,1500,989,1500,991,0.00,0.00,0.10,1.32,5.82,0.00,-0.24,-0.17,0.10,29.99,8.70,1.34
56216449,0.110,-0.030,1.019,-0.04,-0.00,0.07,-1.50,-5.97,989,1100,1000,1000,1000,1000,0,1500,1500,989,1500,991,0.00,0.00,0.10,1.32,5.82,0.00,-0.24,-0.17,0.10,29.99,8.70,1.34
56220449,0.110,-0.030,1.020,-0.03,-0.01,0.09,-1.53,-6.00,989,1100,1000,1000,1000,1000,0,1500,1500,989,1500,991,0.00,0.00,0.10,1.32,5.82,0.00,-0.24,-0.17,0.10,29.99,8.70,1.34
56224449,0.109,-0.027,1.030,-0.02,0.02,0.10,-1.54,-6.02,989,1100,1000,1000,1000,1000,0,1500,1500,989,1500,989,0.00,0.00,0.10,1.32,5.82,0.00,-0.24,-0.17,0.10,29.99,8.70,1.34
56228449,0.110,-0.026,1.035,-0.02,0.02,0.09,-1.50,-6.02,989,1100,1000,1000,1000,1000,0,1500,1500,989,1500,990,0.00,0.00,0.10,1.32,5.82,0.00,-0.24,-0.17,0.10,29.99,8.70,1.34
56232449,0.113,-0.025,1.034,-0.01,0.04,0.08,-1.48,-6.05,989,1100,1000,1000,1000,1000,0,1500,1500,989,1500,991,0.00,0.00,0.10,1.32,5.82,0.00,-0.24,-0.17,0.10,29.99,8.70,1.34
56236449,0.115,-0.023,1.032,-0.01,0.06,0.08,-1.45,-6.09,989,1100,1000,1000,1000,1000,0,1500,1500,989,1500,990,0.00,0.00,0.10,1.32,5.82,0.00,-0.24,-0.17,0.10,29.99,8.70,1.34
56240449,0.115,-0.023,1.027,-0.02,0.05,0.08,-1.43,-6.13,989,1100,1000,1000,1000,1000,0,1500,1500,989,1500,990,0.00,0.00,0.10,1.32,5.82,0.00,-0.24,-0.17,0.10,29.99,8.70,1.34
56244449,0.115,-0.023,1.025,-0.00,0.05,0.08,-1.40,-6.17,989,1100,1000,1000,1000,1000,0,1500,1500,989,1500,990,0.00,0.00,0.10,1.32,5.82,0.00,-0.24,-0.17,0.10,29.99,8.70,1.34
56248449,0.115,-0.023,1.024,-0.01,0.05,0.07,-1.38,-6.21,989,1100,1000,1000,1000,1000,0,1500,1500,989,1500,991,0.00,0.00,0.10,1.32,5.82,0.00,-0.24,-0.17,0.10,29.99,8.70,1.34
56252449,0.115,-0.025,1.024,-0.01,0.04,0.06,-1.38,-6.26,989,1100,1000,1000,1000,1000,0,1500,1500,989,1500,991,0.00,0.00,0.10,1.32,5.82,0.00,-0.24,-0.17,0.10,29.99,8.70,1.34
56256449,0.111,-0.026,1.025,-0.01,0.04,0.05,-1.40,-6.25,989,1100,1119,1183,1071,1027,0,1500,1500,989,1500,989,0.00,0.00,1.03,1.40,6.25,0.00,-0.01,0.04,0.05,-27.06,51.17,5.61
56260449,0.106,-0.025,1.026,0.02,0.06,0.04,-1.41,-6.21,989,1100,1089,1097,1111,1103,0,1500,1500,989,1500,990,0.00,0.00,1.03,1.41,6.21,0.00,0.02,0.06,0.04,-4.30,-7.12,0.53
56264449,0.103,-0.023,1.030,0.01,0.08,0.04,-1.40,-6.16,989,1100,1094,1094,1106,1106,0,1500,1500,989,1500,4990,0.00,0.00,1.03,1.40,6.16,0.00,0.01,0.08,0.04,0.26,-6.81,-0.03
56268449,0.103,-0.022,1.036,0.02,0.07,0.05,-1.39,-6.12,989,1100,1099,1101,1103,1097,0,1500,1500,989,1500,8990,0.00,0.00,1.03,1.39,6.12,0.00,0.02,0.07,0.05,-2.06,-0.72,-1.23
56272449,0.104,-0.020,1.038,0.04,0.05,0.05,-1.36,-6.08,989,1100,1094,1108,1106,1092,0,1500,1500,989,1500,989,0.00,0.00,1.03,1.36,6.08,0.00,0.04,0.05,0.05,-7.87,1.87,0.55
56276449,0.101,-0.018,1.046,0.05,0.05,0.05,-1.34,-6.04,989,1100,1093,1105,1107,1095,0,1500,1500,989,1500,991,0.00,0.00,1.02,1.34,6.04,0.00,0.05,0.05,0.05,-6.86,-1.02,0.20
56280449,0.099,-0.014,1.053,0.04,0.06,0.05,-1.31,-6.00,989,1100,1097,1097,1103,1103,0,1500,1500,989,1500,1991,0.00,0.00,1.02,1.31,6.00,0.00,0.04,0.06,0.05,-0.88,-3.32,-0.60
56284449,0.097,-0.012,1.050,0.03,0.02,0.05,-1.28,-5.97,989,1100,1103,1109,1097,1091,0,1500,1500,989,1500,990,0.00,0.00,1.02,1.28,5.97,0.00,0.03,0.02,0.05,-3.66,6.48,-0.35
56288449,0.098,-0.012,1.040,0.02,0.01,0.06,-1.25,-5.94,989,1100,1099,1101,1103,1097,0,1500,1500,989,1500,990,0.00,0.00,1.01,1.25,5.94,0.00,0.02,0.01,0.06,-2.70,0.79,-1.02
56292449,0.102,-0.013,1.032,0.00,-0.01,0.06,-1.21,-5.91,989,1100,1103,1107,1097,1093,0,1500,1500,989,1500,992,0.00,0.00,1.01,1.21,5.91,0.00,0.00,-0.01,0.06,-2.81,5.98,0.63
56296449,0.103,-0.017,1.031,0.02,-0.00,0.07,-1.17,-5.88,989,1100,1090,1108,1112,1090,0,1500,1500,989,1500,991,0.00,0.00,1.01,1.17,5.88,0.00,0.02,-0.00,0.07,-10.16,-1.26,-1.31
56300449,0.102,-0.019,1.034,0.02,0.02,0.08,-1.15,-5.85,989,1100,1091,1099,1109,1101,0,1500,1500,989,1500,989,0.00,0.00,1.01,1.15,5.85,0.00,0.02,0.02,0.08,-4.63,-5.92,-0.88
56304449,0.103,-0.020,1.036,-0.00,0.02,0.05,-1.13,-5.80,989,1100,1100,1096,1096,1108,0,1500,1500,989,1500,990,0.00,0.00,1.00,1.13,5.80,0.00,-0.00,0.02,0.05,4.47,-2.84,2.31
56308449,0.104,-0.021,1.037,-0.02,-0.01,0.04,-1.14,-5.76,989,1100,1106,1096,1092,1106,0,1500,1500,989,1500,992,0.00,0.00,1.01,1.14,5.76,0.00,-0.02,-0.01,0.04,6.43,1.30,1.38
56312449,0.105,-0.020,1.036,-0.04,-0.01,0.03,-1.12,-5.77,989,1100,1108,1108,1092,1092,0,1500,1500,989,1500,989,0.00,0.00,1.00,1.12,5.77,0.00,-0.04,-0.01,0.03,-0.30,8.62,0.80
56316449,0.106,-0.017,1.033,-0.06,-0.01,0.03,-1.08,-5.80,989,1100,1109,1113,1091,1087,0,1500,1500,989,1500,988,0.00,0.00,1.00,1.08,5.80,0.00,-0.06,-0.01,0.03,-2.38,11.15,0.19
56320449,0.106,-0.015,1.032,-0.07,-0.04,0.03,-1.04,-5.81,989,1100,1110,1120,1090,1080,0,1500,1500,989,1500,991,0.00,0.00,0.99,1.04,5.81,0.00,-0.07,-0.04,0.03,-5.29,15.55,-0.39
56324449,0.103,-0.013,1.032,-0.06,-0.04,0.03,-0.99,-5.80,989,1100,1095,1113,1105,1087,0,1500,1500,989,1500,991,0.00,0.00,0.99,0.99,5.80,0.00,-0.06,-0.04,0.03,-9.95,4.26,0.01
56328449,0.102,-0.014,1.031,-0.06,-0.04,0.03,-0.95,-5.78,989,1100,1094,1106,1106,1094,0,1500,1500,989,1500,989,0.00,0.00,0.99,0.95,5.78,0.00,-0.06,-0.04,0.03,-6.85,0.96,-0.21
56332449,0.099,-0.016,1.031,-0.07,-0.04,0.04,-0.93,-5.74,989,1100,1098,1098,1102,1102,0,1500,1500,989,1500,990,0.00,0.00,0.98,0.93,5.74,0.00,-0.07,-0.04,0.04,-0.68,-2.13,-0.97
56336449,0.097,-0.019,1.035,-0.09,-0.03,0.05,-0.94,-5.70,989,1100,1101,1091,1101,1107,0,1500,1500,989,1500,990,0.00,0.00,0.99,0.94,5.70,0.00,-0.09,-0.03,0.05,4.92,-4.53,-1.13
56340449,0.097,-0.019,1.039,-0.10,-0.04,0.05,-0.95,-5.65,989,1100,1105,1093,1095,1107,0,1500,1500,989,1500,992,0.00,0.00,0.99,0.95,5.65,0.00,-0.10,-0.04,0.05,6.11,-1.64,0.58
