t_us,ax_g,ay_g,az_g,gx_dps,gy_dps,gz_dps,roll_deg,pitch_deg,throttle_us,motor_us,m1,m2,m3,m4,mode,rc_roll,rc_pitch,rc_throttle,rc_yaw,rc_age_us,att_sp_roll,att_sp_pitch,att_sp_yaw,rate_sp_roll,rate_sp_pitch,rate_sp_yaw,rate_meas_roll,rate_meas_pitch,rate_meas_yaw,rate_out_roll,rate_out_pitch,rate_out_yaw
65432522,0.257,-0.181,1.005,-0.46,1.35,-2.31,-5.52,-16.32,1203,1203,1231,1267,1167,1147,0,1500,1950,1203,1500,4294967284,0.00,27.00,-5.21,3.87,30.32,0.00,-0.46,1.35,-2.31,14.91,46.12,4.17
65436522,0.255,-0.184,1.005,0.59,0.75,-2.27,-5.56,-16.30,1203,1203,1297,1199,1109,1207,0,1500,1948,1203,1500,4294967283,0.00,26.88,-5.21,3.89,30.23,0.00,0.59,0.75,-2.27,-49.20,45.66,0.53
65440522,0.257,-0.095,1.091,0.72,0.61,-2.50,-5.55,-16.25,1203,1203,1211,1217,1181,1203,0,1500,1941,1203,1500,4294967284,0.00,26.46,-5.23,3.88,29.90,0.00,0.72,0.61,-2.50,-4.74,11.53,7.49
65444522,0.230,-0.048,1.020,0.31,-0.37,-2.13,-5.51,-16.22,1203,1203,1257,1285,1163,1107,0,1500,1941,1203,1500,4294967282,0.00,26.46,-5.24,3.86,29.88,0.00,0.31,-0.37,-2.13,21.83,68.84,-7.58
65448522,0.208,-0.056,0.886,0.71,-0.55,-1.53,-5.49,-16.19,1203,1203,1261,1197,1173,1181,0,1500,1940,1203,1500,4294967284,0.00,26.40,-5.25,3.84,29.81,0.00,0.71,-0.55,-1.53,-18.49,26.95,-14.07
65452522,0.231,-0.012,1.022,1.05,-0.14,-1.52,-5.44,-16.16,1203,1203,1219,1187,1187,1219,0,1500,1940,1203,1500,4294967283,0.00,26.40,-5.27,3.81,29.79,0.00,1.05,-0.14,-1.52,-16.66,-0.16,0.93
65456522,0.227,0.004,0.962,0.96,-0.95,-1.40,-5.40,-16.15,1203,1203,1262,1266,1148,1136,0,1500,1940,1203,1500,4294967284,0.00,26.40,-5.29,3.78,29.78,0.00,0.96,-0.95,-1.40,4.91,61.16,-2.03
65460522,0.262,-0.103,0.922,1.02,-0.88,-1.12,-5.43,-16.13,1203,1203,1226,1214,1192,1180,0,1500,1940,1203,1500,4294967285,0.00,26.40,-5.28,3.80,29.77,0.00,1.02,-0.88,-1.12,0.06,17.39,-6.22
65464522,0.286,-0.109,1.070,1.36,-0.76,-1.42,-5.44,-16.09,1203,1203,1222,1208,1168,1214,0,1500,1939,1203,1500,4294967284,0.00,26.34,-5.28,3.81,29.70,0.00,1.36,-0.76,-1.42,-15.25,12.13,8.38
65468522,0.230,-0.102,1.003,1.11,-1.48,-1.42,-5.44,-16.06,1203,1203,1225,1255,1179,1153,0,1500,1930,1203,1500,4294967283,0.00,25.80,-5.29,3.81,29.30,0.00,1.11,-1.48,-1.42,14.46,37.35,1.17
65472522,0.187,-0.144,0.983,1.25,-2.05,-0.92,-5.46,-16.02,1203,1203,1267,1237,1161,1147,0,1500,1930,1203,1500,4294967284,0.00,25.80,-5.28,3.82,29.28,0.00,1.25,-2.05,-0.92,-4.27,49.45,-11.86
65476522,0.139,-0.090,1.023,1.55,-2.03,-0.81,-5.45,-15.99,1203,1203,1233,1203,1177,1199,0,1500,1928,1203,1500,4294967285,0.00,25.68,-5.29,3.81,29.17,0.00,1.55,-2.03,-0.81,-13.78,15.21,-2.28
65480522,0.161,-0.017,1.008,1.04,-2.04,-0.70,-5.42,-15.96,1203,1203,1200,1248,1210,1154,0,1500,1928,1203,1500,4294967284,0.00,25.68,-5.30,3.79,29.15,0.00,1.04,-2.04,-0.70,26.16,21.37,-2.29
65484522,0.197,-0.047,0.996,0.84,-2.29,-0.14,-5.39,-15.93,1203,1203,1221,1217,1211,1163,0,1500,1920,1203,1500,4294967283,0.00,25.20,-5.30,3.77,28.79,0.00,0.84,-2.29,-0.14,11.43,16.42,-13.77
65488522,0.228,-0.093,0.961,1.23,-2.18,0.02,-5.39,-15.90,1203,1203,1238,1196,1176,1202,0,1500,1920,1203,1500,4294967284,0.00,25.20,-5.30,3.77,28.77,0.00,1.23,-2.18,0.02,-17.78,14.92,-4.24
65492522,0.226,-0.079,0.995,0.77,-1.93,-0.04,-5.37,-15.86,1203,1203,1165,1215,1239,1193,0,1500,1910,1203,1500,4294967285,0.00,24.60,-5.30,3.76,28.32,0.00,0.77,-1.93,-0.04,24.19,-13.67,1.58
65496522,0.192,-0.093,0.989,0.51,-2.06,0.30,-5.37,-15.82,1203,1203,1222,1236,1200,1154,0,1500,1910,1203,1500,4294967284,0.00,24.60,-5.30,3.76,28.30,0.00,0.51,-2.06,0.30,15.42,26.50,-8.65
65500522,0.130,-0.126,0.981,0.93,-2.50,0.66,-5.38,-15.79,1203,1203,1268,1214,1156,1174,0,1500,1908,1203,1500,4294967283,0.00,24.48,-5.29,3.77,28.19,0.00,0.93,-2.50,0.66,-18.75,38.35,-9.48
65504522,0.126,-0.029,1.056,1.14,-2.39,0.58,-5.36,-15.76,1203,1203,1205,1189,1199,1219,0,1500,1898,1203,1500,4294967284,0.00,23.88,-5.29,3.75,27.75,0.00,1.14,-2.39,0.58,-9.39,-6.53,1.70
65508522,0.087,-0.009,0.999,0.59,-2.34,0.83,-5.34,-15.73,1203,1203,1198,1242,1220,1152,0,1500,1898,1203,1500,4294967285,0.00,23.88,-5.30,3.74,27.73,0.00,0.59,-2.34,0.83,28.74,17.38,-6.85
65512522,0.130,-0.059,0.861,0.71,-2.45,1.25,-5.33,-15.69,1203,1203,1240,1212,1188,1172,0,1500,1897,1203,1500,4294967284,0.00,23.82,-5.29,3.73,27.66,0.00,0.71,-2.45,1.25,-3.77,23.25,-11.33
65516522,0.220,-0.057,0.960,0.66,-1.79,1.18,-5.30,-15.66,1203,1203,1166,1172,1240,1234,0,1500,1887,1203,1500,4294967283,0.00,23.22,-5.29,3.71,27.22,0.00,0.66,-1.79,1.18,3.59,-34.81,0.86
65520522,0.248,-0.015,0.986,0.24,-1.96,1.45,-5.26,-15.66,1203,1203,1196,1224,1224,1168,0,1500,1877,1203,1500,4294967284,0.00,22.62,-5.30,3.68,26.79,0.00,0.24,-1.96,1.45,21.80,7.22,-7.67
65524522,0.222,-0.107,0.923,-0.39,-1.81,1.75,-5.29,-15.62,1203,1203,1183,1237,1239,1153,0,1500,1875,1203,1500,4294967285,0.00,22.50,-5.28,3.70,26.69,0.00,-0.39,-1.81,1.75,35.29,7.16,-8.88
65528522,0.245,-0.089,1.021,0.21,-1.25,1.73,-5.28,-15.59,1203,1203,1202,1148,1204,1258,0,1500,1866,1203,1500,4294967284,0.00,21.96,-5.28,3.70,26.28,0.00,0.21,-1.25,1.73,-27.83,-28.66,-0.59
65532522,0.215,-0.052,1.045,0.25,-1.21,1.83,-5.26,-15.55,1203,1203,1199,1193,1213,1207,0,1500,1855,1203,1500,4294967283,0.00,21.30,-5.28,3.68,25.80,0.00,0.25,-1.21,1.83,-0.19,-7.81,-3.75
65536522,0.186,-0.078,0.984,0.05,-1.60,2.19,-5.26,-15.51,1203,1203,1217,1221,1209,1165,0,1500,1845,1203,1500,4294967284,0.00,20.70,-5.27,3.68,25.35,0.00,0.05,-1.60,2.19,12.34,16.11,-10.72
65540522,0.203,-0.006,0.952,0.45,-1.23,2.01,-5.22,-15.49,1203,1203,1201,1171,1199,1241,0,1500,1837,1203,1500,4294967285,0.00,20.22,-5.27,3.65,25.00,0.00,0.45,-1.23,2.01,-18.89,-17.35,3.23
65544522,0.218,0.009,0.989,-0.15,-0.72,2.06,-5.18,-15.47,1203,1203,1165,1221,1245,1181,0,1500,1836,1203,1500,4294967284,0.00,20.16,-5.27,3.63,24.94,0.00,-0.15,-0.72,2.06,30.96,-10.47,-2.75
65548522,0.232,-0.071,0.960,-0.52,-0.92,2.44,-5.17,-15.44,1203,1203,1219,1239,1209,1145,0,1500,1836,1203,1500,4294967282,0.00,20.16,-5.27,3.62,24.92,0.00,-0.52,-0.92,2.44,21.17,26.96,-11.23
65552522,0.232,-0.076,0.908,-0.15,-0.43,2.35,-5.15,-15.39,1203,1203,1155,1123,1251,1283,0,1500,1810,1203,1500,4294967284,0.00,18.60,-5.26,3.61,23.80,0.00,-0.15,-0.43,2.35,-16.18,-64.02,0.54
65556522,0.230,-0.109,1.002,-0.31,0.27,2.16,-5.18,-15.35,1203,1203,1150,1178,1250,1234,0,1500,1801,1203,1500,4294967285,0.00,18.06,-5.25,3.62,23.39,0.00,-0.31,0.27,2.16,11.40,-39.18,3.38
65560522,0.202,-0.143,0.998,-0.37,-0.02,2.14,-5.21,-15.31,1203,1203,1210,1220,1198,1184,0,1500,1793,1203,1500,4294967284,0.00,17.58,-5.23,3.64,23.03,0.00,-0.37,-0.02,2.14,6.71,12.79,-1.05
65564522,0.200,-0.109,0.956,0.09,-0.19,2.11,-5.22,-15.27,1203,1203,1218,1180,1188,1226,0,1500,1780,1203,1500,4294967283,0.00,16.80,-5.22,3.66,22.45,0.00,0.09,-0.19,2.11,-19.91,-4.56,-0.75
65568522,0.227,-0.039,1.024,0.27,0.29,1.74,-5.19,-15.24,1203,1203,1174,1176,1216,1246,0,1500,1771,1203,1500,4294967284,0.00,16.26,-5.22,3.63,22.05,0.00,0.27,0.29,1.74,-7.63,-28.70,8.15
65572522,0.194,-0.021,0.976,-0.10,0.32,1.92,-5.16,-15.21,1203,1203,1182,1208,1236,1186,0,1500,1761,1203,1500,4294967285,0.00,15.66,-5.22,3.61,21.61,0.00,-0.10,0.32,1.92,19.91,-8.94,-6.06
65576522,0.185,-0.070,0.892,-0.23,0.55,2.43,-5.16,-15.16,1203,1203,1209,1199,1225,1179,0,1500,1761,1203,1500,3989,0.00,15.66,-5.21,3.61,21.57,0.00,-0.23,0.55,2.43,9.16,1.57,-14.32
65580522,0.247,-0.044,1.040,0.29,1.19,2.33,-5.12,-15.13,1203,1203,1165,1115,1241,1291,0,1500,1740,1203,1500,4294967284,0.00,14.40,-5.21,3.58,20.67,0.00,0.29,1.19,2.33,-25.28,-63.62,0.73
65584522,0.204,-0.056,0.966,0.21,1.17,2.25,-5.10,-15.08,1203,1203,1210,1222,1196,1184,0,1500,1740,1203,1500,4294967283,0.00,14.40,-5.21,3.57,20.64,0.00,0.21,1.17,2.25,6.04,13.43,0.63
65588522,0.222,-0.120,0.903,0.04,1.32,2.07,-5.14,-15.06,1203,1203,1164,1194,1236,1218,0,1500,1726,1203,1500,4294967284,0.00,13.56,-5.19,3.60,20.03,0.00,0.04,1.32,2.07,12.32,-24.88,3.07
65592522,0.255,-0.086,1.020,0.66,1.64,1.40,-5.13,-15.01,1203,1203,1191,1163,1185,1273,0,1500,1716,1203,1500,4294967285,0.00,12.96,-5.19,3.59,19.58,0.00,0.66,1.64,1.40,-29.58,-26.25,15.73
65596522,0.252,-0.097,1.032,1.05,1.28,1.06,-5.13,-14.96,1203,1203,1216,1196,1176,1224,0,1500,1704,1203,1500,4294967284,0.00,12.24,-5.18,3.59,19.04,0.00,1.05,1.28,1.06,-17.48,3.29,7.82
65600522,0.189,-0.143,0.984,0.61,0.94,1.09,-5.16,-14.92,1203,1203,1207,1255,1201,1149,0,1500,1704,1203,1500,3988,0.00,12.24,-5.17,3.61,19.01,0.00,0.61,0.94,1.09,25.15,28.25,-1.60
65604522,0.177,-0.080,0.969,0.97,1.32,1.04,-5.15,-14.87,1203,1203,1167,1135,1239,1271,0,1500,1683,1203,1500,4294967283,0.00,10.98,-5.17,3.61,18.09,0.00,0.97,1.32,1.04,-16.51,-52.91,0.44
65608522,0.192,-0.114,0.984,1.10,1.81,1.02,-5.16,-14.82,1203,1203,1171,1163,1235,1243,0,1500,1673,1203,1500,4294967284,0.00,10.38,-5.16,3.62,17.64,0.00,1.10,1.81,1.02,-4.24,-36.16,-0.27
65612522,0.193,-0.149,0.989,1.26,1.30,1.35,-5.19,-14.78,1203,1203,1226,1200,1196,1190,0,1500,1661,1203,1500,4294967285,0.00,9.66,-5.15,3.63,17.11,0.00,1.26,1.30,1.35,-5.42,10.16,-8.99
65616522,0.172,-0.135,0.885,1.48,1.36,1.00,-5.22,-14.74,1203,1203,1189,1187,1203,1233,0,1500,1651,1203,1500,4294967284,0.00,9.06,-5.14,3.65,16.66,0.00,1.48,1.36,1.00,-8.52,-15.08,7.93
65620522,0.226,-0.113,1.055,1.42,1.85,0.06,-5.23,-14.69,1203,1203,1136,1192,1224,1260,0,1500,1640,1203,1500,4294967283,0.00,8.40,-5.13,3.66,16.16,0.00,1.42,1.85,0.06,5.03,-39.28,23.40
65624522,0.186,-0.139,1.042,1.63,1.15,-0.16,-5.24,-14.64,1203,1203,1231,1223,1165,1193,0,1500,1631,1203,1500,4294967284,0.00,7.86,-5.13,3.67,15.75,0.00,1.63,1.15,-0.16,-9.01,24.62,5.62
65628522,0.179,-0.175,0.978,1.59,0.85,-0.38,-5.27,-14.61,1203,1203,1191,1209,1205,1207,0,1500,1618,1203,1500,4294967285,0.00,7.08,-5.12,3.69,15.18,0.00,1.59,0.85,-0.38,4.79,-3.08,5.85
65632522,0.177,-0.092,1.078,2.02,1.01,-0.90,-5.26,-14.56,1203,1203,1180,1164,1200,1268,0,1500,1603,1203,1500,4294967284,0.00,6.18,-5.13,3.68,14.52,0.00,2.02,1.01,-0.90,-21.05,-31.95,13.62
65636522,0.180,-0.053,1.021,1.74,0.68,-0.81,-5.23,-14.52,1203,1203,1193,1219,1215,1185,0,1500,1593,1203,1500,4294967283,0.00,5.58,-5.14,3.66,14.07,0.00,1.74,0.68,-0.81,14.74,3.62,-1.76
65640522,0.225,-0.084,0.947,1.09,0.33,-0.41,-5.22,-14.47,1203,1203,1183,1231,1241,1157,0,1500,1583,1203,1500,4294967284,0.00,4.98,-5.14,3.65,13.62,0.00,1.09,0.33,-0.41,33.47,4.17,-9.65
65644522,0.224,-0.023,0.945,1.57,0.32,-0.89,-5.17,-14.46,1203,1203,1197,1173,1185,1257,0,1500,1570,1203,1500,4294967285,0.00,4.20,-5.16,3.62,13.06,0.00,1.57,0.32,-0.89,-24.33,-18.63,12.72
65648522,0.259,-0.068,1.008,1.41,0.65,-1.20,-5.11,-14.45,1203,1203,1166,1196,1224,1226,0,1500,1563,1203,1500,4294967282,0.00,3.78,-5.17,3.58,12.76,0.00,1.41,0.65,-1.20,7.77,-22.62,8.42
65652522,0.270,-0.095,1.105,0.96,0.17,-1.35,-5.09,-14.41,1203,1203,1185,1239,1213,1175,0,1500,1553,1203,1500,4294967283,0.00,3.18,-5.18,3.57,12.31,0.00,0.96,0.17,-1.35,23.68,9.92,4.70
65656522,0.246,-0.056,1.153,1.69,0.49,-1.47,-5.05,-14.38,1203,1203,1205,1141,1193,1273,0,1500,1543,1203,1500,4294967284,0.00,2.58,-5.20,3.54,11.87,0.00,1.69,0.49,-1.47,-36.38,-30.37,4.15
65660522,0.200,-0.109,1.074,1.21,-0.79,-1.31,-5.06,-14.34,1203,1203,1231,1275,1181,1125,0,1500,1533,1203,1500,4294967285,0.00,1.98,-5.20,3.54,11.42,0.00,1.21,-0.79,-1.31,25.30,50.16,-3.24
65664522,0.224,-0.084,0.987,0.55,-1.12,-1.31,-5.05,-14.30,1203,1203,1169,1241,1235,1167,0,1500,1523,1203,1500,4294967284,0.00,1.38,-5.20,3.53,10.97,0.00,0.55,-1.12,-1.31,35.08,2.87,1.06
65668522,0.296,-0.012,1.091,1.11,-0.61,-1.49,-5.00,-14.31,1203,1203,1186,1140,1210,1276,0,1500,1512,1203,1500,4294967283,0.00,0.72,-5.22,3.50,10.52,0.00,1.11,-0.61,-1.49,-28.15,-40.60,5.50
65672522,0.308,-0.093,1.082,0.68,-1.38,-1.37,-4.99,-14.36,1203,1203,1206,1246,1204,1156,0,1500,1500,1203,1500,4294967284,0.00,0.00,-5.23,3.49,10.05,0.00,0.68,-1.38,-1.37,23.00,23.41,-2.06
65676522,0.277,-0.174,0.935,0.20,-2.03,-1.35,-5.03,-14.39,1203,1203,1217,1271,1189,1135,0,1500,1500,1203,1500,4294967285,0.00,0.00,-5.22,3.52,10.07,0.00,0.20,-2.03,-1.35,27.96,41.77,0.55
65680522,0.308,-0.093,1.122,0.39,-1.17,-1.70,-5.01,-14.43,1203,1203,1168,1172,1220,1252,0,1500,1500,1203,1500,4294967284,0.00,0.00,-5.23,3.51,10.10,0.00,0.39,-1.17,-1.70,-7.66,-33.50,9.97
65684522,0.281,-0.142,1.161,0.68,-1.70,-1.46,-5.05,-14.42,1203,1203,1252,1220,1164,1176,0,1500,1500,1203,1500,4294967283,0.00,0.00,-5.23,3.54,10.09,0.00,0.68,-1.70,-1.46,-11.57,33.99,-5.04
65688522,0.222,-0.231,1.017,0.53,-3.06,-1.10,-5.09,-14.42,1203,1203,1277,1283,1145,1107,0,1500,1500,1203,1500,4294967284,0.00,0.00,-5.22,3.57,10.09,0.00,0.53,-3.06,-1.10,11.43,77.14,-8.31
65692522,0.233,-0.136,1.052,0.55,-2.63,-1.27,-5.13,-14.40,1203,1203,1183,1197,1213,1219,0,1500,1500,1203,1500,4294967285,0.00,0.00,-5.21,3.59,10.08,0.00,0.55,-2.63,-1.27,2.21,-13.03,5.06
65696522,0.285,-0.058,1.049,0.69,-2.75,-1.44,-5.08,-14.43,1203,1203,1220,1218,1176,1198,0,1500,1500,1203,1500,4294967284,0.00,0.00,-5.23,3.55,10.10,0.00,0.69,-2.75,-1.44,-6.64,16.03,5.45
65700522,0.344,-0.130,1.021,-0.08,-3.13,-1.11,-5.10,-14.48,1203,1203,1198,1266,1222,1126,0,1500,1500,1203,1500,4294967283,0.00,0.00,-5.23,3.57,10.14,0.00,-0.08,-3.13,-1.11,41.62,29.95,-7.59
65704522,0.291,-0.114,0.935,0.10,-3.55,-0.95,-5.12,-14.53,1203,1203,1243,1227,1169,1173,0,1500,1500,1203,1500,4294967284,0.00,0.00,-5.22,3.59,10.17,0.00,0.10,-3.55,-0.95,-5.71,32.70,-3.25
65708522,0.289,-0.050,1.053,-0.15,-3.07,-1.34,-5.08,-14.56,1203,1203,1167,1213,1219,1213,0,1500,1500,1203,1500,4294967285,0.00,0.00,-5.24,3.55,10.19,0.00,-0.15,-3.07,-1.34,13.58,-13.69,10.56
65712522,0.275,-0.145,1.105,-0.02,-3.11,-1.11,-5.12,-14.56,1203,1203,1219,1207,1195,1191,0,1500,1500,1203,1500,4294967284,0.00,0.00,-5.23,3.59,10.19,0.00,-0.02,-3.11,-1.11,-2.41,10.92,-4.88
65716522,0.209,-0.229,1.038,0.06,-4.48,-0.74,-5.16,-14.56,1203,1203,1289,1273,1133,1117,0,1500,1500,1203,1500,4294967283,0.00,0.00,-5.22,3.62,10.19,0.00,0.06,-4.48,-0.74,-0.05,78.91,-8.79
65720522,0.206,-0.114,1.062,0.16,-4.32,-1.20,-5.17,-14.53,1203,1203,1194,1214,1188,1216,0,1500,1500,1203,1500,4294967284,0.00,0.00,-5.22,3.62,10.17,0.00,0.16,-4.32,-1.20,-2.37,1.06,12.27
65724522,0.230,-0.019,1.106,0.16,-4.47,-1.60,-5.13,-14.53,1203,1203,1208,1232,1176,1196,0,1500,1500,1203,1500,4294967284,0.00,0.00,-5.24,3.59,10.17,0.00,0.16,-4.47,-1.60,1.29,17.68,11.28
65728522,0.234,-0.173,0.953,-0.72,-5.01,-1.22,-5.18,-14.54,1203,1203,1200,1280,1222,1110,0,1500,1500,1203,1500,4294967284,0.00,0.00,-5.23,3.63,10.18,0.00,-0.72,-5.01,-1.22,48.42,37.88,-8.77
65732522,0.247,-0.136,0.929,-0.40,-5.13,-1.25,-5.23,-14.56,1203,1203,1230,1210,1174,1198,0,1500,1500,1203,1500,4294967283,0.00,0.00,-5.22,3.66,10.20,0.00,-0.40,-5.13,-1.25,-11.60,17.64,1.77
65736522,0.253,-0.003,1.073,-0.79,-5.09,-1.58,-5.19,-14.57,1203,1203,1182,1242,1206,1182,0,1500,1500,1203,1500,4294967284,0.00,0.00,-5.24,3.63,10.20,0.00,-0.79,-5.09,-1.58,21.48,9.20,9.30
65740522,0.276,-0.090,1.049,-1.46,-5.45,-1.36,-5.15,-14.62,1203,1203,1202,1264,1212,1134,0,1500,1500,1203,1500,4294967285,0.00,0.00,-5.25,3.61,10.23,0.00,-1.46,-5.45,-1.36,35.41,30.36,-4.61
65744522,0.254,-0.155,1.030,-0.73,-6.13,-1.06,-5.20,-14.63,1203,1203,1286,1212,1132,1182,0,1500,1500,1203,1500,3989,0.00,0.00,-5.24,3.64,10.24,0.00,-0.73,-6.13,-1.06,-31.68,46.24,-6.79
65748522,0.242,-0.091,1.084,-0.72,-5.99,-1.42,-5.19,-14.61,1203,1203,1194,1218,1192,1208,0,1500,1500,1203,1500,4294967282,0.00,0.00,-5.25,3.63,10.23,0.00,-0.72,-5.99,-1.42,2.35,3.31,10.05
65752522,0.242,-0.005,1.072,-1.02,-6.64,-1.70,-5.15,-14.62,1203,1203,1223,1271,1167,1151,0,1500,1500,1203,1500,4294967283,0.00,0.00,-5.26,3.61,10.24,0.00,-1.02,-6.64,-1.70,16.98,44.69,8.35
65756522,0.222,-0.105,0.918,-0.97,-7.24,-1.24,-5.19,-14.62,1203,1203,1253,1237,1173,1149,0,1500,1500,1203,1500,4294967284,0.00,0.00,-5.26,3.63,10.24,0.00,-0.97,-7.24,-1.24,2.07,42.19,-10.76
65760522,0.235,-0.123,0.960,-0.96,-6.47,-1.16,-5.24,-14.63,1203,1203,1174,1180,1234,1224,0,1500,1500,1203,1500,4294967285,0.00,0.00,-5.25,3.67,10.24,0.00,-0.96,-6.47,-1.16,4.41,-26.16,-1.17
65764522,0.283,0.001,1.053,-0.89,-6.47,-1.18,-5.19,-14.66,1203,1203,1215,1215,1189,1193,0,1500,1500,1203,1500,4294967284,0.00,0.00,-5.26,3.64,10.26,0.00,-0.89,-6.47,-1.18,-1.94,12.71,1.37
65768522,0.242,-0.131,0.970,-1.63,-6.69,-0.73,-5.24,-14.67,1203,1203,1194,1258,1232,1128,0,1500,1500,1203,1500,4294967283,0.00,0.00,-5.25,3.67,10.27,0.00,-1.63,-6.69,-0.73,42.42,23.08,-10.85
65772522,0.226,-0.190,0.988,-0.93,-6.86,-0.65,-5.29,-14.68,1203,1203,1255,1193,1153,1211,0,1500,1500,1203,1500,4294967284,0.00,0.00,-5.24,3.70,10.28,0.00,-0.93,-6.86,-0.65,-30.14,21.25,-1.47
65776522,0.207,-0.071,1.028,-0.58,-6.53,-0.93,-5.28,-14.67,1203,1203,1205,1191,1187,1229,0,1500,1500,1203,1500,4294967285,0.00,0.00,-5.25,3.69,10.27,0.00,-0.58,-6.53,-0.93,-14.97,-5.56,7.60
65780522,0.210,-0.028,1.025,-1.06,-7.08,-0.89,-5.25,-14.67,1203,1203,1216,1268,1190,1138,0,1500,1500,1203,1500,4294967284,0.00,0.00,-5.25,3.67,10.27,0.00,-1.06,-7.08,-0.89,26.44,39.49,-0.25
65784522,0.190,-0.058,0.905,-0.73,-7.54,-0.72,-5.23,-14.66,1203,1203,1255,1221,1157,1179,0,1500,1500,1203,1500,4294967283,0.00,0.00,-5.26,3.66,10.26,0.00,-0.73,-7.54,-0.72,-14.02,35.59,-3.85
65788522,0.245,-0.063,0.933,-0.69,-6.43,-0.64,-5.18,-14.69,1203,1203,1161,1159,1247,1245,0,1500,1500,1203,1500,4294967284,0.00,0.00,-5.27,3.63,10.28,0.00,-0.69,-6.43,-0.64,-0.52,-43.24,-1.45
65792522,0.262,-0.053,0.961,-0.86,-6.48,-0.42,-5.14,-14.72,1203,1203,1213,1223,1203,1173,0,1500,1500,1203,1500,4294967285,0.00,0.00,-5.28,3.60,10.31,0.00,-0.86,-6.48,-0.42,10.16,15.54,-5.33
65796522,0.238,-0.116,0.884,-0.80,-6.69,0.14,-5.19,-14.76,1203,1203,1239,1213,1195,1165,0,1500,1500,1203,1500,3989,0.00,0.00,-5.27,3.63,10.33,0.00,-0.80,-6.69,0.14,1.67,23.61,-14.02
65800522,0.236,-0.138,0.950,-0.53,-6.10,0.09,-5.24,-14.77,1203,1203,1194,1178,1210,1230,0,1500,1500,1203,1500,7989,0.00,0.00,-5.25,3.67,10.34,0.00,-0.53,-6.10,0.09,-9.10,-17.72,1.19
65804522,0.229,0.002,1.061,-0.60,-6.55,-0.20,-5.20,-14.77,1203,1203,1225,1249,1167,1171,0,1500,1500,1203,1500,11989,0.00,0.00,-5.26,3.64,10.34,0.00,-0.60,-6.55,-0.20,5.49,34.90,7.24
65808522,0.237,-0.001,1.021,-0.34,-6.90,0.10,-5.16,-14.79,1203,1203,1251,1213,1169,1179,0,1500,1500,1203,1500,4294967284,0.00,0.00,-5.27,3.61,10.35,0.00,-0.34,-6.90,0.10,-12.07,29.60,-7.46
65812522,0.163,-0.027,0.979,-0.26,-6.65,0.12,-5.14,-14.78,1203,1203,1204,1202,1202,1204,0,1500,1500,1203,1500,4294967283,0.00,0.00,-5.28,3.59,10.34,0.00,-0.26,-6.65,0.12,-1.94,-0.84,-0.53
65816522,0.197,0.054,1.059,-0.17,-6.52,0.27,-5.10,-14.78,1203,1203,1214,1202,1198,1198,0,1500,1500,1203,1500,4294967284,0.00,0.00,-5.28,3.57,10.35,0.00,-0.17,-6.52,0.27,-3.25,5.79,-4.00
65820522,0.224,0.000,0.999,-0.48,-6.21,0.68,-5.06,-14.79,1203,1203,1194,1206,1232,1180,0,1500,1500,1203,1500,4294967285,0.00,0.00,-5.29,3.54,10.35,0.00,-0.48,-6.21,0.68,16.81,-3.81,-10.66
65824522,0.177,-0.119,0.948,-0.10,-6.11,1.12,-5.08,-14.77,1203,1203,1234,1182,1194,1202,0,1500,1500,1203,1500,4294967284,0.00,0.00,-5.28,3.55,10.34,0.00,-0.10,-6.11,1.12,-15.44,5.67,-11.74
65828522,0.194,-0.122,0.976,0.14,-5.90,1.01,-5.10,-14.76,1203,1203,1210,1196,1192,1214,0,1500,1500,1203,1500,4294967283,0.00,0.00,-5.26,3.57,10.33,0.00,0.14,-5.90,1.01,-9.17,0.67,2.01
65832522,0.244,-0.056,1.086,-0.20,-6.14,0.66,-5.07,-14.75,1203,1203,1200,1252,1190,1170,0,1500,1500,1203,1500,4294967284,0.00,0.00,-5.27,3.55,10.32,0.00,-0.20,-6.14,0.66,18.71,23.02,8.12
65836522,0.197,-0.080,0.979,-0.01,-6.43,0.73,-5.07,-14.73,1203,1203,1237,1219,1173,1183,0,1500,1500,1203,1500,4294967285,0.00,0.00,-5.26,3.55,10.31,0.00,-0.01,-6.43,0.73,-7.04,25.67,-2.19
65840522,0.166,-0.087,1.030,0.37,-6.10,0.85,-5.07,-14.71,1203,1203,1217,1179,1195,1221,0,1500,1500,1203,1500,4294967284,0.00,0.00,-5.26,3.55,10.30,0.00,0.37,-6.10,0.85,-16.93,-5.52,-3.57
65844522,0.196,0.024,1.103,0.11,-6.12,0.96,-5.03,-14.71,1203,1203,1204,1226,1208,1174,0,1500,1500,1203,1500,4294967283,0.00,0.00,-5.26,3.52,10.29,0.00,0.11,-6.12,0.96,14.37,12.21,-3.44
65848522,0.197,-0.033,0.912,-0.24,-5.83,1.43,-5.00,-14.70,1203,1203,1194,1206,1236,1176,0,1500,1500,1203,1500,4294967282,0.00,0.00,-5.26,3.50,10.29,0.00,-0.24,-5.83,1.43,18.67,-3.30,-12.83
65852522,0.219,-0.135,0.967,-0.06,-5.43,1.80,-5.04,-14.69,1203,1203,1209,1179,1217,1207,0,1500,1500,1203,1500,3986,0.00,0.00,-5.24,3.53,10.29,0.00,-0.06,-5.43,1.80,-5.09,-9.55,-10.39
65856522,0.250,-0.095,0.943,-0.02,-5.57,1.66,-5.09,-14.72,1203,1203,1218,1226,1184,1184,0,1500,1500,1203,1500,4294967285,0.00,0.00,-5.22,3.56,10.30,0.00,-0.02,-5.57,1.66,2.18,19.33,2.43
65860522,0.334,-0.112,0.970,-0.22,-5.25,1.36,-5.10,-14.78,1203,1203,1181,1219,1213,1199,0,1500,1500,1203,1500,4294967284,0.00,0.00,-5.21,3.57,10.35,0.00,-0.22,-5.25,1.36,13.48,-3.14,6.50
65864522,0.309,-0.205,1.017,-0.03,-5.42,1.38,-5.15,-14.82,1203,1203,1229,1217,1179,1187,0,1500,1500,1203,1500,4294967283,0.00,0.00,-5.19,3.61,10.37,0.00,-0.03,-5.42,1.38,-5.25,20.93,-1.51
65868522,0.295,-0.189,1.035,0.03,-5.61,1.38,-5.20,-14.85,1203,1203,1224,1224,1184,1180,0,1500,1500,1203,1500,4294967284,0.00,0.00,-5.17,3.64,10.39,0.00,0.03,-5.61,1.38,1.02,21.62,-1.04
65872522,0.303,-0.102,1.085,-0.14,-5.34,1.57,-5.21,-14.91,1203,1203,1197,1209,1219,1187,0,1500,1500,1203,1500,4294967285,0.00,0.00,-5.16,3.65,10.44,0.00,-0.14,-5.34,1.57,11.56,0.13,-5.87
65876522,0.246,-0.163,0.919,-0.20,-5.55,2.19,-5.26,-14.93,1203,1203,1234,1216,1204,1158,0,1500,1500,1203,1500,4294967284,0.00,0.00,-5.14,3.68,10.45,0.00,-0.20,-5.55,2.19,7.80,22.33,-16.96
65880522,0.336,-0.155,0.940,-0.55,-5.17,2.42,-5.30,-14.99,1203,1203,1183,1211,1237,1181,0,1500,1500,1203,1500,4294967283,0.00,0.00,-5.12,3.71,10.49,0.00,-0.55,-5.17,2.42,21.47,-6.32,-7.51
65884522,0.349,-0.057,0.979,-0.76,-5.16,2.22,-5.29,-15.05,1203,1203,1199,1231,1201,1181,0,1500,1500,1203,1500,4294967284,0.00,0.00,-5.11,3.70,10.53,0.00,-0.76,-5.16,2.22,13.48,12.79,3.58
65888522,0.354,-0.139,0.965,-1.02,-5.29,1.96,-5.32,-15.11,1203,1203,1200,1244,1196,1172,0,1500,1500,1203,1500,4294967285,0.00,0.00,-5.10,3.72,10.57,0.00,-1.02,-5.29,1.96,17.06,19.44,5.15
65892522,0.336,-0.229,1.035,-0.96,-5.20,1.80,-5.37,-15.14,1203,1203,1207,1215,1195,1195,0,1500,1500,1203,1500,4294967284,0.00,0.00,-5.08,3.76,10.60,0.00,-0.96,-5.20,1.80,2.02,8.01,2.65
65896522,0.322,-0.172,1.129,-1.21,-5.43,1.65,-5.42,-15.17,1203,1203,1206,1246,1196,1164,0,1500,1500,1203,1500,4294967283,0.00,0.00,-5.05,3.79,10.62,0.00,-1.21,-5.43,1.65,18.18,23.61,2.61
65900522,0.301,-0.138,1.098,-1.56,-5.73,1.83,-5.48,-15.20,1203,1203,1213,1247,1203,1149,0,1500,1500,1203,1500,4294967284,0.00,0.00,-5.03,3.83,10.64,0.00,-1.56,-5.73,1.83,22.92,27.15,-5.68
65904522,0.267,-0.189,1.018,-1.37,-6.29,2.31,-5.53,-15.21,1203,1203,1259,1227,1173,1153,0,1500,1500,1203,1500,4294967285,0.00,0.00,-5.01,3.87,10.65,0.00,-1.37,-6.29,2.31,-3.82,40.66,-13.80
65908522,0.326,-0.173,0.959,-2.07,-5.91,2.42,-5.58,-15.26,1203,1203,1161,1235,1253,1163,0,1500,1500,1203,1500,4294967284,0.00,0.00,-4.99,3.91,10.68,0.00,-2.07,-5.91,2.42,41.11,-5.64,-4.24
65912522,0.360,-0.090,0.987,-2.40,-5.96,2.25,-5.59,-15.33,1203,1203,1196,1242,1206,1168,0,1500,1500,1203,1500,4294967283,0.00,0.00,-4.97,3.91,10.73,0.00,-2.40,-5.96,2.25,21.09,16.66,2.59
65916522,0.304,-0.184,0.972,-2.65,-6.36,2.21,-5.65,-15.37,1203,1203,1217,1255,1189,1151,0,1500,1500,1203,1500,3987,0.00,0.00,-4.95,3.95,10.76,0.00,-2.65,-6.36,2.21,19.38,33.36,-0.49
65920522,0.301,-0.257,0.999,-2.67,-6.42,1.98,-5.71,-15.40,1203,1203,1207,1229,1191,1185,0,1500,1500,1203,1500,4294967284,0.00,0.00,-4.93,4.00,10.78,0.00,-2.67,-6.42,1.98,7.65,15.90,4.18
65924522,0.313,-0.099,1.130,-3.01,-6.20,1.70,-5.67,-15.43,1203,1203,1179,1229,1217,1187,0,1500,1500,1203,1500,4294967285,0.00,0.00,-4.93,3.97,10.80,0.00,-3.01,-6.20,1.70,20.74,1.68,5.98
65928522,0.243,-0.085,1.111,-3.33,-6.69,2.02,-5.67,-15.41,1203,1203,1227,1251,1197,1137,0,1500,1500,1203,1500,4294967284,0.00,0.00,-4.92,3.97,10.79,0.00,-3.33,-6.69,2.02,21.20,36.64,-9.52
65932522,0.217,-0.118,1.022,-3.18,-7.65,2.40,-5.70,-15.40,1203,1203,1274,1250,1154,1134,0,1500,1500,1203,1500,4294967283,0.00,0.00,-4.91,3.99,10.78,0.00,-3.18,-7.65,2.40,-1.92,59.96,-11.11
65936522,0.254,-0.027,0.997,-3.54,-7.26,2.44,-5.67,-15.41,1203,1203,1178,1218,1232,1184,0,1500,1500,1203,1500,4294967284,0.00,0.00,-4.91,3.97,10.79,0.00,-3.54,-7.26,2.44,22.41,-5.88,-2.83
65940522,0.288,0.008,1.005,-3.85,-7.26,2.41,-5.64,-15.45,1203,1203,1197,1235,1209,1171,0,1500,1500,1203,1500,4294967285,0.00,0.00,-4.91,3.95,10.81,0.00,-3.85,-7.26,2.41,19.80,13.84,-0.84
65944522,0.284,-0.116,0.958,-3.85,-7.87,2.51,-5.70,-15.50,1203,1203,1245,1251,1169,1147,0,1500,1500,1203,1500,4294967284,0.00,0.00,-4.88,3.99,10.85,0.00,-3.85,-7.87,2.51,7.78,45.26,-4.34
65948522,0.303,-0.177,0.972,-3.80,-7.59,2.30,-5.76,-15.55,1203,1203,1196,1210,1204,1202,0,1500,1500,1203,1500,4294967283,0.00,0.00,-4.86,4.03,10.88,0.00,-3.80,-7.59,2.30,5.00,0.50,3.79
65952522,0.317,-0.106,1.103,-3.92,-7.36,1.93,-5.76,-15.62,1203,1203,1189,1225,1203,1195,0,1500,1500,1203,1500,4294967284,0.00,0.00,-4.85,4.03,10.93,0.00,-3.92,-7.36,1.93,11.57,4.00,7.88
65956522,0.309,-0.122,1.112,-3.60,-8.08,2.28,-5.82,-15.63,1203,1203,1270,1234,1156,1152,0,1500,1500,1203,1500,4294967285,0.00,0.00,-4.83,4.08,10.94,0.00,-3.60,-8.08,2.28,-8.45,49.63,-10.51
65960522,0.244,-0.100,0.918,-3.42,-8.73,2.42,-5.86,-15.63,1203,1203,1256,1242,1160,1154,0,1500,1500,1203,1500,4294967284,0.00,0.00,-4.81,4.10,10.94,0.00,-3.42,-8.73,2.42,-2.36,46.23,-5.04
65964522,0.315,0.125,1.048,-3.38,-8.50,2.18,-5.83,-15.66,1203,1203,1201,1211,1197,1203,0,1500,1500,1203,1500,4294967283,0.00,0.00,-4.81,4.08,10.97,0.00,-3.38,-8.50,2.18,1.92,3.25,4.52
65968522,0.331,0.055,0.982,-3.70,-8.56,2.28,-5.80,-15.71,1203,1203,1205,1237,1209,1161,0,1500,1500,1203,1500,4294967284,0.00,0.00,-4.81,4.06,11.00,0.00,-3.70,-8.56,2.28,20.47,18.59,-4.08
65972522,0.346,-0.111,0.909,-3.38,-9.36,2.49,-5.83,-15.79,1203,1203,1275,1245,1143,1149,0,1500,1500,1203,1500,4294967285,0.00,0.00,-4.79,4.08,11.05,0.00,-3.38,-9.36,2.49,-9.48,57.15,-6.97
65976522,0.370,-0.108,0.963,-2.99,-8.64,2.19,-5.85,-15.87,1203,1203,1192,1176,1204,1240,0,1500,1500,1203,1500,4294967284,0.00,0.00,-4.78,4.09,11.11,0.00,-2.99,-8.64,2.19,-13.77,-19.50,5.92
65980522,0.367,-0.140,1.066,-3.21,-8.56,1.89,-5.89,-15.94,1203,1203,1193,1237,1203,1179,0,1500,1500,1203,1500,4294967283,0.00,0.00,-4.76,4.12,11.16,0.00,-3.21,-8.56,1.89,17.17,12.10,5.98
65984522,0.344,-0.228,1.031,-2.57,-9.91,2.19,-5.94,-16.00,1203,1203,1320,1254,1102,1136,0,1500,1500,1203,1500,4294967284,0.00,0.00,-4.74,4.16,11.20,0.00,-2.57,-9.91,2.19,-25.13,84.42,-8.85
65988522,0.316,-0.187,0.963,-1.83,-9.82,1.95,-6.00,-16.05,1203,1203,1240,1188,1158,1226,0,1500,1500,1203,1500,4294967285,0.00,0.00,-4.71,4.20,11.24,0.00,-1.83,-9.82,1.95,-30.87,11.90,4.60
65992522,0.307,-0.012,1.097,-1.91,-10.00,1.53,-5.96,-16.09,1203,1203,1213,1243,1175,1181,0,1500,1500,1203,1500,4294967284,0.00,0.00,-4.71,4.17,11.26,0.00,-1.91,-10.00,1.53,6.65,25.48,9.30
65996522,0.309,-0.028,0.945,-1.88,-10.89,1.76,-5.93,-16.15,1203,1203,1270,1260,1148,1134,0,1500,1500,1203,1500,4294967283,0.00,0.00,-4.71,4.15,11.31,0.00,-1.88,-10.89,1.76,1.79,62.20,-6.77
66000522,0.351,-0.104,0.951,-1.69,-10.89,1.85,-5.94,-16.24,1203,1203,1229,1213,1183,1187,0,1500,1500,1203,1500,4294967284,0.00,0.00,-4.70,4.16,11.37,0.00,-1.69,-10.89,1.85,-5.00,18.56,-3.59
66004522,0.359,0.003,1.003,-1.27,-10.46,1.50,-5.91,-16.30,1203,1203,1210,1188,1182,1232,0,1500,1500,1203,1500,4294967285,0.00,0.00,-4.70,4.14,11.41,0.00,-1.27,-10.46,1.50,-18.11,-4.13,7.72
66008522,0.366,-0.056,1.061,-1.22,-10.46,1.62,-5.89,-16.38,1203,1203,1224,1216,1190,1182,0,1500,1500,1203,1500,4294967284,0.00,0.00,-4.70,4.12,11.46,0.00,-1.22,-10.46,1.62,0.09,17.98,-4.29
66012522,0.330,-0.176,0.988,-0.75,-11.30,1.83,-5.93,-16.44,1203,1203,1287,1239,1131,1155,0,1500,1500,1203,1500,4294967283,0.00,0.00,-4.68,4.15,11.51,0.00,-0.75,-11.30,1.83,-18.16,60.16,-6.43
66016522,0.322,-0.092,0.966,0.01,-11.31,1.22,-5.93,-16.53,1203,1203,1243,1201,1135,1233,0,1500,1500,1203,1500,4294967284,0.00,0.00,-4.67,4.15,11.57,0.00,0.01,-11.31,1.22,-35.60,19.43,14.38
66020522,0.320,-0.009,1.091,0.07,-11.41,0.94,-5.88,-16.57,1203,1203,1220,1230,1174,1188,0,1500,1500,1203,1500,4294967285,0.00,0.00,-4.67,4.12,11.60,0.00,0.07,-11.41,0.94,-1.89,22.76,6.45
66024522,0.297,-0.085,0.861,-0.02,-12.43,1.18,-5.88,-16.66,1203,1203,1274,1274,1146,1118,0,1500,1500,1203,1500,4294967284,0.00,0.00,-4.66,4.12,11.66,0.00,-0.02,-12.43,1.18,7.62,71.35,-7.03
66028522,0.426,-0.037,0.981,0.27,-11.64,1.07,-5.86,-16.75,1203,1203,1193,1173,1209,1237,0,1500,1500,1203,1500,4294967283,0.00,0.00,-4.66,4.10,11.72,0.00,0.27,-11.64,1.07,-12.44,-20.33,2.08
66032522,0.373,0.006,1.056,0.16,-11.40,1.02,-5.82,-16.81,1203,1203,1203,1215,1203,1191,0,1500,1500,1203,1500,4294967284,0.00,0.00,-4.66,4.07,11.77,0.00,0.16,-11.40,1.02,6.47,6.70,0.62
66036522,0.336,-0.113,0.935,0.08,-12.25,1.50,-5.84,-16.90,1203,1203,1271,1259,1161,1121,0,1500,1500,1203,1500,4294967285,0.00,0.00,-4.65,4.09,11.83,0.00,0.08,-12.25,1.50,7.71,62.34,-13.16
66040522,0.336,-0.163,0.954,0.73,-11.67,1.45,-5.88,-16.97,1203,1203,1221,1165,1185,1241,0,1500,1500,1203,1500,4294967284,0.00,0.00,-4.63,4.11,11.88,0.00,0.73,-11.67,1.45,-28.54,-10.11,0.31
66044522,0.338,-0.102,1.118,1.12,-11.68,0.91,-5.83,-17.01,1203,1203,1228,1214,1154,1216,0,1500,1500,1203,1500,4294967283,0.00,0.00,-4.63,4.08,11.90,0.00,1.12,-11.68,0.91,-19.25,18.36,12.81
66048522,0.297,-0.100,1.008,0.88,-12.80,0.89,-5.82,-17.01,1203,1203,1263,1289,1143,1117,0,1500,1500,1203,1500,4294967284,0.00,0.00,-4.62,4.07,11.91,0.00,0.88,-12.80,0.89,13.78,73.61,-0.15
66052522,0.301,-0.105,0.910,1.27,-12.71,1.02,-5.84,-17.10,1203,1203,1237,1199,1175,1201,0,1500,1500,1203,1500,4294967288,0.00,0.00,-4.61,4.09,11.97,0.00,1.27,-12.71,1.02,-16.55,15.59,-3.80
66056522,0.401,-0.073,0.986,1.13,-11.55,0.76,-5.82,-17.19,1203,1203,1152,1178,1244,1238,0,1500,1500,1203,1500,4294967284,0.00,0.00,-4.60,4.08,12.03,0.00,1.13,-11.55,0.76,8.18,-38.29,5.85
66060522,0.410,-0.104,1.008,0.68,-11.88,1.16,-5.83,-17.28,1203,1203,1224,1254,1202,1132,0,1500,1500,1203,1500,4294967283,0.00,0.00,-4.59,4.08,12.10,0.00,0.68,-11.88,1.16,25.19,36.58,-10.76
66064522,0.348,-0.204,0.821,0.82,-12.50,1.68,-5.86,-17.36,1203,1203,1270,1236,1164,1142,0,1500,1500,1203,1500,4294967284,0.00,0.00,-4.57,4.10,12.15,0.00,0.82,-12.50,1.68,-3.51,50.50,-14.23
66068522,0.347,-0.156,0.946,0.79,-11.34,1.02,-5.90,-17.43,1203,1203,1144,1184,1232,1252,0,1500,1500,1203,1500,4294967285,0.00,0.00,-4.55,4.13,12.20,0.00,0.79,-11.34,1.02,5.08,-39.08,15.81
66072522,0.365,-0.159,1.061,1.14,-11.34,0.73,-5.94,-17.49,1203,1203,1228,1214,1166,1204,0,1500,1500,1203,1500,4294967284,0.00,0.00,-4.53,4.16,12.25,0.00,1.14,-11.34,0.73,-13.82,18.93,6.75
66076522,0.301,-0.286,0.929,0.79,-12.58,0.86,-5.99,-17.54,1203,1203,1266,1302,1146,1098,0,1500,1500,1203,1500,4294967283,0.00,0.00,-4.51,4.19,12.28,0.00,0.79,-12.58,0.86,21.48,81.25,-3.83
66080522,0.313,-0.213,0.974,1.16,-11.79,0.40,-6.03,-17.59,1203,1203,1185,1179,1199,1249,0,1500,1500,1203,1500,3987,0.00,0.00,-4.48,4.22,12.31,0.00,1.16,-11.79,0.40,-14.76,-21.16,11.06
66084522,0.322,-0.178,1.019,0.88,-11.05,0.24,-6.08,-17.63,1203,1203,1164,1204,1236,1208,0,1500,1500,1203,1500,4294967284,0.00,0.00,-4.46,4.25,12.34,0.00,0.88,-11.05,0.24,17.77,-19.22,3.91
66088522,0.402,-0.266,0.940,0.05,-11.52,0.81,-6.12,-17.70,1203,1203,1213,1277,1221,1101,0,1500,1500,1203,1500,4294967285,0.00,0.00,-4.44,4.28,12.39,0.00,0.05,-11.52,0.81,46.19,42.78,-14.85
66092522,0.389,-0.268,0.821,0.73,-11.12,0.88,-6.16,-17.77,1203,1203,1234,1170,1176,1232,0,1500,1500,1203,1500,4294967284,0.00,0.00,-4.42,4.31,12.44,0.00,0.73,-11.12,0.88,-30.06,-1.28,-2.20
66096522,0.381,-0.181,1.030,0.34,-10.45,0.16,-6.20,-17.83,1203,1203,1149,1229,1223,1211,0,1500,1500,1203,1500,4294967283,0.00,0.00,-4.41,4.34,12.48,0.00,0.34,-10.45,0.16,23.39,-14.77,17.67
66100522,0.361,-0.206,0.958,0.06,-11.10,-0.10,-6.24,-17.89,1203,1203,1230,1278,1164,1140,0,1500,1500,1203,1500,4294967284,0.00,0.00,-4.39,4.37,12.53,0.00,0.06,-11.10,-0.10,18.91,51.03,6.68
66104522,0.380,-0.213,0.947,0.65,-11.02,-0.08,-6.28,-17.96,1203,1203,1243,1193,1163,1213,0,1500,1500,1203,1500,4294967285,0.00,0.00,-4.37,4.40,12.57,0.00,0.65,-11.02,-0.08,-25.77,15.02,-0.34
66108522,0.354,-0.106,1.067,0.62,-10.17,-0.58,-6.24,-18.02,1203,1203,1165,1193,1217,1237,0,1500,1500,1203,1500,4294967284,0.00,0.00,-4.38,4.37,12.62,0.00,0.62,-10.17,-0.58,2.68,-24.33,12.79
66112522,0.336,-0.087,1.011,0.02,-10.66,-0.58,-6.19,-18.08,1203,1203,1214,1276,1192,1130,0,1500,1500,1203,1500,4294967283,0.00,0.00,-4.39,4.34,12.65,0.00,0.02,-10.66,-0.58,31.48,42.57,0.44
66116522,0.372,-0.266,0.831,-0.11,-10.69,0.00,-6.24,-18.14,1203,1203,1226,1218,1208,1160,0,1500,1500,1203,1500,4294967284,0.00,0.00,-4.38,4.37,12.70,0.00,-0.11,-10.69,0.00,10.82,19.97,-14.52
66120522,0.416,-0.221,0.867,0.32,-9.74,-0.37,-6.27,-18.21,1203,1203,1182,1166,1206,1258,0,1500,1500,1203,1500,3988,0.00,0.00,-4.36,4.39,12.75,0.00,0.32,-9.74,-0.37,-17.33,-29.41,9.52
66124522,0.433,-0.101,0.930,-0.43,-9.94,-0.69,-6.27,-18.29,1203,1203,1183,1279,1207,1143,0,1500,1500,1203,1500,4294967285,0.00,0.00,-4.36,4.39,12.81,0.00,-0.43,-9.94,-0.69,40.98,28.73,8.55
66128522,0.478,-0.214,0.893,-1.01,-10.42,-0.70,-6.30,-18.37,1203,1203,1212,1280,1194,1126,0,1500,1500,1203,1500,4294967284,0.00,0.00,-4.35,4.41,12.86,0.00,-1.01,-10.42,-0.70,34.11,43.36,0.68
66132522,0.521,-0.225,0.930,-0.23,-9.59,-1.13,-6.33,-18.45,1203,1203,1203,1157,1181,1271,0,1500,1500,1203,1500,4294967283,0.00,0.00,-4.34,4.43,12.91,0.00,-0.23,-9.59,-1.13,-34.93,-23.08,11.47
66136522,0.515,-0.178,1.096,-0.69,-8.87,-1.24,-6.35,-18.52,1203,1203,1156,1214,1244,1198,0,1500,1500,1203,1500,4294967284,0.00,0.00,-4.34,4.44,12.97,0.00,-0.69,-8.87,-1.24,26.97,-18.14,3.61
66140522,0.400,-0.231,0.945,-1.27,-10.19,-0.77,-6.39,-18.59,1203,1203,1264,1310,1164,1074,0,1500,1500,1203,1500,4294967285,0.00,0.00,-4.32,4.48,13.01,0.00,-1.27,-10.19,-0.77,34.77,84.32,-11.05
66144522,0.457,-0.227,0.846,-0.78,-10.03,-0.91,-6.43,-18.66,1203,1203,1229,1199,1169,1215,0,1500,1500,1203,1500,4294967284,0.00,0.00,-4.31,4.50,13.06,0.00,-0.78,-10.03,-0.91,-19.68,11.03,4.16
66148522,0.476,-0.189,1.019,-1.24,-8.67,-1.45,-6.46,-18.73,1203,1203,1112,1194,1266,1240,0,1500,1500,1203,1500,4294967283,0.00,0.00,-4.31,4.52,13.11,0.00,-1.24,-8.67,-1.45,27.89,-50.45,14.46
66152522,0.477,-0.179,0.972,-1.73,-9.51,-1.36,-6.48,-18.81,1203,1203,1234,1292,1174,1112,0,1500,1500,1203,1500,4294967282,0.00,0.00,-4.30,4.54,13.17,0.00,-1.73,-9.51,-1.36,30.22,60.85,-1.46
66156522,0.464,-0.231,0.860,-1.72,-9.45,-1.47,-6.52,-18.88,1203,1203,1210,1226,1190,1186,0,1500,1500,1203,1500,4294967285,0.00,0.00,-4.29,4.56,13.22,0.00,-1.72,-9.45,-1.47,5.25,15.07,3.79
66160522,0.491,-0.178,1.101,-1.60,-8.29,-2.20,-6.54,-18.95,1203,1203,1145,1181,1223,1263,0,1500,1500,1203,1500,4294967284,0.00,0.00,-4.29,4.58,13.27,0.00,-1.60,-8.29,-2.20,-1.10,-40.15,19.90
66164522,0.450,-0.186,1.090,-2.02,-8.52,-1.98,-6.58,-19.02,1203,1203,1210,1254,1204,1144,0,1500,1500,1203,1500,4294967283,0.00,0.00,-4.29,4.61,13.31,0.00,-2.02,-8.52,-1.98,26.87,29.13,-4.23
66168522,0.400,-0.206,0.930,-1.95,-9.46,-1.48,-6.63,-19.08,1203,1203,1276,1258,1152,1126,0,1500,1500,1203,1500,4294967284,0.00,0.00,-4.28,4.64,13.36,0.00,-1.95,-9.46,-1.48,2.76,64.81,-11.43
66172522,0.401,-0.103,0.982,-1.67,-8.66,-2.10,-6.62,-19.16,1203,1203,1174,1190,1198,1250,0,1500,1500,1203,1500,4294967285,0.00,0.00,-4.28,4.64,13.41,0.00,-1.67,-8.66,-2.10,-9.83,-21.68,17.11
66176522,0.438,-0.090,0.953,-2.04,-8.17,-2.46,-6.62,-19.24,1203,1203,1164,1230,1222,1196,0,1500,1500,1203,1500,4294967284,0.00,0.00,-4.29,4.63,13.47,0.00,-2.04,-8.17,-2.46,23.40,-6.33,10.61
66180522,0.478,-0.186,0.957,-2.68,-8.95,-2.13,-6.65,-19.31,1203,1203,1228,1292,1190,1102,0,1500,1500,1203,1500,4294967283,0.00,0.00,-4.29,4.66,13.52,0.00,-2.68,-8.95,-2.13,38.12,57.27,-6.75
66184522,0.492,-0.149,0.905,-2.14,-8.18,-2.54,-6.67,-19.39,1203,1203,1192,1174,1190,1256,0,1500,1500,1203,1500,4294967284,0.00,0.00,-4.29,4.67,13.57,0.00,-2.14,-8.18,-2.54,-21.81,-20.66,12.07
66188522,0.490,-0.170,1.073,-2.39,-7.18,-3.10,-6.70,-19.46,1203,1203,1136,1204,1238,1234,0,1500,1500,1203,1500,4294967285,0.00,0.00,-4.30,4.69,13.62,0.00,-2.39,-7.18,-3.10,18.74,-33.05,16.06
66192522,0.446,-0.282,1.033,-2.80,-8.15,-2.66,-6.75,-19.51,1203,1203,1249,1287,1173,1103,0,1500,1500,1203,1500,4294967284,0.00,0.00,-4.29,4.72,13.66,0.00,-2.80,-8.15,-2.66,27.18,65.62,-8.97
66196522,0.421,-0.252,0.876,-2.04,-8.14,-2.63,-6.79,-19.57,1203,1203,1249,1189,1155,1219,0,1500,1500,1203,1500,4294967283,0.00,0.00,-4.28,4.76,13.70,0.00,-2.04,-8.14,-2.63,-31.36,16.57,1.09
66200522,0.416,-0.109,1.069,-1.98,-7.34,-3.30,-6.77,-19.64,1203,1203,1163,1199,1207,1243,0,1500,1500,1203,1500,4294967284,0.00,0.00,-4.30,4.74,13.75,0.00,-1.98,-7.34,-3.30,0.71,-22.84,18.98
66204522,0.395,-0.105,0.935,-2.25,-8.10,-3.24,-6.77,-19.71,1203,1203,1241,1277,1165,1129,0,1500,1500,1203,1500,4294967285,0.00,0.00,-4.31,4.74,13.80,0.00,-2.25,-8.10,-3.24,18.87,56.37,0.84
66208522,0.514,-0.134,0.861,-2.26,-7.19,-2.92,-6.79,-19.79,1203,1203,1176,1174,1242,1220,0,1500,1500,1203,1500,3989,0.00,0.00,-4.32,4.75,13.85,0.00,-2.26,-7.19,-2.92,5.62,-28.42,-6.08
66212522,0.496,-0.104,0.962,-1.94,-5.98,-3.26,-6.79,-19.86,1203,1203,1160,1158,1226,1268,0,1500,1500,1203,1500,7989,0.00,0.00,-4.33,4.75,13.90,0.00,-1.94,-5.98,-3.26,-11.15,-44.43,10.75
66216522,0.499,-0.176,0.988,-2.06,-6.14,-3.07,-6.81,-19.92,1203,1203,1218,1236,1192,1166,0,1500,1500,1203,1500,11989,0.00,0.00,-4.33,4.77,13.94,0.00,-2.06,-6.14,-3.07,11.48,24.35,-2.62
66220522,0.485,-0.300,0.851,-1.74,-5.86,-2.75,-6.85,-19.97,1203,1203,1219,1189,1197,1207,0,1500,1500,1203,1500,4294967284,0.00,0.00,-4.33,4.80,13.98,0.00,-1.74,-5.86,-2.75,-10.04,1.79,-5.89
66224522,0.462,-0.142,0.969,-0.84,-5.20,-3.23,-6.86,-20.04,1203,1203,1212,1160,1166,1274,0,1500,1500,1203,1500,4294967283,0.00,0.00,-4.34,4.80,14.03,0.00,-0.84,-5.20,-3.23,-40.42,-17.07,14.03
66228522,0.446,-0.171,0.890,-0.80,-5.76,-3.22,-6.89,-20.10,1203,1203,1242,1250,1160,1160,0,1500,1500,1203,1500,4294967284,0.00,0.00,-4.34,4.82,14.07,0.00,-0.80,-5.76,-3.22,2.57,43.91,2.22
66232522,0.527,-0.181,0.871,-0.23,-4.52,-3.12,-6.90,-20.16,1203,1203,1181,1133,1225,1273,0,1500,1500,1203,1500,4294967285,0.00,0.00,-4.35,4.83,14.11,0.00,-0.23,-4.52,-3.12,-24.37,-46.78,-0.46
66236522,0.519,-0.177,0.985,-0.30,-3.27,-2.88,-6.92,-20.21,1203,1203,1151,1159,1261,1241,0,1500,1500,1203,1500,4294967284,0.00,0.00,-4.35,4.84,14.15,0.00,-0.30,-3.27,-2.88,7.43,-48.36,-3.90
66240522,0.505,-0.230,0.882,-0.33,-4.05,-2.50,-6.94,-20.26,1203,1203,1257,1255,1163,1137,0,1500,1500,1203,1500,4294967283,0.00,0.00,-4.35,4.86,14.19,0.00,-0.33,-4.05,-2.50,6.13,53.49,-7.75
66244522,0.534,-0.261,0.849,0.02,-3.21,-2.84,-6.97,-20.31,1203,1203,1178,1172,1208,1254,0,1500,1500,1203,1500,4294967284,0.00,0.00,-4.35,4.88,14.22,0.00,0.02,-3.21,-2.84,-13.32,-28.18,10.40
66248522,0.532,-0.197,1.057,0.52,-2.29,-3.19,-6.98,-20.36,1203,1203,1181,1161,1203,1267,0,1500,1500,1203,1500,4294967285,0.00,0.00,-4.35,4.89,14.25,0.00,0.52,-2.29,-3.19,-21.36,-32.51,11.16
66252522,0.483,-0.194,0.979,0.57,-3.02,-3.02,-7.00,-20.41,1203,1203,1254,1252,1156,1150,0,1500,1500,1203,1500,4294967282,0.00,0.00,-4.36,4.90,14.29,0.00,0.57,-3.02,-3.02,1.10,50.12,-2.13
66256522,0.493,-0.161,0.963,0.91,-2.61,-3.14,-7.01,-20.46,1203,1203,1205,1189,1191,1227,0,1500,1500,1203,1500,3986,0.00,0.00,-4.36,4.91,14.32,0.00,0.91,-2.61,-3.14,-13.78,-6.99,5.05
66260522,0.474,-0.120,1.029,1.26,-1.69,-3.15,-7.00,-20.51,1203,1203,1184,1158,1218,1252,0,1500,1500,1203,1500,4294967283,0.00,0.00,-4.38,4.90,14.36,0.00,1.26,-1.69,-3.15,-15.46,-32.48,2.44
66264522,0.478,-0.182,0.942,0.79,-1.43,-2.36,-7.01,-20.56,1203,1203,1195,1211,1247,1159,0,1500,1500,1203,1500,4294967284,0.00,0.00,-4.38,4.91,14.39,0.00,0.79,-1.43,-2.36,26.90,-0.75,-18.16
66268522,0.486,-0.186,0.856,1.17,-1.00,-1.90,-7.03,-20.60,1203,1203,1220,1170,1206,1216,0,1500,1500,1203,1500,4294967285,0.00,0.00,-4.38,4.92,14.42,0.00,1.17,-1.00,-1.90,-15.60,-8.90,-10.00
66272522,0.509,-0.157,0.943,1.54,-0.46,-2.26,-7.03,-20.65,1203,1203,1194,1182,1192,1244,0,1500,1500,1203,1500,4294967284,0.00,0.00,-4.38,4.92,14.45,0.00,1.54,-0.46,-2.26,-16.05,-15.38,10.48
66276522,0.511,-0.191,0.973,1.22,-0.12,-2.38,-7.04,-20.69,1203,1203,1176,1220,1222,1194,0,1500,1500,1203,1500,4294967283,0.00,0.00,-4.38,4.93,14.48,0.00,1.22,-0.12,-2.38,18.82,-5.15,4.63
66280522,0.504,-0.180,0.973,1.35,-0.22,-2.22,-7.06,-20.73,1203,1203,1224,1214,1186,1188,0,1500,1500,1203,1500,4294967284,0.00,0.00,-4.39,4.94,14.51,0.00,1.35,-0.22,-2.22,-3.31,16.86,-2.46
66284522,0.514,-0.116,1.019,1.48,0.20,-2.50,-7.04,-20.77,1203,1203,1190,1198,1200,1224,0,1500,1500,1203,1500,4294967285,0.00,0.00,-4.40,4.93,14.54,0.00,1.48,0.20,-2.50,-4.80,-9.37,8.90
66288522,0.494,-0.102,1.042,1.08,0.44,-2.24,-7.02,-20.81,1203,1203,1186,1218,1230,1178,0,1500,1500,1203,1500,4294967284,0.00,0.00,-4.41,4.92,14.57,0.00,1.08,0.44,-2.24,21.84,-1.03,-5.06
66292522,0.469,-0.154,0.841,0.68,0.32,-1.32,-7.03,-20.85,1203,1203,1218,1222,1230,1142,0,1500,1500,1203,1500,4294967283,0.00,0.00,-4.41,4.92,14.60,0.00,0.68,0.32,-1.32,23.37,17.37,-21.97
66296522,0.514,-0.114,0.890,0.30,1.10,-1.32,-7.03,-20.89,1203,1203,1154,1198,1252,1208,0,1500,1500,1203,1500,4294967284,0.00,0.00,-4.42,4.92,14.62,0.00,0.30,1.10,-1.32,22.36,-27.80,0.88
66300522,0.522,-0.054,0.982,0.47,1.33,-1.36,-7.01,-20.93,1203,1203,1206,1198,1196,1212,0,1500,1500,1203,1500,4294967285,0.00,0.00,-4.43,4.90,14.65,0.00,0.47,1.33,-1.36,-6.24,-1.34,2.06
66304522,0.526,-0.154,0.923,-0.03,1.24,-1.27,-7.02,-20.96,1203,1203,1191,1245,1217,1159,0,1500,1500,1203,1500,4294967284,0.00,0.00,-4.44,4.91,14.67,0.00,-0.03,1.24,-1.27,28.78,15.20,-1.56
66308522,0.574,-0.156,1.032,0.08,1.77,-1.63,-7.02,-21.00,1203,1203,1178,1196,1208,1230,0,1500,1500,1203,1500,4294967283,0.00,0.00,-4.44,4.91,14.70,0.00,0.08,1.77,-1.63,-1.92,-16.21,10.30
66312522,0.570,-0.125,1.088,0.43,2.18,-1.73,-7.01,-21.04,1203,1203,1204,1182,1196,1230,0,1500,1500,1203,1500,4294967284,0.00,0.00,-4.45,4.91,14.72,0.00,0.43,2.18,-1.73,-14.46,-10.37,3.62
66316522,0.542,-0.205,1.063,-0.16,1.65,-1.24,-7.04,-21.07,1203,1203,1217,1261,1211,1123,0,1500,1500,1203,1500,3988,0.00,0.00,-4.45,4.92,14.75,0.00,-0.16,1.65,-1.24,33.51,36.99,-11.33
66320522,0.565,-0.136,0.950,0.09,1.36,-1.01,-7.04,-21.10,1203,1203,1240,1214,1176,1182,0,1500,1500,1203,1500,4294967285,0.00,0.00,-4.45,4.93,14.77,0.00,0.09,1.36,-1.01,-8.82,24.83,-5.07
66324522,0.586,-0.083,0.942,-0.18,2.39,-0.96,-7.03,-21.14,1203,1203,1146,1178,1260,1228,0,1500,1500,1203,1500,4294967284,0.00,0.00,-4.46,4.92,14.80,0.00,-0.18,2.39,-0.96,16.89,-41.19,-0.60
66328522,0.581,-0.151,0.960,-0.55,1.85,-0.72,-7.04,-21.17,1203,1203,1223,1257,1193,1139,0,1500,1500,1203,1500,4294967283,0.00,0.00,-4.46,4.93,14.82,0.00,-0.55,1.85,-0.72,22.29,37.11,-5.45
66332522,0.602,-0.163,0.884,-0.40,1.68,-0.88,-7.05,-21.21,1203,1203,1221,1223,1177,1191,0,1500,1500,1203,1500,4294967284,0.00,0.00,-4.46,4.93,14.85,0.00,-0.40,1.68,-0.88,-3.39,19.12,4.50
66336522,0.617,-0.181,1.017,-0.50,2.62,-1.27,-7.06,-21.24,1203,1203,1147,1185,1239,1241,0,1500,1500,1203,1500,4294967285,0.00,0.00,-4.46,4.94,14.87,0.00,-0.50,2.62,-1.27,9.42,-37.40,10.78
66340522,0.578,-0.245,1.011,-0.49,2.08,-1.26,-7.09,-21.27,1203,1203,1235,1243,1171,1163,0,1500,1500,1203,1500,4294967284,0.00,0.00,-4.46,4.96,14.89,0.00,-0.49,2.08,-1.26,4.09,36.83,0.54
66344522,0.547,-0.281,0.914,-0.46,1.52,-1.03,-7.12,-21.29,1203,1203,1242,1240,1172,1158,0,1500,1500,1203,1500,4294967283,0.00,0.00,-4.45,4.98,14.91,0.00,-0.46,1.52,-1.03,3.43,38.07,-4.88
66348522,0.540,-0.189,0.971,-0.07,1.60,-1.13,-7.14,-21.33,1203,1203,1221,1197,1179,1215,0,1500,1500,1203,1500,4294967284,0.00,0.00,-4.45,5.00,14.93,0.00,-0.07,1.60,-1.13,-15.24,6.86,3.07
66352522,0.516,-0.154,0.901,-0.33,1.26,-1.14,-7.15,-21.36,1203,1203,1212,1248,1192,1160,0,1500,1500,1203,1500,4294967285,0.00,0.00,-4.45,5.00,14.95,0.00,-0.33,1.26,-1.14,17.09,27.73,1.21
66356522,0.554,-0.157,0.932,-0.80,1.08,-0.89,-7.16,-21.40,1203,1203,1201,1245,1215,1151,0,1500,1500,1203,1500,4294967283,0.00,0.00,-4.45,5.01,14.98,0.00,-0.80,1.08,-0.89,27.89,20.28,-5.68
66360522,0.568,-0.104,0.987,-0.23,1.20,-1.08,-7.15,-21.44,1203,1203,1226,1188,1170,1228,0,1500,1500,1203,1500,4294967283,0.00,0.00,-4.46,5.01,15.01,0.00,-0.23,1.20,-1.08,-24.95,4.75,5.56
66364522,0.539,-0.139,0.994,-0.22,1.27,-1.24,-7.16,-21.48,1203,1203,1203,1217,1195,1197,0,1500,1500,1203,1500,4294967284,0.00,0.00,-4.46,5.01,15.04,0.00,-0.22,1.27,-1.24,3.41,7.81,4.87
66368522,0.508,-0.228,1.025,-0.42,1.03,-1.03,-7.19,-21.50,1203,1203,1214,1236,1200,1162,0,1500,1500,1203,1500,4294967285,0.00,0.00,-4.46,5.03,15.05,0.00,-0.42,1.03,-1.03,15.16,22.55,-4.62
66372522,0.492,-0.256,1.059,0.00,0.55,-1.07,-7.23,-21.52,1203,1203,1252,1222,1152,1186,0,1500,1500,1203,1500,4294967284,0.00,0.00,-4.45,5.06,15.07,0.00,0.00,0.55,-1.07,-16.37,34.92,1.74
66376522,0.492,-0.152,1.056,0.49,0.08,-1.41,-7.24,-21.56,1203,1203,1249,1227,1139,1197,0,1500,1500,1203,1500,4294967283,0.00,0.00,-4.45,5.07,15.09,0.00,0.49,0.08,-1.41,-20.95,35.16,9.50
66380522,0.440,-0.122,1.024,0.35,-0.52,-1.28,-7.22,-21.61,1203,1203,1238,1252,1172,1150,0,1500,1500,1203,1500,4294967284,0.00,0.00,-4.46,5.06,15.13,0.00,0.35,-0.52,-1.28,9.69,42.67,-2.31
66384522,0.422,-0.160,0.893,0.23,-0.73,-1.34,-7.25,-21.65,1203,1203,1213,1237,1189,1173,0,1500,1500,1203,1500,4294967285,0.00,0.00,-4.45,5.08,15.15,0.00,0.23,-0.73,-1.34,10.18,22.88,2.47
66388522,0.579,-0.115,1.061,0.73,-0.36,-1.79,-7.24,-21.69,1203,1203,1207,1187,1175,1243,0,1500,1500,1203,1500,4294967284,0.00,0.00,-4.46,5.07,15.18,0.00,0.73,-0.36,-1.79,-22.37,-6.02,12.42
66392522,0.552,-0.136,1.048,0.55,-1.14,-1.34,-7.24,-21.74,1203,1203,1252,1256,1174,1130,0,1500,1500,1203,1500,4294967283,0.00,0.00,-4.47,5.06,15.22,0.00,0.55,-1.14,-1.34,12.45,51.98,-10.15
66396522,0.558,-0.199,0.925,0.30,-1.50,-1.34,-7.25,-21.79,1203,1203,1218,1250,1188,1156,0,1500,1500,1203,1500,4294967284,0.00,0.00,-4.46,5.08,15.25,0.00,0.30,-1.50,-1.34,16.13,31.67,0.75
66400522,0.579,-0.125,1.031,0.84,-1.26,-1.67,-7.24,-21.83,1203,1203,1218,1188,1170,1236,0,1500,1500,1203,1500,4294967285,0.00,0.00,-4.47,5.07,15.28,0.00,0.84,-1.26,-1.67,-24.36,0.96,9.52
66404522,0.546,-0.118,1.067,1.15,-2.29,-1.36,-7.23,-21.89,1203,1203,1288,1250,1130,1144,0,1500,1500,1203,1500,4294967284,0.00,0.00,-4.48,5.06,15.32,0.00,1.15,-2.29,-1.36,-13.07,66.04,-6.79
66408522,0.459,-0.156,0.946,0.93,-3.21,-1.30,-7.25,-21.94,1203,1203,1249,1277,1157,1129,0,1500,1500,1203,1500,4294967283,0.00,0.00,-4.47,5.07,15.36,0.00,0.93,-3.21,-1.30,14.50,60.41,-0.63
66412522,0.476,-0.044,0.949,1.67,-3.05,-1.59,-7.21,-21.99,1203,1203,1236,1182,1154,1240,0,1500,1500,1203,1500,4294967284,0.00,0.00,-4.49,5.04,15.39,0.00,1.67,-3.05,-1.59,-35.94,6.57,8.44
66416522,0.529,-0.123,1.000,1.26,-2.66,-1.63,-7.20,-22.04,1203,1203,1176,1222,1228,1186,0,1500,1500,1203,1500,4294967285,0.00,0.00,-4.50,5.04,15.43,0.00,1.26,-2.66,-1.63,22.48,-4.86,1.94
66420522,0.545,-0.177,0.957,1.16,-3.63,-1.10,-7.21,-22.09,1203,1203,1270,1262,1160,1120,0,1500,1500,1203,1500,4294967284,0.00,0.00,-4.49,5.05,15.47,0.00,1.16,-3.63,-1.10,8.13,63.87,-12.37
66424522,0.534,-0.168,0.914,1.30,-3.77,-1.15,-7.22,-22.15,1203,1203,1227,1223,1177,1185,0,1500,1500,1203,1500,4294967283,0.00,0.00,-4.49,5.05,15.51,0.00,1.30,-3.77,-1.15,-3.89,22.65,1.98
66428522,0.572,-0.135,1.076,1.14,-3.76,-1.54,-7.21,-22.21,1203,1203,1198,1238,1188,1188,0,1500,1500,1203,1500,4294967284,0.00,0.00,-4.50,5.05,15.55,0.00,1.14,-3.76,-1.54,10.44,15.07,10.93
66432522,0.535,-0.157,1.017,1.12,-4.88,-1.28,-7.22,-22.27,1203,1203,1277,1273,1139,1123,0,1500,1500,1203,1500,4294967285,0.00,0.00,-4.49,5.05,15.59,0.00,1.12,-4.88,-1.28,3.99,72.10,-5.62
66436522,0.481,-0.188,0.978,1.13,-5.00,-1.29,-7.24,-22.32,1203,1203,1221,1229,1183,1179,0,1500,1500,1203,1500,4294967284,0.00,0.00,-4.48,5.07,15.63,0.00,1.13,-5.00,-1.29,3.07,22.51,1.03
66440522,0.496,-0.086,1.064,1.91,-5.43,-1.75,-7.20,-22.38,1203,1203,1266,1216,1116,1214,0,1500,1500,1203,1500,4294967283,0.00,0.00,-4.50,5.04,15.66,0.00,1.91,-5.43,-1.75,-37.94,38.16,12.77
66444522,0.487,-0.136,0.915,1.19,-5.63,-1.55,-7.21,-22.44,1203,1203,1195,1265,1217,1135,0,1500,1500,1203,1500,4294967284,0.00,0.00,-4.50,5.04,15.71,0.00,1.19,-5.63,-1.55,38.46,27.22,-3.78
66448522,0.536,-0.217,0.930,0.78,-5.53,-1.17,-7.23,-22.50,1203,1203,1198,1230,1224,1160,0,1500,1500,1203,1500,4294967285,0.00,0.00,-4.49,5.06,15.75,0.00,0.78,-5.53,-1.17,24.46,11.73,-8.79
66452522,0.540,-0.115,0.934,1.29,-5.72,-1.48,-7.22,-22.57,1203,1203,1245,1215,1145,1207,0,1500,1500,1203,1500,4294967284,0.00,0.00,-4.50,5.06,15.80,0.00,1.29,-5.72,-1.48,-23.10,27.16,8.82
66456522,0.541,-0.184,1.006,0.64,-5.84,-1.43,-7.24,-22.63,1203,1203,1189,1261,1217,1145,0,1500,1500,1203,1500,4294967281,0.00,0.00,-4.49,5.07,15.84,0.00,0.64,-5.84,-1.43,36.43,22.97,-0.37
66460522,0.480,-0.253,0.952,0.34,-6.40,-1.33,-7.28,-22.67,1203,1203,1230,1266,1178,1138,0,1500,1500,1203,1500,3985,0.00,0.00,-4.48,5.10,15.87,0.00,0.34,-6.40,-1.33,19.58,45.38,-1.34
66464522,0.454,-0.151,1.000,0.86,-6.31,-1.68,-7.30,-22.73,1203,1203,1229,1203,1159,1221,0,1500,1500,1203,1500,4294967284,0.00,0.00,-4.47,5.11,15.91,0.00,0.86,-6.31,-1.68,-22.35,13.11,9.92
66468522,0.477,-0.099,1.086,0.92,-6.47,-1.74,-7.25,-22.78,1203,1203,1227,1229,1175,1181,0,1500,1500,1203,1500,4294967285,0.00,0.00,-4.49,5.08,15.95,0.00,0.92,-6.47,-1.74,-1.55,25.58,2.74
66472522,0.488,-0.140,0.962,0.48,-7.05,-1.43,-7.26,-22.85,1203,1203,1231,1269,1187,1125,0,1500,1500,1203,1500,4294967284,0.00,0.00,-4.49,5.08,16.00,0.00,0.48,-7.05,-1.43,25.30,47.25,-6.84
66476522,0.532,-0.142,0.933,0.34,-6.41,-1.35,-7.27,-22.92,1203,1203,1181,1199,1227,1205,0,1500,1500,1203,1500,4294967283,0.00,0.00,-4.49,5.09,16.04,0.00,0.34,-6.41,-1.35,10.51,-13.60,-1.18
66480522,0.529,-0.154,1.025,0.30,-6.22,-1.35,-7.28,-22.98,1203,1203,1206,1216,1200,1190,0,1500,1500,1203,1500,4294967284,0.00,0.00,-4.49,5.09,16.09,0.00,0.30,-6.22,-1.35,5.78,8.39,0.99
66484522,0.514,-0.248,0.930,-0.03,-6.99,-1.05,-7.31,-23.04,1203,1203,1244,1274,1174,1120,0,1500,1500,1203,1500,4294967285,0.00,0.00,-4.47,5.12,16.13,0.00,-0.03,-6.99,-1.05,21.45,56.27,-6.85
66488522,0.497,-0.269,0.902,0.12,-6.36,-1.29,-7.35,-23.09,1203,1203,1186,1194,1208,1224,0,1500,1500,1203,1500,4294967284,0.00,0.00,-4.46,5.15,16.16,0.00,0.12,-6.36,-1.29,-2.52,-13.70,7.00
66492522,0.511,-0.177,1.114,0.48,-6.13,-1.89,-7.39,-23.14,1203,1203,1205,1211,1169,1227,0,1500,1500,1203,1500,4294967283,0.00,0.00,-4.45,5.17,16.20,0.00,0.48,-6.13,-1.89,-13.54,5.84,16.30
66496522,0.490,-0.203,1.015,0.16,-6.78,-1.80,-7.42,-23.19,1203,1203,1233,1273,1173,1133,0,1500,1500,1203,1500,4294967284,0.00,0.00,-4.44,5.20,16.23,0.00,0.16,-6.78,-1.80,20.60,50.41,-0.85
66500522,0.508,-0.215,0.960,0.41,-6.58,-1.80,-7.46,-23.25,1203,1203,1216,1204,1188,1204,0,1500,1500,1203,1500,4294967285,0.00,0.00,-4.43,5.22,16.27,0.00,0.41,-6.58,-1.80,-7.91,7.92,1.12
66504522,0.520,-0.096,1.044,0.74,-6.15,-2.08,-7.42,-23.31,1203,1203,1206,1194,1184,1228,0,1500,1500,1203,1500,4294967284,0.00,0.00,-4.44,5.20,16.32,0.00,0.74,-6.15,-2.08,-14.56,-3.72,8.55
66508522,0.472,-0.127,0.915,0.27,-6.10,-1.71,-7.43,-23.38,1203,1203,1200,1236,1222,1154,0,1500,1500,1203,1500,4294967283,0.00,0.00,-4.45,5.20,16.37,0.00,0.27,-6.10,-1.71,26.87,15.69,-8.03
66512522,0.492,-0.170,0.900,0.37,-5.76,-1.47,-7.45,-23.44,1203,1203,1208,1198,1208,1198,0,1500,1500,1203,1500,4294967284,0.00,0.00,-4.44,5.21,16.41,0.00,0.37,-5.76,-1.47,-0.52,0.50,-5.02
66516522,0.522,-0.105,0.946,1.15,-5.13,-1.98,-7.43,-23.50,1203,1203,1212,1168,1166,1266,0,1500,1500,1203,1500,4294967285,0.00,0.00,-4.45,5.20,16.45,0.00,1.15,-5.13,-1.98,-36.68,-13.97,14.21
66520522,0.545,-0.154,0.985,1.09,-4.70,-2.25,-7.44,-23.56,1203,1203,1185,1213,1205,1209,0,1500,1500,1203,1500,4294967284,0.00,0.00,-4.45,5.21,16.49,0.00,1.09,-4.70,-2.25,6.05,-4.55,8.29
66524522,0.549,-0.246,0.923,1.07,-4.78,-2.29,-7.46,-23.61,1203,1203,1217,1229,1185,1181,0,1500,1500,1203,1500,4294967283,0.00,0.00,-4.44,5.22,16.53,0.00,1.07,-4.78,-2.29,4.46,20.48,2.44
66528522,0.585,-0.204,0.984,1.37,-4.39,-2.74,-7.48,-23.67,1203,1203,1199,1203,1181,1229,0,1500,1500,1203,1500,4294967284,0.00,0.00,-4.45,5.23,16.57,0.00,1.37,-4.39,-2.74,-11.74,-2.81,13.19
66532522,0.584,-0.143,1.027,1.35,-3.99,-2.87,-7.47,-23.73,1203,1203,1192,1208,1204,1208,0,1500,1500,1203,1500,4294967285,0.00,0.00,-4.45,5.23,16.61,0.00,1.35,-3.99,-2.87,3.78,-3.28,5.45
66536522,0.521,-0.173,0.957,1.16,-4.42,-2.35,-7.48,-23.79,1203,1203,1240,1242,1188,1142,0,1500,1500,1203,1500,4294967284,0.00,0.00,-4.45,5.24,16.65,0.00,1.16,-4.42,-2.35,12.66,38.28,-11.50
66540522,0.526,-0.168,0.880,1.22,-3.53,-2.32,-7.49,-23.84,1203,1203,1175,1175,1231,1231,0,1500,1500,1203,1500,4294967283,0.00,0.00,-4.45,5.25,16.69,0.00,1.22,-3.53,-2.32,0.31,-28.46,0.99
66544522,0.575,-0.128,1.032,1.32,-2.48,-2.50,-7.48,-23.89,1203,1203,1162,1170,1232,1248,0,1500,1500,1203,1500,4294967284,0.00,0.00,-4.46,5.24,16.73,0.00,1.32,-2.48,-2.50,-2.80,-37.45,6.08
66548522,0.570,-0.209,0.948,1.03,-3.01,-2.24,-7.50,-23.94,1203,1203,1231,1259,1183,1139,0,1500,1500,1203,1500,4294967285,0.00,0.00,-4.46,5.25,16.76,0.00,1.03,-3.01,-2.24,18.23,42.42,-4.79
66552522,0.632,-0.243,0.852,1.27,-2.44,-2.39,-7.51,-23.99,1203,1203,1194,1186,1202,1230,0,1500,1500,1203,1500,4294967284,0.00,0.00,-4.46,5.26,16.79,0.00,1.27,-2.44,-2.39,-9.12,-13.51,5.33
66556522,0.680,-0.180,1.025,1.30,-1.35,-2.83,-7.51,-24.04,1203,1203,1149,1177,1231,1255,0,1500,1500,1203,1500,4294967281,0.00,0.00,-4.47,5.26,16.83,0.00,1.30,-1.35,-2.83,1.56,-40.17,13.07
66560522,0.635,-0.218,0.980,0.47,-1.77,-2.63,-7.53,-24.08,1203,1203,1196,1280,1216,1120,0,1500,1500,1203,1500,4294967284,0.00,0.00,-4.47,5.27,16.86,0.00,0.47,-1.77,-2.63,45.50,35.91,-3.31
66564522,0.584,-0.207,0.880,0.76,-2.06,-2.29,-7.54,-24.13,1203,1203,1249,1215,1169,1179,0,1500,1500,1203,1500,4294967285,0.00,0.00,-4.47,5.28,16.89,0.00,0.76,-2.06,-2.29,-11.16,29.20,-6.72
66568522,0.589,-0.115,0.985,1.13,-1.00,-2.49,-7.53,-24.18,1203,1203,1174,1156,1220,1262,0,1500,1500,1203,1500,4294967284,0.00,0.00,-4.48,5.27,16.93,0.00,1.13,-1.00,-2.49,-15.81,-38.77,6.66
66572522,0.570,-0.122,0.952,0.40,-0.97,-2.18,-7.52,-24.23,1203,1203,1182,1248,1236,1146,0,1500,1500,1203,1500,4294967283,0.00,0.00,-4.49,5.27,16.96,0.00,0.40,-0.97,-2.18,39.81,12.74,-6.14
66576522,0.586,-0.160,0.849,0.02,-0.93,-1.87,-7.53,-24.27,1203,1203,1198,1230,1220,1164,0,1500,1500,1203,1500,4294967284,0.00,0.00,-4.50,5.27,16.99,0.00,0.02,-0.93,-1.87,22.92,11.92,-6.54
66580522,0.602,-0.189,0.922,0.26,-0.16,-2.09,-7.55,-24.31,1203,1203,1181,1177,1213,1241,0,1500,1500,1203,1500,4294967285,0.00,0.00,-4.50,5.28,17.02,0.00,0.26,-0.16,-2.09,-8.20,-24.68,6.91
66584522,0.606,-0.213,0.954,-0.06,0.08,-2.16,-7.56,-24.35,1203,1203,1181,1227,1219,1185,0,1500,1500,1203,1500,4294967284,0.00,0.00,-4.50,5.30,17.05,0.00,-0.06,0.08,-2.16,20.64,1.13,3.39
66588522,0.602,-0.291,0.981,-0.84,0.13,-1.82,-7.60,-24.38,1203,1203,1176,1250,1244,1142,0,1500,1500,1203,1500,4294967283,0.00,0.00,-4.49,5.32,17.07,0.00,-0.84,0.13,-1.82,44.45,10.13,-7.15
66592522,0.585,-0.243,1.024,-0.54,0.20,-1.93,-7.63,-24.41,1203,1203,1217,1207,1181,1207,0,1500,1500,1203,1500,4294967284,0.00,0.00,-4.48,5.34,17.09,0.00,-0.54,0.20,-1.93,-9.57,9.37,4.02
66596522,0.562,-0.165,1.042,-0.52,0.45,-2.09,-7.65,-24.45,1203,1203,1195,1211,1201,1205,0,1500,1500,1203,1500,4294967285,0.00,0.00,-4.49,5.35,17.11,0.00,-0.52,0.45,-2.09,3.30,0.61,5.34
66600522,0.539,-0.213,1.060,-1.20,0.04,-1.51,-7.69,-24.47,1203,1203,1209,1263,1223,1117,0,1500,1500,1203,1500,4294967284,0.00,0.00,-4.48,5.38,17.13,0.00,-1.20,0.04,-1.51,40.03,33.31,-13.25
66604522,0.540,-0.176,0.914,-0.88,-0.04,-1.46,-7.71,-24.51,1203,1203,1230,1210,1176,1196,0,1500,1500,1203,1500,4294967283,0.00,0.00,-4.48,5.40,17.16,0.00,-0.88,-0.04,-1.46,-10.77,17.11,-0.22
66608522,0.582,-0.127,0.979,-0.99,0.83,-1.51,-7.71,-24.55,1203,1203,1161,1185,1241,1225,0,1500,1500,1203,1500,4294967284,0.00,0.00,-4.48,5.40,17.19,0.00,-0.99,0.83,-1.51,10.01,-30.25,2.16
66612522,0.556,-0.195,1.000,-1.76,0.57,-1.09,-7.74,-24.58,1203,1203,1193,1263,1231,1125,0,1500,1500,1203,1500,4294967285,0.00,0.00,-4.48,5.42,17.21,0.00,-1.76,0.57,-1.09,44.69,25.81,-9.78
66616522,0.544,-0.230,0.933,-1.59,0.45,-0.84,-7.78,-24.61,1203,1203,1228,1214,1188,1182,0,1500,1500,1203,1500,4294967284,0.00,0.00,-4.47,5.45,17.23,0.00,-1.59,0.45,-0.84,-2.07,18.62,-5.64
66620522,0.562,-0.207,1.049,-0.90,1.33,-1.03,-7.81,-24.64,1203,1203,1195,1147,1201,1269,0,1500,1500,1203,1500,4294967283,0.00,0.00,-4.46,5.47,17.25,0.00,-0.90,1.33,-1.03,-29.08,-32.07,5.58
66624522,0.525,-0.229,1.072,-1.22,1.08,-0.92,-7.87,-24.65,1203,1203,1206,1246,1204,1156,0,1500,1500,1203,1500,4294967284,0.00,0.00,-4.44,5.51,17.25,0.00,-1.22,1.08,-0.92,22.67,23.98,-2.10
66628522,0.505,-0.181,0.944,-1.17,0.43,-0.72,-7.90,-24.68,1203,1203,1249,1247,1165,1151,0,1500,1500,1203,1500,4294967285,0.00,0.00,-4.43,5.53,17.27,0.00,-1.17,0.43,-0.72,3.30,45.30,-4.63
66632522,0.574,-0.057,1.064,-0.42,1.07,-0.95,-7.86,-24.70,1203,1203,1212,1156,1182,1262,0,1500,1500,1203,1500,4294967284,0.00,0.00,-4.45,5.50,17.29,0.00,-0.42,1.07,-0.95,-34.66,-19.72,6.58
66636522,0.564,-0.031,1.055,-0.47,0.94,-0.70,-7.82,-24.72,1203,1203,1222,1222,1194,1174,0,1500,1500,1203,1500,4294967283,0.00,0.00,-4.48,5.47,17.31,0.00,-0.47,0.94,-0.70,5.26,19.04,-5.91
66640522,0.557,-0.111,0.896,-1.23,0.82,-0.14,-7.82,-24.76,1203,1203,1193,1251,1239,1129,0,1500,1500,1203,1500,4294967284,0.00,0.00,-4.48,5.47,17.33,0.00,-1.23,0.82,-0.14,42.69,19.01,-13.89
66644522,0.583,-0.108,0.982,-0.43,1.71,-0.13,-7.81,-24.80,1203,1203,1207,1135,1199,1271,0,1500,1500,1203,1500,4294967285,0.00,0.00,-4.48,5.47,17.36,0.00,-0.43,1.71,-0.13,-36.65,-32.39,-0.10
66648522,0.591,-0.121,0.988,0.07,1.74,-0.09,-7.80,-24.83,1203,1203,1233,1193,1173,1213,0,1500,1500,1203,1500,4294967284,0.00,0.00,-4.49,5.46,17.38,0.00,0.07,1.74,-0.09,-20.97,10.53,-0.98
66652522,0.605,-0.219,0.891,-0.26,1.46,0.19,-7.83,-24.86,1203,1203,1215,1243,1205,1149,0,1500,1500,1203,1500,4294967283,0.00,0.00,-4.48,5.48,17.41,0.00,-0.26,1.46,0.19,21.07,26.50,-7.17
66656522,0.609,-0.198,0.962,0.34,1.98,-0.22,-7.84,-24.90,1203,1203,1204,1174,1182,1252,0,1500,1500,1203,1500,4294967282,0.00,0.00,-4.47,5.49,17.43,0.00,0.34,1.98,-0.22,-25.67,-14.16,10.45
66660522,0.640,-0.117,1.032,0.97,1.84,-0.59,-7.83,-24.93,1203,1203,1241,1203,1147,1221,0,1500,1500,1203,1500,4294967285,0.00,0.00,-4.48,5.48,17.45,0.00,0.97,1.84,-0.59,-28.76,19.11,9.68
66664522,0.614,-0.164,1.016,0.45,1.35,-0.19,-7.84,-24.97,1203,1203,1219,1259,1205,1129,0,1500,1500,1203,1500,4294967284,0.00,0.00,-4.48,5.49,17.48,0.00,0.45,1.35,-0.19,29.77,36.77,-9.94
66668522,0.559,-0.168,0.928,0.92,1.58,0.08,-7.85,-25.00,1203,1203,1229,1179,1189,1215,0,1500,1500,1203,1500,4294967283,0.00,0.00,-4.47,5.49,17.50,0.00,0.92,1.58,0.08,-19.96,1.21,-6.70
66672522,0.572,-0.104,0.957,1.24,2.26,-0.06,-7.83,-25.03,1203,1203,1191,1171,1209,1241,0,1500,1500,1203,1500,4294967284,0.00,0.00,-4.48,5.48,17.52,0.00,1.24,2.26,-0.06,-13.67,-22.33,3.57
66676522,0.581,-0.124,0.976,0.85,2.15,0.35,-7.82,-25.07,1203,1203,1208,1232,1218,1154,0,1500,1500,1203,1500,4294967285,0.00,0.00,-4.48,5.48,17.55,0.00,0.85,2.15,0.35,22.54,17.53,-10.53
66680522,0.559,-0.204,0.878,1.09,1.68,0.35,-7.85,-25.09,1203,1203,1246,1230,1160,1176,0,1500,1500,1203,1500,4294967284,0.00,0.00,-4.47,5.49,17.57,0.00,1.09,1.68,0.35,-8.28,35.41,-0.23
66684522,0.591,-0.192,0.963,1.69,2.26,-0.43,-7.86,-25.12,1203,1203,1194,1180,1174,1264,0,1500,1500,1203,1500,4294967283,0.00,0.00,-4.46,5.50,17.59,0.00,1.69,2.26,-0.43,-26.96,-16.93,19.77
66688522,0.577,-0.192,1.029,1.64,2.08,-0.68,-7.87,-25.15,1203,1203,1212,1234,1182,1184,0,1500,1500,1203,1500,4294967284,0.00,0.00,-4.46,5.51,17.61,0.00,1.64,2.08,-0.68,5.95,20.60,6.81
66692522,0.550,-0.205,0.985,1.05,1.15,-0.53,-7.90,-25.18,1203,1203,1232,1292,1180,1108,0,1500,1500,1203,1500,4294967285,0.00,0.00,-4.45,5.53,17.62,0.00,1.05,1.15,-0.53,33.61,59.01,-3.42
