t_us,ax_g,ay_g,az_g,gx_dps,gy_dps,gz_dps,roll_deg,pitch_deg,throttle_us,motor_us,m1,m2,m3,m4,mode,rc_roll,rc_pitch,rc_throttle,rc_yaw,rc_age_us,att_sp_roll,att_sp_pitch,att_sp_yaw,rate_sp_roll,rate_sp_pitch,rate_sp_yaw,rate_meas_roll,rate_meas_pitch,rate_meas_yaw,rate_out_roll,rate_out_pitch,rate_out_yaw
32348521,0.055,0.120,1.028,0.32,4.30,1.38,1.02,-2.75,1260,1260,1313,1215,1251,1261,0,1500,1500,1260,1500,4294967284,0.00,0.00,1.41,-1.02,2.75,0.00,0.32,4.30,1.38,-27.29,4.04,-22.08
32352521,0.061,0.015,1.041,-1.09,4.02,1.69,1.00,-2.77,1260,1260,1302,1250,1262,1226,0,1500,1500,1260,1500,4294967283,0.00,0.00,1.42,-1.00,2.77,0.00,-1.09,4.02,1.69,-4.49,16.71,-22.76
32356521,0.096,0.058,1.094,0.27,4.39,1.63,1.03,-2.79,1260,1260,1319,1223,1245,1253,0,1500,1500,1260,1500,4294967284,0.00,0.00,1.43,-1.03,2.79,0.00,0.27,4.39,1.63,-26.82,11.49,-22.74
32360521,-0.014,0.045,1.250,-0.75,4.14,1.48,1.04,-2.73,1260,1260,1304,1246,1260,1230,0,1500,1500,1260,1500,4294967284,0.00,0.00,1.43,-1.04,2.73,0.00,-0.75,4.14,1.48,-7.96,15.67,-22.49
32364521,-0.027,0.062,1.104,-1.57,1.46,1.38,1.06,-2.68,1260,1260,1326,1266,1238,1210,0,1500,1500,1260,1500,4294967284,0.00,0.00,1.44,-1.06,2.68,0.00,-1.57,1.46,1.38,-8.86,36.16,-22.37
32368521,0.008,0.147,0.890,-0.05,2.52,1.24,1.10,-2.66,1260,1260,1316,1218,1248,1258,0,1500,1500,1260,1500,4294967283,0.00,0.00,1.44,-1.10,2.66,0.00,-0.05,2.52,1.24,-27.89,7.46,-22.14
32372521,-0.039,0.030,0.981,-0.83,3.92,1.25,1.10,-2.60,1260,1260,1294,1232,1270,1244,0,1500,1500,1260,1500,4294967284,0.00,0.00,1.45,-1.10,2.60,0.00,-0.83,3.92,1.25,-9.77,3.40,-22.23
32376521,0.060,-0.070,0.913,-1.26,1.77,1.16,1.05,-2.60,1260,1260,1325,1259,1239,1217,0,1500,1500,1260,1500,4294967285,0.00,0.00,1.45,-1.05,2.60,0.00,-1.26,1.77,1.16,-11.55,32.18,-22.10
32380521,0.090,0.023,0.934,-0.76,1.84,0.58,1.05,-2.64,1260,1260,1314,1236,1246,1244,0,1500,1500,1260,1500,4294967284,0.00,0.00,1.45,-1.05,2.64,0.00,-0.76,1.84,0.58,-19.38,15.79,-20.96
32384521,-0.114,0.010,1.169,-0.97,3.03,0.78,1.05,-2.58,1260,1260,1299,1231,1263,1247,0,1500,1500,1260,1500,4294967283,0.00,0.00,1.46,-1.05,2.58,0.00,-0.97,3.03,0.78,-13.72,5.77,-21.40
32388521,-0.131,0.029,1.105,-0.58,0.90,1.17,1.05,-2.53,1260,1260,1332,1252,1232,1224,0,1500,1500,1260,1500,4294967284,0.00,0.00,1.46,-1.05,2.53,0.00,-0.58,0.90,1.17,-18.69,32.32,-22.25
32392521,-0.076,0.114,0.881,-0.08,1.15,0.66,1.08,-2.50,1260,1260,1315,1233,1247,1245,0,1500,1500,1260,1500,4294967285,0.00,0.00,1.46,-1.08,2.50,0.00,-0.08,1.15,0.66,-20.10,14.39,-21.25
32396521,-0.056,-0.047,1.026,-0.23,3.03,0.36,1.05,-2.45,1260,1260,1294,1226,1266,1254,0,1500,1500,1260,1500,4294967284,0.00,0.00,1.47,-1.05,2.45,0.00,-0.23,3.03,0.36,-14.72,0.50,-20.67
32400521,0.004,-0.099,0.970,-0.36,1.55,0.63,1.00,-2.43,1260,1260,1322,1252,1240,1226,0,1500,1500,1260,1500,4294967283,0.00,0.00,1.47,-1.00,2.43,0.00,-0.36,1.55,0.63,-14.57,27.08,-21.24
32404521,0.103,-0.046,1.032,-0.32,1.31,0.41,0.97,-2.45,1260,1260,1313,1243,1247,1237,0,1500,1500,1260,1500,4294967284,0.00,0.00,1.47,-0.97,2.45,0.00,-0.32,1.31,0.41,-15.91,18.35,-20.82
32408521,-0.013,-0.054,1.188,0.10,1.99,0.00,0.93,-2.41,1260,1260,1309,1231,1251,1249,0,1500,1500,1260,1500,4294967285,0.00,0.00,1.48,-0.93,2.41,0.00,0.10,1.99,0.00,-19.16,10.48,-20.01
32412521,-0.067,-0.015,1.105,0.47,0.58,-0.09,0.92,-2.37,1260,1260,1325,1249,1233,1233,0,1500,1500,1260,1500,4294967284,0.00,0.00,1.48,-0.92,2.37,0.00,0.47,0.58,-0.09,-19.20,27.15,-19.81
32416521,0.037,0.029,0.987,0.57,0.69,-0.01,0.97,-2.35,1260,1260,1311,1239,1247,1243,0,1500,1500,1260,1500,4294967283,0.00,0.00,1.47,-0.97,2.35,0.00,0.57,0.69,-0.01,-17.81,15.85,-19.98
32420521,0.074,-0.034,1.003,0.76,1.98,-0.16,0.93,-2.37,1260,1260,1302,1230,1256,1252,0,1500,1500,1260,1500,4294967284,0.00,0.00,1.48,-0.93,2.37,0.00,0.76,1.98,-0.16,-17.91,6.36,-19.66
32424521,0.043,-0.062,0.982,0.78,1.29,-0.24,0.89,-2.36,1260,1260,1316,1246,1242,1236,0,1500,1500,1260,1500,4294967285,0.00,0.00,1.48,-0.89,2.36,0.00,0.78,1.29,-0.24,-16.66,21.48,-19.49
32428521,0.100,-0.068,1.075,0.45,0.94,-0.13,0.85,-2.39,1260,1260,1311,1247,1247,1235,0,1500,1500,1260,1500,4294967284,0.00,0.00,1.48,-0.85,2.39,0.00,0.45,0.94,-0.13,-13.81,19.54,-19.72
32432521,0.029,0.022,1.070,0.66,1.04,-0.40,0.88,-2.34,1260,1260,1312,1238,1246,1244,0,1500,1500,1260,1500,4294967283,0.00,0.00,1.48,-0.88,2.34,0.00,0.66,1.04,-0.40,-18.48,15.48,-19.15
32436521,-0.025,0.035,1.104,0.93,0.53,-0.85,0.89,-2.29,1260,1260,1317,1243,1239,1241,0,1500,1500,1260,1500,4294967284,0.00,0.00,1.47,-0.89,2.29,0.00,0.93,0.53,-0.85,-19.13,20.54,-18.21
32440521,0.023,0.029,1.014,0.91,0.26,-0.61,0.92,-2.25,1259,1259,1312,1242,1242,1240,0,1500,1500,1259,1500,4294967285,0.00,0.00,1.47,-0.92,2.25,0.00,0.91,0.26,-0.61,-17.10,18.97,-18.65
32444521,0.051,-0.015,0.986,-0.13,1.22,-0.14,0.88,-2.27,1259,1259,1295,1241,1261,1239,0,1500,1500,1259,1500,4294967284,0.00,0.00,1.47,-0.88,2.27,0.00,-0.13,1.22,-0.14,-8.08,9.34,-19.59
32448521,0.030,-0.074,0.960,0.10,1.30,-0.33,0.83,-2.26,1259,1259,1310,1238,1246,1242,0,1500,1500,1259,1500,4294967283,0.00,0.00,1.47,-0.83,2.26,0.00,0.10,1.30,-0.33,-17.68,15.73,-19.20
32452521,0.027,-0.030,0.929,0.21,0.51,-0.62,0.79,-2.25,1260,1260,1316,1248,1240,1236,0,1500,1500,1260,1500,4294967284,0.00,0.00,1.47,-0.79,2.25,0.00,0.21,0.51,-0.62,-16.91,22.86,-18.58
32456521,-0.016,-0.002,1.050,-1.08,0.74,-0.61,0.77,-2.20,1260,1260,1297,1251,1259,1233,0,1500,1500,1260,1500,4294967285,0.00,0.00,1.47,-0.77,2.20,0.00,-1.08,0.74,-0.61,-5.53,14.77,-18.57
32460521,-0.011,0.041,1.119,-0.64,0.53,-0.74,0.79,-2.15,1260,1260,1315,1241,1241,1243,0,1500,1500,1260,1500,4294967282,0.00,0.00,1.46,-0.79,2.15,0.00,-0.64,0.53,-0.74,-19.13,18.27,-18.29
32464521,-0.007,0.114,1.026,-0.30,0.24,-0.65,0.83,-2.13,1259,1259,1314,1242,1240,1240,0,1500,1500,1259,1500,4294967283,0.00,0.00,1.46,-0.83,2.13,0.00,-0.30,0.24,-0.65,-18.91,19.32,-18.44
32468521,-0.034,0.028,0.974,-2.23,1.11,0.12,0.83,-2.08,1259,1259,1287,1249,1269,1231,0,1500,1500,1259,1500,4294967284,0.00,0.00,1.46,-0.83,2.08,0.00,-2.23,1.11,0.12,0.00,9.60,-19.98
32472521,-0.002,-0.026,0.866,-1.50,0.91,0.24,0.79,-2.05,1260,1260,1317,1237,1243,1243,0,1500,1500,1260,1500,4294967285,0.00,0.00,1.46,-0.79,2.05,0.00,-1.50,0.91,0.24,-20.16,17.95,-20.24
32476521,0.033,0.027,0.865,-0.98,0.95,-0.57,0.83,-2.05,1259,1259,1312,1238,1242,1244,0,1500,1500,1259,1500,4294967284,0.00,0.00,1.46,-0.83,2.05,0.00,-0.98,0.95,-0.57,-19.68,16.34,-18.58
32480521,-0.048,-0.018,1.040,-2.67,1.34,-0.57,0.80,-2.01,1259,1259,1291,1253,1263,1229,0,1500,1500,1259,1500,4294967283,0.00,0.00,1.46,-0.80,2.01,0.00,-2.67,1.34,-0.57,-1.19,13.05,-18.56
32484521,-0.004,0.070,1.150,-1.89,0.55,-0.18,0.83,-1.98,1259,1259,1320,1242,1236,1238,0,1500,1500,1259,1500,4294967284,0.00,0.00,1.45,-0.83,1.98,0.00,-1.89,0.55,-0.18,-20.71,22.61,-19.33
32488521,-0.019,0.104,1.109,-1.92,0.99,-0.34,0.86,-1.95,1260,1260,1305,1241,1251,1243,0,1500,1500,1260,1500,4294967284,0.00,0.00,1.45,-0.86,1.95,0.00,-1.92,0.99,-0.34,-14.71,13.10,-18.99
32492521,-0.107,0.013,1.013,-2.86,1.33,0.24,0.85,-1.90,1260,1260,1299,1247,1261,1233,0,1500,1500,1260,1500,4294967284,0.00,0.00,1.45,-0.85,1.90,0.00,-2.86,1.33,0.24,-6.73,13.34,-20.17
32496521,-0.054,-0.037,0.843,-2.37,1.17,0.43,0.82,-1.85,1260,1260,1314,1240,1246,1240,0,1500,1500,1260,1500,4294967283,0.00,0.00,1.46,-0.82,1.85,0.00,-2.37,1.17,0.43,-17.66,17.23,-20.55
32500521,0.038,-0.069,0.928,-2.56,1.95,-0.45,0.76,-1.85,1260,1260,1299,1239,1257,1245,0,1500,1500,1260,1500,4294967284,0.00,0.00,1.46,-0.76,1.85,0.00,-2.56,1.95,-0.45,-12.14,9.89,-18.78
32504521,-0.041,-0.097,1.096,-2.30,1.44,-0.45,0.71,-1.82,1259,1259,1311,1245,1243,1237,0,1500,1500,1259,1500,4294967285,0.00,0.00,1.46,-0.71,1.82,0.00,-2.30,1.44,-0.45,-15.82,19.71,-18.76
32508521,-0.082,-0.022,1.171,-2.48,1.78,-0.22,0.69,-1.77,1260,1260,1303,1241,1255,1241,0,1500,1500,1260,1500,4294967284,0.00,0.00,1.45,-0.69,1.77,0.00,-2.48,1.78,-0.22,-12.41,12.88,-19.21
32512521,-0.093,0.073,1.213,-2.23,1.89,-0.30,0.70,-1.72,1260,1260,1309,1239,1249,1243,0,1500,1500,1260,1500,4294967283,0.00,0.00,1.45,-0.70,1.72,0.00,-2.23,1.89,-0.30,-16.10,14.54,-19.03
32516521,-0.100,0.070,1.046,-1.79,1.83,-0.01,0.71,-1.67,1260,1260,1311,1239,1247,1243,0,1500,1500,1260,1500,4294967284,0.00,0.00,1.45,-0.71,1.67,0.00,-1.79,1.83,-0.01,-17.92,15.78,-19.62
32520521,-0.105,0.004,0.862,-2.37,2.91,-0.21,0.70,-1.61,1260,1260,1294,1238,1264,1244,0,1500,1500,1260,1500,4294967285,0.00,0.00,1.45,-0.70,1.61,0.00,-2.37,2.91,-0.21,-9.61,6.19,-19.20
32524521,-0.027,-0.050,0.955,-2.02,2.89,-0.46,0.66,-1.57,1260,1260,1308,1240,1248,1244,0,1500,1500,1260,1500,4294967284,0.00,0.00,1.45,-0.66,1.57,0.00,-2.02,2.89,-0.46,-16.54,14.61,-18.68
32528521,-0.006,-0.100,1.040,-1.99,3.06,-0.57,0.60,-1.54,1260,1260,1305,1241,1251,1243,0,1500,1500,1260,1500,4294967283,0.00,0.00,1.45,-0.60,1.54,0.00,-1.99,3.06,-0.57,-14.02,13.10,-18.44
32532521,-0.142,-0.048,1.115,-2.06,3.52,-0.61,0.58,-1.48,1260,1260,1301,1239,1255,1245,0,1500,1500,1260,1500,4294967284,0.00,0.00,1.45,-0.58,1.48,0.00,-2.06,3.52,-0.61,-13.45,10.22,-18.33
32536521,-0.099,0.028,1.162,-1.22,2.86,-0.44,0.58,-1.43,1260,1260,1318,1240,1238,1244,0,1500,1500,1260,1500,4294967285,0.00,0.00,1.45,-0.58,1.43,0.00,-1.22,2.86,-0.44,-21.06,19.11,-18.65
32540521,-0.079,0.029,0.914,-1.85,3.61,-0.29,0.58,-1.37,1260,1260,1294,1240,1262,1244,0,1500,1500,1260,1500,4294967284,0.00,0.00,1.45,-0.58,1.37,0.00,-1.85,3.61,-0.29,-9.56,7.84,-18.94
32544521,-0.067,-0.036,0.894,-1.83,4.49,-0.28,0.55,-1.31,1260,1260,1298,1234,1258,1250,0,1500,1500,1260,1500,4294967283,0.00,0.00,1.44,-0.55,1.31,0.00,-1.83,4.49,-0.28,-14.21,6.06,-18.94
32548521,-0.012,-0.026,0.937,-1.57,4.17,-0.18,0.52,-1.26,1260,1260,1310,1240,1248,1242,0,1500,1500,1260,1500,4294967284,0.00,0.00,1.44,-0.52,1.26,0.00,-1.57,4.17,-0.18,-16.04,15.39,-19.12
32552521,-0.045,-0.084,0.923,-2.44,4.74,-0.17,0.47,-1.22,1260,1260,1293,1243,1265,1239,0,1500,1500,1260,1500,4294967285,0.00,0.00,1.45,-0.47,1.22,0.00,-2.44,4.74,-0.17,-6.80,8.10,-19.13
32556521,-0.068,0.010,1.082,-1.15,4.73,-0.30,0.46,-1.15,1260,1260,1314,1230,1242,1254,0,1500,1500,1260,1500,4294967284,0.00,0.00,1.44,-0.46,1.15,0.00,-1.15,4.73,-0.30,-24.29,12.27,-18.86
32560521,-0.059,0.099,1.128,-1.05,4.52,-0.51,0.49,-1.10,1260,1260,1306,1240,1250,1244,0,1500,1500,1260,1500,4294967281,0.00,0.00,1.44,-0.49,1.10,0.00,-1.05,4.52,-0.51,-15.69,13.94,-18.43
32564521,-0.021,0.078,0.910,-1.81,4.94,-0.11,0.53,-1.06,1260,1260,1295,1241,1263,1241,0,1500,1500,1260,1500,4294967284,0.00,0.00,1.44,-0.53,1.06,0.00,-1.81,4.94,-0.11,-8.71,8.93,-19.21
32568521,0.050,0.042,0.932,-1.11,5.65,0.15,0.56,-1.07,1260,1260,1305,1227,1253,1255,0,1500,1500,1260,1500,4294967285,0.00,0.00,1.44,-0.56,1.07,0.00,-1.11,5.65,0.15,-20.21,6.39,-19.74
32572521,0.037,0.007,0.978,-1.54,5.85,0.10,0.54,-1.09,1260,1260,1300,1240,1258,1242,0,1500,1500,1260,1500,4294967284,0.00,0.00,1.44,-0.54,1.09,0.00,-1.54,5.85,0.10,-11.08,10.25,-19.65
32576521,-0.003,-0.073,0.926,-1.94,5.36,0.29,0.49,-1.06,1260,1260,1305,1245,1255,1235,0,1500,1500,1260,1500,4294967283,0.00,0.00,1.44,-0.49,1.06,0.00,-1.94,5.36,0.29,-10.63,15.20,-20.05
32580521,0.006,-0.005,1.037,-0.53,5.76,-0.10,0.45,-1.00,1260,1260,1311,1223,1247,1259,0,1500,1500,1260,1500,4294967284,0.00,0.00,1.44,-0.45,1.00,0.00,-0.53,5.76,-0.10,-25.34,7.99,-19.25
32584521,0.026,0.053,1.191,-0.80,5.84,-0.48,0.50,-0.99,1260,1260,1301,1239,1255,1245,0,1500,1500,1260,1500,4294967285,0.00,0.00,1.44,-0.50,0.99,0.00,-0.80,5.84,-0.48,-13.23,10.53,-18.46
32588521,0.014,0.007,0.969,-1.07,5.09,0.23,0.47,-0.93,1260,1260,1307,1245,1251,1237,0,1500,1500,1260,1500,4294967284,0.00,0.00,1.44,-0.47,0.93,0.00,-1.07,5.09,0.23,-12.44,16.92,-19.91
32592521,0.040,0.033,0.906,-0.65,6.27,0.45,0.50,-0.93,1260,1260,1299,1223,1261,1257,0,1500,1500,1260,1500,4294967283,0.00,0.00,1.44,-0.50,0.93,0.00,-0.65,6.27,0.45,-18.37,1.96,-20.37
32596521,0.006,0.021,1.002,-1.09,6.54,0.32,0.53,-0.88,1260,1260,1298,1236,1262,1244,0,1500,1500,1260,1500,4294967284,0.00,0.00,1.45,-0.53,0.88,0.00,-1.09,6.54,0.32,-11.66,7.96,-20.13
32600521,-0.035,-0.053,0.872,-1.16,5.15,0.41,0.49,-0.83,1260,1260,1314,1248,1246,1232,0,1500,1500,1260,1500,4294967285,0.00,0.00,1.45,-0.49,0.83,0.00,-1.16,5.15,0.41,-13.72,21.56,-20.32
32604521,-0.051,0.005,0.991,-0.23,6.03,-0.08,0.49,-0.76,1260,1260,1304,1222,1254,1260,0,1500,1500,1260,1500,4294967284,0.00,0.00,1.45,-0.49,0.76,0.00,-0.23,6.03,-0.08,-22.33,3.43,-19.34
32608521,-0.028,0.016,1.222,-0.37,6.28,-0.31,0.49,-0.69,1260,1260,1299,1235,1257,1249,0,1500,1500,1260,1500,4294967283,0.00,0.00,1.45,-0.49,0.69,0.00,-0.37,6.28,-0.31,-14.21,7.87,-18.85
32612521,-0.030,-0.052,0.978,-0.61,5.02,0.42,0.45,-0.64,1260,1260,1312,1248,1248,1232,0,1500,1500,1260,1500,4294967284,0.00,0.00,1.45,-0.45,0.64,0.00,-0.61,5.02,0.42,-12.91,20.29,-20.34
32616521,-0.005,0.002,0.946,-0.24,6.03,0.62,0.44,-0.57,1259,1259,1298,1224,1260,1254,0,1500,1500,1259,1500,4294967285,0.00,0.00,1.45,-0.44,0.57,0.00,-0.24,6.03,0.62,-17.88,2.24,-20.78
32620521,-0.013,0.047,0.964,-0.71,6.12,0.33,0.47,-0.53,1259,1259,1299,1237,1259,1241,0,1500,1500,1259,1500,4294967284,0.00,0.00,1.45,-0.47,0.53,0.00,-0.71,6.12,0.33,-11.71,9.07,-20.21
32624521,-0.046,-0.068,0.868,-0.92,4.90,0.24,0.43,-0.48,1260,1260,1311,1247,1249,1233,0,1500,1500,1260,1500,4294967283,0.00,0.00,1.45,-0.43,0.48,0.00,-0.92,4.90,0.24,-12.86,19.69,-20.05
32628521,-0.038,-0.068,1.071,-0.08,5.48,-0.11,0.39,-0.44,1259,1259,1304,1224,1252,1256,0,1500,1500,1259,1500,4294967284,0.00,0.00,1.45,-0.39,0.44,0.00,-0.08,5.48,-0.11,-21.39,5.75,-19.32
32632521,-0.049,0.006,1.246,-0.56,5.40,-0.19,0.39,-0.37,1259,1259,1299,1239,1257,1241,0,1500,1500,1259,1500,4294967285,0.00,0.00,1.45,-0.39,0.37,0.00,-0.56,5.40,-0.19,-11.31,10.46,-19.16
32636521,-0.085,-0.022,1.042,-0.76,4.23,0.34,0.37,-0.31,1259,1259,1311,1245,1247,1233,0,1500,1500,1259,1500,4294967284,0.00,0.00,1.46,-0.37,0.31,0.00,-0.76,4.23,0.34,-13.15,19.47,-20.23
32640521,-0.021,0.018,0.933,-0.55,4.87,0.32,0.39,-0.25,1259,1259,1300,1228,1258,1250,0,1500,1500,1259,1500,4294967283,0.00,0.00,1.46,-0.39,0.25,0.00,-0.55,4.87,0.32,-16.68,5.30,-20.21
32644521,0.010,0.088,0.957,-1.16,4.82,0.16,0.43,-0.23,1259,1259,1298,1240,1258,1240,0,1500,1500,1259,1500,4294967284,0.00,0.00,1.46,-0.43,0.23,0.00,-1.16,4.82,0.16,-10.26,10.77,-19.90
32648521,-0.006,-0.051,0.905,-2.04,4.15,0.12,0.37,-0.21,1259,1259,1299,1249,1257,1231,0,1500,1500,1259,1500,4294967285,0.00,0.00,1.46,-0.37,0.21,0.00,-2.04,4.15,0.12,-6.80,15.88,-19.84
32652521,-0.046,-0.034,1.035,-1.06,4.09,-0.04,0.34,-0.15,1259,1259,1310,1230,1246,1250,0,1500,1500,1259,1500,4294967284,0.00,0.00,1.46,-0.34,0.15,0.00,-1.06,4.09,-0.04,-21.53,11.04,-19.50
32656521,-0.095,0.021,1.222,-1.61,4.05,0.19,0.34,-0.09,1259,1259,1297,1241,1259,1239,0,1500,1500,1259,1500,4294967283,0.00,0.00,1.46,-0.34,0.09,0.00,-1.61,4.05,0.19,-9.96,10.71,-19.99
32660521,-0.118,0.032,1.030,-2.28,3.14,0.62,0.34,-0.04,1260,1260,1305,1249,1255,1231,0,1500,1500,1260,1500,4294967282,0.00,0.00,1.46,-0.34,0.04,0.00,-2.28,3.14,0.62,-8.45,17.95,-20.86
32664521,-0.049,0.094,0.971,-1.30,3.30,0.50,0.38,0.00,1260,1260,1310,1228,1250,1252,0,1500,1500,1260,1500,4294967285,0.00,0.00,1.46,-0.38,-0.00,0.00,-1.30,3.30,0.50,-21.89,9.83,-20.65
32668521,-0.012,0.069,0.988,-2.16,3.55,0.29,0.41,0.02,1260,1260,1296,1242,1264,1238,0,1500,1500,1260,1500,4294967284,0.00,0.00,1.46,-0.41,-0.02,0.00,-2.16,3.55,0.29,-7.40,9.03,-20.26
32672521,-0.006,0.009,0.981,-3.41,2.73,0.53,0.41,0.08,1259,1259,1299,1253,1259,1225,0,1500,1500,1259,1500,4294967283,0.00,0.00,1.47,-0.41,-0.08,0.00,-3.41,2.73,0.53,-3.17,17.33,-20.74
32676521,-0.069,0.048,1.138,-2.19,2.47,0.43,0.43,0.13,1259,1259,1314,1230,1244,1248,0,1500,1500,1259,1500,4294967284,0.00,0.00,1.47,-0.43,-0.13,0.00,-2.19,2.47,0.43,-22.77,13.39,-20.58
32680521,-0.140,0.111,1.239,-2.14,2.18,0.45,0.45,0.17,1260,1260,1307,1239,1253,1241,0,1500,1500,1260,1500,4294967285,0.00,0.00,1.47,-0.45,-0.17,0.00,-2.14,2.18,0.45,-14.08,13.74,-20.63
32684521,-0.148,0.106,1.097,-3.19,1.36,0.90,0.46,0.22,1260,1260,1303,1253,1259,1225,0,1500,1500,1260,1500,4294967284,0.00,0.00,1.47,-0.46,-0.22,0.00,-3.19,1.36,0.90,-4.95,18.36,-21.57
32688521,-0.065,0.124,0.982,-2.00,1.45,0.54,0.49,0.24,1259,1259,1312,1228,1246,1250,0,1500,1500,1259,1500,4294967283,0.00,0.00,1.48,-0.49,-0.24,0.00,-2.00,1.45,0.54,-22.80,11.60,-20.88
32692521,-0.014,0.053,0.972,-2.04,1.56,0.29,0.53,0.26,1260,1260,1304,1238,1256,1242,0,1500,1500,1260,1500,4294967284,0.00,0.00,1.48,-0.53,-0.26,0.00,-2.04,1.56,0.29,-13.62,11.32,-20.39
32696521,-0.057,-0.057,1.020,-3.85,0.84,0.81,0.48,0.29,1260,1260,1297,1257,1265,1221,0,1500,1500,1260,1500,4294967285,0.00,0.00,1.48,-0.48,-0.29,0.00,-3.85,0.84,0.81,1.88,18.00,-21.47
32700521,-0.113,-0.010,1.132,-2.39,0.38,0.59,0.46,0.34,1260,1260,1321,1231,1241,1247,0,1500,1500,1260,1500,4294967284,0.00,0.00,1.48,-0.46,-0.34,0.00,-2.39,0.38,0.59,-24.02,16.25,-21.07
32704521,-0.143,0.048,1.159,-1.33,-0.19,0.26,0.47,0.38,1260,1260,1319,1235,1241,1245,0,1500,1500,1260,1500,4294967283,0.00,0.00,1.48,-0.47,-0.38,0.00,-1.33,-0.19,0.26,-22.08,17.52,-20.42
32708521,-0.183,0.013,1.107,-2.73,-0.85,0.67,0.46,0.42,1260,1260,1301,1255,1261,1223,0,1500,1500,1260,1500,4294967284,0.00,0.00,1.49,-0.46,-0.42,0.00,-2.73,-0.85,0.67,-2.38,18.76,-21.26
32712521,-0.067,-0.018,1.007,-1.66,-0.81,0.41,0.43,0.46,1260,1260,1314,1232,1246,1248,0,1500,1500,1260,1500,4294967285,0.00,0.00,1.49,-0.43,-0.46,0.00,-1.66,-0.81,0.41,-21.53,13.41,-20.77
32716521,-0.023,-0.038,0.940,-0.75,-1.00,-0.04,0.38,0.47,1260,1260,1314,1236,1244,1246,0,1500,1500,1260,1500,4294967284,0.00,0.00,1.49,-0.38,-0.47,0.00,-0.75,-1.00,-0.04,-20.96,15.56,-19.86
32720521,-0.116,-0.061,0.963,-2.20,-1.49,0.34,0.35,0.51,1260,1260,1299,1255,1261,1225,0,1500,1500,1260,1500,4294967283,0.00,0.00,1.49,-0.35,-0.51,0.00,-2.20,-1.49,0.34,-2.06,17.94,-20.65
32724521,-0.092,0.014,1.086,-1.15,-2.17,0.16,0.35,0.54,1260,1260,1320,1238,1240,1242,0,1500,1500,1260,1500,4294967284,0.00,0.00,1.49,-0.35,-0.54,0.00,-1.15,-2.17,0.16,-21.91,19.90,-20.30
32728521,-0.092,0.138,1.108,0.48,-2.97,-0.63,0.39,0.56,1260,1260,1326,1236,1230,1248,0,1500,1500,1260,1500,4294967285,0.00,0.00,1.49,-0.39,-0.56,0.00,0.48,-2.97,-0.63,-27.91,21.71,-18.68
32732521,-0.142,0.112,1.055,-0.19,-3.24,-0.28,0.42,0.58,1260,1260,1306,1248,1252,1234,0,1500,1500,1260,1500,4294967284,0.00,0.00,1.49,-0.42,-0.58,0.00,-0.19,-3.24,-0.28,-10.09,17.83,-19.36
32736521,-0.054,0.018,1.008,-0.00,-2.99,-0.08,0.43,0.61,1260,1260,1308,1238,1250,1244,0,1500,1500,1260,1500,4294967283,0.00,0.00,1.49,-0.43,-0.61,0.00,-0.00,-2.99,-0.08,-16.51,13.65,-19.76
32740521,-0.018,-0.006,0.952,1.41,-3.69,-0.50,0.40,0.62,1260,1260,1325,1237,1231,1247,0,1500,1500,1260,1500,4294967284,0.00,0.00,1.48,-0.40,-0.62,0.00,1.41,-3.69,-0.50,-26.51,21.56,-18.89
32744521,-0.081,-0.048,0.911,1.02,-3.99,-0.35,0.37,0.64,1260,1260,1309,1247,1249,1235,0,1500,1500,1260,1500,4294967284,0.00,0.00,1.48,-0.37,-0.64,0.00,1.02,-3.99,-0.35,-12.69,18.73,-19.18
32748521,-0.058,-0.020,1.083,1.03,-3.73,-0.67,0.35,0.67,1260,1260,1307,1241,1249,1243,0,1500,1500,1260,1500,4294967284,0.00,0.00,1.48,-0.35,-0.67,0.00,1.03,-3.73,-0.67,-15.85,14.29,-18.51
32752521,-0.015,0.117,1.190,2.76,-5.25,-1.19,0.41,0.64,1260,1260,1336,1242,1218,1244,0,1500,1500,1260,1500,4294967283,0.00,0.00,1.47,-0.41,-0.64,0.00,2.76,-5.25,-1.19,-30.69,29.33,-17.42
32756521,-0.036,0.063,1.101,2.83,-5.38,-0.75,0.46,0.64,1260,1260,1314,1242,1242,1242,0,1500,1500,1260,1500,3987,0.00,0.00,1.47,-0.46,-0.64,0.00,2.83,-5.38,-0.75,-18.45,18.90,-18.26
32760521,-0.039,0.059,1.057,2.29,-3.99,-0.62,0.51,0.65,1260,1260,1297,1235,1259,1249,0,1500,1500,1260,1500,7987,0.00,0.00,1.47,-0.51,-0.65,0.00,2.29,-3.99,-0.62,-13.41,6.36,-18.48
32764521,-0.027,0.007,1.009,3.22,-5.62,-0.56,0.52,0.67,1260,1260,1332,1248,1224,1236,0,1500,1500,1260,1500,4294967284,0.00,0.00,1.47,-0.52,-0.67,0.00,3.22,-5.62,-0.56,-24.93,30.27,-18.58
32768521,-0.014,-0.005,0.795,3.90,-5.86,-0.61,0.49,0.66,1259,1259,1320,1238,1234,1244,0,1500,1500,1259,1500,4294967285,0.00,0.00,1.46,-0.49,-0.66,0.00,3.90,-5.86,-0.61,-23.38,20.33,-18.46
32772521,-0.062,0.069,1.029,2.92,-4.22,-1.37,0.54,0.67,1259,1259,1289,1237,1261,1249,0,1500,1500,1259,1500,4294967284,0.00,0.00,1.46,-0.54,-0.67,0.00,2.92,-4.22,-1.37,-10.78,4.72,-16.86
32776521,-0.012,0.136,1.250,4.07,-6.39,-1.14,0.60,0.65,1260,1260,1339,1251,1215,1235,0,1500,1500,1260,1500,4294967283,0.00,0.00,1.45,-0.60,-0.65,0.00,4.07,-6.39,-1.14,-27.91,35.52,-17.27
32780521,-0.032,0.115,0.992,4.01,-6.46,-0.66,0.66,0.63,1260,1260,1315,1243,1241,1241,0,1500,1500,1260,1500,4294967284,0.00,0.00,1.45,-0.66,-0.63,0.00,4.01,-6.46,-0.66,-18.92,19.80,-18.20
32784521,-0.092,0.057,1.068,3.06,-4.60,-0.55,0.70,0.65,1260,1260,1292,1234,1264,1250,0,1500,1500,1260,1500,4294967285,0.00,0.00,1.45,-0.70,-0.65,0.00,3.06,-4.60,-0.55,-11.32,3.61,-18.39
32788521,-0.050,0.034,0.998,3.90,-6.87,-0.16,0.73,0.66,1260,1260,1340,1252,1218,1230,0,1500,1500,1260,1500,4294967284,0.00,0.00,1.45,-0.73,-0.66,0.00,3.90,-6.87,-0.16,-25.58,36.45,-19.17
32792521,-0.008,-0.004,0.654,3.40,-6.66,-0.36,0.70,0.64,1260,1260,1310,1246,1246,1238,0,1500,1500,1260,1500,4294967283,0.00,0.00,1.45,-0.70,-0.64,0.00,3.40,-6.66,-0.36,-14.55,18.17,-18.74
32796521,-0.037,-0.016,1.027,2.76,-5.03,-0.89,0.68,0.65,1260,1260,1295,1235,1259,1251,0,1500,1500,1260,1500,4294967284,0.00,0.00,1.44,-0.68,-0.65,0.00,2.76,-5.03,-0.89,-13.17,5.93,-17.65
32800521,0.028,0.103,1.278,3.99,-7.15,-0.50,0.74,0.60,1260,1260,1342,1250,1214,1234,0,1500,1500,1260,1500,4294967285,0.00,0.00,1.44,-0.74,-0.60,0.00,3.99,-7.15,-0.50,-28.79,36.30,-18.39
32804521,-0.048,0.121,1.000,2.77,-7.28,0.12,0.79,0.59,1260,1260,1309,1253,1249,1229,0,1500,1500,1260,1500,4294967284,0.00,0.00,1.44,-0.79,-0.59,0.00,2.77,-7.28,0.12,-9.56,21.39,-19.65
32808521,-0.064,0.103,0.995,2.72,-5.81,0.38,0.84,0.59,1260,1260,1306,1230,1254,1250,0,1500,1500,1260,1500,4294967283,0.00,0.00,1.44,-0.84,-0.59,0.00,2.72,-5.81,0.38,-18.40,8.17,-20.18
32812521,-0.029,0.098,0.928,3.30,-7.34,0.26,0.90,0.57,1260,1260,1334,1250,1224,1232,0,1500,1500,1260,1500,4294967284,0.00,0.00,1.44,-0.90,-0.57,0.00,3.30,-7.34,0.26,-23.63,32.08,-19.96
32816521,0.013,0.023,0.717,2.22,-7.45,0.41,0.93,0.50,1260,1260,1312,1252,1248,1228,0,1500,1500,1260,1500,4294967285,0.00,0.00,1.45,-0.93,-0.50,0.00,2.22,-7.45,0.41,-10.30,22.02,-20.27
32820521,0.029,-0.049,0.944,2.35,-6.35,0.35,0.90,0.45,1260,1260,1310,1234,1250,1246,0,1500,1500,1260,1500,4294967284,0.00,0.00,1.45,-0.90,-0.45,0.00,2.35,-6.35,0.35,-18.96,12.08,-20.17
32824521,0.038,0.007,1.253,2.84,-7.28,0.04,0.90,0.38,1260,1260,1329,1247,1229,1235,0,1500,1500,1260,1500,4294967283,0.00,0.00,1.45,-0.90,-0.38,0.00,2.84,-7.28,0.04,-22.33,28.38,-19.56
32828521,-0.009,0.028,1.097,2.24,-8.55,0.88,0.95,0.35,1260,1260,1326,1256,1236,1222,0,1500,1500,1260,1500,4294967284,0.00,0.00,1.45,-0.95,-0.35,0.00,2.24,-8.55,0.88,-14.20,31.70,-21.27
32832521,-0.001,-0.004,0.901,2.50,-7.26,1.08,0.92,0.31,1260,1260,1312,1230,1250,1248,0,1500,1500,1260,1500,4294967284,0.00,0.00,1.45,-0.92,-0.31,0.00,2.50,-7.26,1.08,-20.16,11.70,-21.73
32836521,0.077,-0.028,1.012,2.26,-7.59,0.48,0.91,0.24,1260,1260,1320,1248,1240,1232,0,1500,1500,1260,1500,4294967284,0.00,0.00,1.45,-0.91,-0.24,0.00,2.26,-7.59,0.48,-16.52,24.50,-20.54
32840521,0.087,-0.082,0.837,2.24,-8.84,1.01,0.88,0.17,1260,1260,1330,1254,1232,1224,0,1500,1500,1260,1500,4294967283,0.00,0.00,1.46,-0.88,-0.17,0.00,2.24,-8.84,1.01,-17.99,32.54,-21.66
32844521,0.053,-0.122,0.964,1.68,-7.35,0.92,0.85,0.13,1260,1260,1304,1236,1258,1242,0,1500,1500,1260,1500,4294967284,0.00,0.00,1.46,-0.85,-0.13,0.00,1.68,-7.35,0.92,-13.38,10.80,-21.53
32848521,0.044,-0.077,1.271,2.49,-7.69,0.36,0.82,0.08,1260,1260,1328,1240,1232,1240,0,1500,1500,1260,1500,4294967285,0.00,0.00,1.46,-0.82,-0.08,0.00,2.49,-7.69,0.36,-24.43,24.93,-20.41
32852521,0.015,0.001,1.119,3.22,-9.50,0.88,0.80,0.00,1260,1260,1342,1252,1220,1226,0,1500,1500,1260,1500,4294967284,0.00,0.00,1.46,-0.80,-0.00,0.00,3.22,-9.50,0.88,-24.51,37.75,-21.51
32856521,0.017,0.048,0.929,2.39,-7.77,0.83,0.85,-0.05,1260,1260,1302,1236,1260,1242,0,1500,1500,1260,1500,4294967283,0.00,0.00,1.47,-0.85,0.05,0.00,2.39,-7.77,0.83,-12.83,9.76,-21.44
32860521,0.060,0.000,1.018,2.68,-7.55,0.48,0.85,-0.12,1259,1259,1321,1239,1237,1239,0,1500,1500,1259,1500,4294967284,0.00,0.00,1.47,-0.85,0.12,0.00,2.68,-7.55,0.48,-21.02,21.27,-20.77
32864521,0.025,-0.066,0.823,3.25,-9.01,1.00,0.82,-0.17,1260,1260,1339,1251,1223,1227,0,1500,1500,1260,1500,4294967283,0.00,0.00,1.47,-0.82,0.17,0.00,3.25,-9.01,1.00,-23.39,35.01,-21.85
32868521,-0.011,-0.095,0.952,2.19,-7.14,0.88,0.78,-0.19,1260,1260,1299,1237,1263,1241,0,1500,1500,1260,1500,4294967284,0.00,0.00,1.48,-0.78,0.19,0.00,2.19,-7.14,0.88,-10.29,8.46,-21.66
32872521,-0.070,-0.091,1.161,3.53,-7.65,0.39,0.76,-0.20,1259,1259,1334,1236,1224,1242,0,1500,1500,1259,1500,4294967283,0.00,0.00,1.48,-0.76,0.20,0.00,3.53,-7.65,0.39,-29.50,26.69,-20.69
32876521,-0.039,-0.087,1.076,3.96,-9.11,0.42,0.73,-0.22,1259,1259,1337,1251,1221,1227,0,1500,1500,1259,1500,4294967284,0.00,0.00,1.48,-0.73,0.22,0.00,3.96,-9.11,0.42,-23.05,35.21,-20.78
32880521,-0.008,-0.063,0.983,2.94,-7.26,0.47,0.70,-0.24,1259,1259,1299,1237,1259,1241,0,1500,1500,1259,1500,4294967285,0.00,0.00,1.48,-0.70,0.24,0.00,2.94,-7.26,0.47,-11.36,9.09,-20.90
32884521,0.027,-0.028,1.051,3.16,-7.55,0.53,0.67,-0.29,1260,1260,1326,1244,1236,1234,0,1500,1500,1260,1500,4294967284,0.00,0.00,1.48,-0.67,0.29,0.00,3.16,-7.55,0.53,-20.87,25.69,-21.05
32888521,-0.002,-0.073,0.896,2.94,-8.36,0.90,0.64,-0.32,1259,1259,1327,1251,1233,1225,0,1500,1500,1259,1500,4294967283,0.00,0.00,1.49,-0.64,0.32,0.00,2.94,-8.36,0.90,-17.39,30.18,-21.82
32892521,-0.072,-0.054,0.927,2.40,-7.07,0.86,0.62,-0.31,1259,1259,1307,1237,1253,1239,0,1500,1500,1259,1500,4294967284,0.00,0.00,1.49,-0.62,0.31,0.00,2.40,-7.07,0.86,-14.60,13.32,-21.79
32896521,-0.066,-0.008,1.164,2.90,-7.28,0.28,0.62,-0.30,1259,1259,1326,1240,1232,1238,0,1500,1500,1259,1500,4294967285,0.00,0.00,1.49,-0.62,0.30,0.00,2.90,-7.28,0.28,-23.09,24.64,-20.65
32900521,-0.027,-0.058,1.081,2.74,-8.47,0.47,0.59,-0.31,1259,1259,1330,1254,1230,1222,0,1500,1500,1259,1500,3989,0.00,0.00,1.49,-0.59,0.31,0.00,2.74,-8.47,0.47,-17.77,33.38,-21.05
32904521,0.018,-0.029,0.925,2.47,-7.33,0.66,0.55,-0.36,1259,1259,1311,1237,1249,1239,0,1500,1500,1259,1500,4294967284,0.00,0.00,1.49,-0.55,0.36,0.00,2.47,-7.33,0.66,-16.74,15.27,-21.46
32908521,0.069,-0.021,1.103,1.48,-6.69,0.73,0.54,-0.43,1259,1259,1308,1246,1252,1230,0,1500,1500,1259,1500,4294967283,0.00,0.00,1.50,-0.54,0.43,0.00,1.48,-6.69,0.73,-10.64,18.90,-21.63
32912521,0.056,-0.074,0.876,1.37,-8.43,1.30,0.50,-0.48,1259,1259,1336,1258,1226,1216,0,1500,1500,1259,1500,4294967284,0.00,0.00,1.50,-0.50,0.48,0.00,1.37,-8.43,1.30,-17.05,38.15,-22.84
32916521,0.035,-0.074,0.801,1.13,-7.14,0.89,0.47,-0.53,1259,1259,1310,1236,1252,1238,0,1500,1500,1259,1500,4294967285,0.00,0.00,1.51,-0.47,0.53,0.00,1.13,-7.14,0.89,-15.82,14.47,-22.06
32920521,0.046,-0.099,1.215,0.80,-6.28,0.38,0.43,-0.57,1259,1259,1311,1241,1249,1235,0,1500,1500,1259,1500,4294967284,0.00,0.00,1.51,-0.43,0.57,0.00,0.80,-6.28,0.38,-14.83,17.05,-21.05
32924521,0.069,-0.099,1.166,0.83,-8.75,1.02,0.39,-0.62,1259,1259,1342,1264,1220,1210,0,1500,1500,1259,1500,4294967283,0.00,0.00,1.51,-0.39,0.62,0.00,0.83,-8.75,1.02,-17.58,44.40,-22.39
32928521,0.087,-0.013,0.984,0.50,-7.34,1.00,0.38,-0.70,1259,1259,1309,1237,1253,1237,0,1500,1500,1259,1500,4294967284,0.00,0.00,1.52,-0.38,0.70,0.00,0.50,-7.34,1.00,-14.90,14.36,-22.40
32932521,0.060,-0.010,1.067,-0.42,-6.21,0.93,0.36,-0.76,1259,1259,1305,1243,1257,1231,0,1500,1500,1259,1500,4294967285,0.00,0.00,1.52,-0.36,0.76,0.00,-0.42,-6.21,0.93,-9.61,15.66,-22.30
32936521,0.091,-0.023,0.889,-0.36,-8.75,1.51,0.34,-0.84,1259,1259,1343,1265,1221,1207,0,1500,1500,1259,1500,4294967284,0.00,0.00,1.53,-0.34,0.84,0.00,-0.36,-8.75,1.51,-16.96,45.56,-23.53
32940521,0.119,0.030,0.776,-0.87,-7.17,1.04,0.35,-0.92,1259,1259,1306,1238,1256,1236,0,1500,1500,1259,1500,4294967283,0.00,0.00,1.53,-0.35,0.92,0.00,-0.87,-7.17,1.04,-12.54,13.42,-22.64
32944521,0.080,-0.030,1.136,-0.86,-5.87,0.64,0.32,-0.98,1259,1259,1310,1236,1250,1240,0,1500,1500,1259,1500,4294967284,0.00,0.00,1.53,-0.32,0.98,0.00,-0.86,-5.87,0.64,-16.08,14.66,-21.87
32948521,0.060,-0.031,1.174,-1.03,-8.39,1.34,0.29,-1.05,1259,1259,1341,1267,1223,1205,0,1500,1500,1259,1500,3988,0.00,0.00,1.54,-0.29,1.05,0.00,-1.03,-8.39,1.34,-14.50,45.42,-23.34
32952521,0.074,0.066,0.951,-0.97,-7.30,1.33,0.32,-1.11,1259,1259,1315,1237,1249,1235,0,1500,1500,1259,1500,7988,0.00,0.00,1.54,-0.32,1.11,0.00,-0.97,-7.30,1.33,-16.82,17.65,-23.38
32956521,0.033,0.059,0.987,-1.08,-6.13,0.96,0.36,-1.14,1259,1259,1311,1237,1251,1237,0,1500,1500,1259,1500,4294967285,0.00,0.00,1.55,-0.36,1.14,0.00,-1.08,-6.13,0.96,-15.58,15.97,-22.68
32960521,0.106,-0.033,0.866,-1.62,-7.89,1.05,0.33,-1.22,1259,1259,1331,1265,1231,1209,0,1500,1500,1259,1500,3989,0.00,0.00,1.55,-0.33,1.22,0.00,-1.62,-7.89,1.05,-11.30,39.92,-22.91
32964521,0.069,-0.043,1.119,-1.48,-5.27,0.81,0.29,-1.27,1259,1259,1301,1225,1261,1249,0,1500,1500,1259,1500,4294967282,0.00,0.00,1.55,-0.29,1.27,0.00,-1.48,-5.27,0.81,-16.48,4.88,-22.46
32968521,0.022,-0.082,1.168,-1.27,-6.90,0.86,0.24,-1.29,1259,1259,1334,1258,1228,1216,0,1500,1500,1259,1500,4294967283,0.00,0.00,1.56,-0.24,1.29,0.00,-1.27,-6.90,0.86,-16.97,37.97,-22.61
32972521,0.051,0.003,0.951,-1.14,-6.96,0.58,0.24,-1.37,1259,1259,1323,1247,1239,1227,0,1500,1500,1259,1500,4294967284,0.00,0.00,1.56,-0.24,1.37,0.00,-1.14,-6.96,0.58,-16.74,26.79,-22.09
32976521,0.006,0.053,0.915,-1.35,-5.37,0.30,0.27,-1.37,1259,1259,1306,1236,1254,1240,0,1500,1500,1259,1500,4294967285,0.00,0.00,1.56,-0.27,1.37,0.00,-1.35,-5.37,0.30,-14.41,12.78,-21.54
32980521,0.082,-0.039,0.911,-0.93,-5.95,0.50,0.24,-1.44,1259,1259,1328,1250,1232,1226,0,1500,1500,1259,1500,4294967284,0.00,0.00,1.56,-0.24,1.44,0.00,-0.93,-5.95,0.50,-18.98,30.01,-21.96
32984521,0.151,-0.009,0.875,-1.03,-5.77,0.33,0.24,-1.50,1259,1259,1319,1247,1241,1229,0,1500,1500,1259,1500,4294967283,0.00,0.00,1.56,-0.24,1.50,0.00,-1.03,-5.77,0.33,-15.10,24.39,-21.64
32988521,0.067,-0.052,1.098,-1.85,-4.41,0.11,0.19,-1.55,1259,1259,1302,1244,1258,1232,0,1500,1500,1259,1500,4294967284,0.00,0.00,1.57,-0.19,1.55,0.00,-1.85,-4.41,0.11,-8.67,14.38,-21.19
32992521,0.039,-0.068,1.113,-0.37,-5.59,0.36,0.14,-1.58,1259,1259,1341,1245,1219,1231,0,1500,1500,1259,1500,4294967285,0.00,0.00,1.57,-0.14,1.58,0.00,-0.37,-5.59,0.36,-27.16,34.31,-21.72
32996521,0.080,0.020,0.955,0.01,-5.35,-0.09,0.16,-1.64,1259,1259,1321,1243,1237,1235,0,1500,1500,1259,1500,4294967284,0.00,0.00,1.57,-0.16,1.64,0.00,0.01,-5.35,-0.09,-19.63,23.97,-20.82
33000521,0.069,0.003,0.965,-0.69,-4.20,-0.45,0.15,-1.70,1259,1259,1305,1245,1253,1233,0,1500,1500,1259,1500,4294967283,0.00,0.00,1.57,-0.15,1.70,0.00,-0.69,-4.20,-0.45,-10.77,16.33,-20.07
33004521,0.133,-0.076,0.958,0.27,-4.84,-0.25,0.13,-1.76,1259,1259,1332,1246,1226,1232,0,1500,1500,1259,1500,4294967284,0.00,0.00,1.56,-0.13,1.76,0.00,0.27,-4.84,-0.25,-23.85,30.30,-20.47
33008521,0.161,-0.048,0.889,0.36,-3.87,-0.44,0.11,-1.82,1259,1259,1313,1239,1245,1239,0,1500,1500,1259,1500,4294967285,0.00,0.00,1.56,-0.11,1.82,0.00,0.36,-3.87,-0.44,-17.50,17.62,-20.05
33012521,0.107,-0.030,1.075,-0.22,-3.14,-0.71,0.09,-1.87,1259,1259,1307,1247,1249,1233,0,1500,1500,1259,1500,4294967284,0.00,0.00,1.56,-0.09,1.87,0.00,-0.22,-3.14,-0.71,-11.97,18.91,-19.49
33016521,0.075,-0.034,1.054,0.83,-4.33,-0.91,0.07,-1.92,1259,1259,1336,1250,1220,1230,0,1500,1500,1259,1500,4294967283,0.00,0.00,1.56,-0.07,1.92,0.00,0.83,-4.33,-0.91,-24.88,34.29,-19.04
33020521,0.125,0.028,0.976,1.50,-3.76,-1.43,0.09,-1.98,1259,1259,1319,1239,1233,1245,0,1500,1500,1259,1500,4294967284,0.00,0.00,1.55,-0.09,1.98,0.00,1.50,-3.76,-1.43,-23.00,20.88,-17.93
33024521,0.078,0.078,0.987,0.45,-2.98,-1.37,0.13,-2.02,1259,1259,1303,1251,1249,1233,0,1500,1500,1259,1500,4294967285,0.00,0.00,1.55,-0.13,2.02,0.00,0.45,-2.98,-1.37,-9.51,18.57,-17.99
33028521,0.085,-0.015,0.925,0.56,-3.18,-1.18,0.12,-2.07,1259,1259,1320,1250,1234,1232,0,1500,1500,1259,1500,4294967284,0.00,0.00,1.54,-0.12,2.07,0.00,0.56,-3.18,-1.18,-17.89,26.41,-18.31
33032521,0.103,-0.003,0.829,1.64,-2.96,-1.61,0.12,-2.13,1259,1259,1325,1239,1227,1245,0,1500,1500,1259,1500,4294967283,0.00,0.00,1.53,-0.12,2.13,0.00,1.64,-2.96,-1.61,-26.12,23.14,-17.38
33036521,0.054,0.024,0.948,0.31,-1.80,-1.91,0.16,-2.17,1259,1259,1297,1251,1253,1235,0,1500,1500,1259,1500,4294967284,0.00,0.00,1.53,-0.16,2.17,0.00,0.31,-1.80,-1.91,-7.29,15.14,-16.67
33040521,0.043,0.009,1.057,0.51,-2.29,-1.96,0.20,-2.20,1259,1259,1320,1252,1230,1234,0,1500,1500,1259,1500,3988,0.00,0.00,1.52,-0.20,2.20,0.00,0.51,-2.29,-1.96,-18.99,27.81,-16.48
33044521,0.084,0.084,0.976,1.65,-3.02,-2.33,0.25,-2.23,1259,1259,1331,1247,1217,1241,0,1500,1500,1259,1500,4294967285,0.00,0.00,1.51,-0.25,2.23,0.00,1.65,-3.02,-2.33,-27.11,30.42,-15.63
33048521,0.039,0.097,1.000,0.19,-1.56,-2.18,0.30,-2.24,1259,1259,1292,1250,1256,1238,0,1500,1500,1259,1500,4294967284,0.00,0.00,1.50,-0.30,2.24,0.00,0.19,-1.56,-2.18,-6.45,12.72,-15.84
33052521,0.005,0.008,0.919,-0.06,-1.46,-1.62,0.30,-2.20,1260,1260,1312,1252,1240,1236,0,1500,1500,1260,1500,4294967283,0.00,0.00,1.49,-0.30,2.20,0.00,-0.06,-1.46,-1.62,-14.95,22.39,-16.86
33056521,0.081,0.038,0.774,1.03,-2.04,-2.16,0.33,-2.24,1259,1259,1328,1246,1220,1242,0,1500,1500,1259,1500,4294967284,0.00,0.00,1.48,-0.33,2.24,0.00,1.03,-2.04,-2.16,-26.16,28.82,-15.68
33060521,0.085,-0.027,0.882,-0.18,-0.23,-2.59,0.30,-2.28,1259,1259,1289,1247,1257,1243,0,1500,1500,1259,1500,4294967285,0.00,0.00,1.47,-0.30,2.28,0.00,-0.18,-0.23,-2.59,-7.55,9.38,-14.70
33064521,0.091,-0.040,1.071,-0.53,-0.38,-2.26,0.27,-2.32,1259,1259,1311,1255,1237,1233,0,1500,1500,1259,1500,4294967282,0.00,0.00,1.46,-0.27,2.32,0.00,-0.53,-0.38,-2.26,-13.53,24.23,-15.25
33068521,0.098,0.123,1.072,-0.08,-1.37,-2.35,0.31,-2.34,1260,1260,1325,1257,1223,1235,0,1500,1500,1260,1500,4294967283,0.00,0.00,1.45,-0.31,2.34,0.00,-0.08,-1.37,-2.35,-20.54,31.34,-14.96
33072521,0.023,0.112,1.014,-0.69,-0.19,-2.17,0.36,-2.34,1260,1260,1300,1246,1250,1244,0,1500,1500,1260,1500,4294967284,0.00,0.00,1.44,-0.36,2.34,0.00,-0.69,-0.19,-2.17,-12.13,13.88,-15.22
33076521,-0.046,0.072,0.871,-1.20,0.22,-1.85,0.38,-2.30,1260,1260,1306,1252,1244,1238,0,1500,1500,1260,1500,4294967285,0.00,0.00,1.43,-0.38,2.30,0.00,-1.20,0.22,-1.85,-12.41,19.10,-15.78
33080521,0.092,0.048,0.897,-1.04,0.18,-2.14,0.40,-2.33,1260,1260,1315,1251,1235,1239,0,1500,1500,1260,1500,4294967284,0.00,0.00,1.42,-0.40,2.33,0.00,-1.04,0.18,-2.14,-17.54,23.14,-15.09
33084521,0.157,-0.074,0.837,-1.19,1.65,-2.26,0.37,-2.37,1260,1260,1298,1242,1250,1250,0,1500,1500,1260,1500,4294967283,0.00,0.00,1.41,-0.37,2.37,0.00,-1.19,1.65,-2.26,-14.62,10.62,-14.75
33088521,0.113,-0.111,1.013,-2.03,2.38,-2.08,0.33,-2.38,1260,1260,1297,1253,1251,1239,0,1500,1500,1260,1500,4294967284,0.00,0.00,1.41,-0.33,2.38,0.00,-2.03,2.38,-2.08,-8.56,15.49,-14.99
33092521,0.100,0.014,1.125,-1.93,1.58,-1.95,0.33,-2.42,1260,1260,1318,1256,1232,1234,0,1500,1500,1260,1500,4294967284,0.00,0.00,1.40,-0.33,2.42,0.00,-1.93,1.58,-1.95,-16.09,27.77,-15.17
33096521,0.073,0.113,0.927,-1.83,2.21,-1.88,0.36,-2.42,1259,1259,1306,1244,1242,1244,0,1500,1500,1259,1500,4294967284,0.00,0.00,1.39,-0.36,2.42,0.00,-1.83,2.21,-1.88,-16.46,16.33,-15.21
33100521,0.002,0.085,0.891,-2.48,3.71,-1.80,0.40,-2.39,1260,1260,1293,1243,1257,1247,0,1500,1500,1260,1500,4294967283,0.00,0.00,1.38,-0.40,2.39,0.00,-2.48,3.71,-1.80,-10.20,8.28,-15.30
33104521,0.084,0.027,0.932,-2.62,3.72,-1.64,0.40,-2.42,1260,1260,1307,1251,1243,1239,0,1500,1500,1260,1500,4294967284,0.00,0.00,1.37,-0.40,2.42,0.00,-2.62,3.72,-1.64,-13.82,19.88,-15.54
33108521,0.099,0.006,0.764,-2.90,4.58,-1.34,0.39,-2.44,1260,1260,1300,1244,1252,1244,0,1500,1500,1260,1500,4294967285,0.00,0.00,1.37,-0.39,2.44,0.00,-2.90,4.58,-1.34,-12.27,12.87,-16.07
33112521,0.090,-0.031,0.964,-3.23,6.41,-1.33,0.35,-2.45,1260,1260,1290,1236,1262,1252,0,1500,1500,1260,1500,4294967284,0.00,0.00,1.36,-0.35,2.45,0.00,-3.23,6.41,-1.33,-11.36,3.94,-16.02
33116521,0.054,0.011,1.025,-2.86,5.41,-1.41,0.36,-2.47,1260,1260,1318,1254,1232,1236,0,1500,1500,1260,1500,4294967283,0.00,0.00,1.36,-0.36,2.47,0.00,-2.86,5.41,-1.41,-17.30,26.00,-15.81
33120521,0.058,0.059,0.918,-3.41,5.53,-1.23,0.39,-2.47,1260,1260,1303,1251,1249,1237,0,1500,1500,1260,1500,4294967284,0.00,0.00,1.35,-0.39,2.47,0.00,-3.41,5.53,-1.23,-10.03,17.21,-16.09
33124521,0.100,0.055,0.936,-3.20,7.47,-1.24,0.41,-2.47,1260,1260,1293,1231,1259,1257,0,1500,1500,1260,1500,4294967285,0.00,0.00,1.35,-0.41,2.47,0.00,-3.20,7.47,-1.24,-15.87,2.12,-16.02
33128521,0.113,0.046,0.967,-3.42,7.50,-1.01,0.42,-2.48,1260,1260,1304,1248,1248,1240,0,1500,1500,1260,1500,4294967284,0.00,0.00,1.34,-0.42,2.48,0.00,-3.42,7.50,-1.01,-12.27,16.42,-16.44
33132521,0.069,-0.026,0.854,-4.20,8.13,-0.33,0.37,-2.48,1260,1260,1294,1248,1260,1238,0,1500,1500,1260,1500,4294967283,0.00,0.00,1.34,-0.37,2.48,0.00,-4.20,8.13,-0.33,-6.97,11.21,-17.78
33136521,0.062,-0.028,0.897,-3.51,9.57,-0.59,0.32,-2.47,1260,1260,1298,1228,1256,1258,0,1500,1500,1260,1500,4294967284,0.00,0.00,1.34,-0.32,2.47,0.00,-3.51,9.57,-0.59,-18.48,3.76,-17.22
33140521,0.054,0.078,1.007,-3.18,9.19,-1.19,0.35,-2.44,1260,1260,1308,1246,1242,1244,0,1500,1500,1260,1500,4294967285,0.00,0.00,1.33,-0.35,2.44,0.00,-3.18,9.19,-1.19,-16.59,17.54,-15.96
33144521,0.012,0.049,0.948,-3.76,9.51,-0.76,0.37,-2.38,1260,1260,1296,1246,1256,1242,0,1500,1500,1260,1500,4294967284,0.00,0.00,1.33,-0.37,2.38,0.00,-3.76,9.51,-0.76,-9.25,11.56,-16.79
33148521,0.061,0.044,0.954,-3.11,10.47,-0.55,0.40,-2.36,1260,1260,1302,1230,1252,1256,0,1500,1500,1260,1500,4294967283,0.00,0.00,1.33,-0.40,2.36,0.00,-3.11,10.47,-0.55,-19.01,6.26,-17.18
33152521,0.069,0.043,0.967,-3.49,11.13,-0.45,0.42,-2.34,1260,1260,1294,1240,1260,1246,0,1500,1500,1260,1500,4294967284,0.00,0.00,1.32,-0.42,2.34,0.00,-3.49,11.13,-0.45,-10.94,7.92,-17.35
33156521,-0.002,-0.062,0.854,-3.46,11.51,0.26,0.37,-2.27,1260,1260,1300,1238,1256,1246,0,1500,1500,1260,1500,4294967285,0.00,0.00,1.33,-0.37,2.27,0.00,-3.46,11.51,0.26,-13.38,9.13,-18.79
33160521,0.025,-0.113,0.853,-3.06,12.27,-0.03,0.31,-2.22,1260,1260,1299,1231,1257,1253,0,1500,1500,1260,1500,4294967284,0.00,0.00,1.33,-0.31,2.22,0.00,-3.06,12.27,-0.03,-16.37,5.53,-18.21
33164521,0.040,-0.030,0.945,-3.07,12.50,-0.78,0.25,-2.18,1260,1260,1298,1240,1254,1248,0,1500,1500,1260,1500,4294967283,0.00,0.00,1.33,-0.25,2.18,0.00,-3.07,12.50,-0.78,-13.18,9.31,-16.69
33168521,-0.030,-0.014,1.080,-2.51,12.31,-0.25,0.23,-2.08,1260,1260,1307,1237,1247,1249,0,1500,1500,1260,1500,4294967284,0.00,0.00,1.33,-0.23,2.08,0.00,-2.51,12.31,-0.25,-18.09,12.03,-17.73
33172521,-0.011,0.021,1.137,-2.82,12.88,0.03,0.23,-1.99,1260,1260,1294,1236,1262,1248,0,1500,1500,1260,1500,4294967285,0.00,0.00,1.33,-0.23,1.99,0.00,-2.82,12.88,0.03,-11.58,5.59,-18.29
33176521,-0.063,0.104,0.926,-3.06,13.07,0.20,0.25,-1.90,1260,1260,1297,1239,1259,1245,0,1500,1500,1260,1500,4294967284,0.00,0.00,1.33,-0.25,1.90,0.00,-3.06,13.07,0.20,-11.90,8.17,-18.65
33180521,-0.057,0.026,0.902,-2.33,13.46,0.66,0.25,-1.80,1260,1260,1304,1228,1254,1254,0,1500,1500,1260,1500,4294967283,0.00,0.00,1.33,-0.25,1.80,0.00,-2.33,13.46,0.66,-19.73,6.12,-19.59
33184521,0.023,-0.001,0.890,-3.13,14.02,0.28,0.21,-1.72,1259,1259,1288,1238,1266,1244,0,1500,1500,1259,1500,4294967284,0.00,0.00,1.33,-0.21,1.72,0.00,-3.13,14.02,0.28,-7.06,4.16,-18.84
33188521,0.048,0.002,0.931,-3.00,13.81,0.18,0.19,-1.71,1259,1259,1301,1237,1253,1245,0,1500,1500,1259,1500,3988,0.00,0.00,1.33,-0.19,1.71,0.00,-3.00,13.81,0.18,-14.37,10.55,-18.64
33192521,0.024,-0.015,1.139,-2.53,14.35,0.44,0.14,-1.63,1259,1259,1297,1227,1259,1253,0,1500,1500,1259,1500,7988,0.00,0.00,1.34,-0.14,1.63,0.00,-2.53,14.35,0.44,-16.96,3.70,-19.20
33196521,-0.027,0.066,1.150,-2.71,13.97,0.51,0.16,-1.54,1259,1259,1300,1238,1256,1242,0,1500,1500,1259,1500,4294967285,0.00,0.00,1.34,-0.16,1.54,0.00,-2.71,13.97,0.51,-12.52,10.68,-19.35
33200521,-0.025,0.175,0.941,-2.75,13.99,0.93,0.20,-1.47,1259,1259,1299,1233,1259,1245,0,1500,1500,1259,1500,4294967284,0.00,0.00,1.34,-0.20,1.47,0.00,-2.75,13.99,0.93,-13.49,7.57,-20.23
33204521,0.015,0.129,0.916,-2.58,15.32,1.13,0.23,-1.41,1260,1260,1292,1222,1268,1258,0,1500,1500,1260,1500,4294967283,0.00,0.00,1.34,-0.23,1.41,0.00,-2.58,15.32,1.13,-15.33,-3.51,-20.70
33208521,0.050,0.048,0.882,-2.85,14.99,0.92,0.26,-1.37,1260,1260,1300,1238,1260,1242,0,1500,1500,1260,1500,4294967284,0.00,0.00,1.35,-0.26,1.37,0.00,-2.85,14.99,0.92,-11.69,9.17,-20.33
33212521,0.073,0.010,0.920,-3.13,15.35,1.10,0.25,-1.36,1260,1260,1294,1232,1266,1248,0,1500,1500,1260,1500,4294967285,0.00,0.00,1.35,-0.25,1.36,0.00,-3.13,15.35,1.10,-11.13,3.74,-20.72
33216521,-0.047,-0.003,1.041,-2.38,16.12,1.36,0.24,-1.25,1259,1259,1299,1219,1261,1257,0,1500,1500,1259,1500,4294967284,0.00,0.00,1.36,-0.24,1.25,0.00,-2.38,16.12,1.36,-19.35,-0.98,-21.31
33220521,-0.017,0.027,1.090,-1.45,15.23,1.11,0.25,-1.14,1260,1260,1312,1230,1248,1250,0,1500,1500,1260,1500,4294967283,0.00,0.00,1.36,-0.25,1.14,0.00,-1.45,15.23,1.11,-21.66,11.97,-20.88
33224521,-0.014,-0.003,0.960,-1.59,15.94,1.28,0.24,-1.04,1259,1259,1293,1225,1267,1251,0,1500,1500,1259,1500,4294967284,0.00,0.00,1.37,-0.24,1.04,0.00,-1.59,15.94,1.28,-13.22,-0.92,-21.27
33228521,0.023,0.014,0.972,-1.08,16.90,1.72,0.27,-0.99,1260,1260,1297,1217,1267,1259,0,1500,1500,1260,1500,4294967285,0.00,0.00,1.37,-0.27,0.99,0.00,-1.08,16.90,1.72,-18.92,-3.29,-22.24
33232521,0.059,0.029,0.897,-0.69,16.59,1.61,0.29,-0.96,1260,1260,1306,1226,1258,1250,0,1500,1500,1260,1500,4294967284,0.00,0.00,1.38,-0.29,0.96,0.00,-0.69,16.59,1.61,-18.23,6.39,-22.10
33236521,-0.021,-0.098,0.938,-0.92,17.43,1.67,0.25,-0.88,1260,1260,1291,1223,1273,1253,0,1500,1500,1260,1500,4294967283,0.00,0.00,1.39,-0.25,0.88,0.00,-0.92,17.43,1.67,-12.92,-3.66,-22.28
33240521,-0.124,-0.026,1.017,0.40,16.99,1.86,0.24,-0.77,1260,1260,1312,1218,1252,1258,0,1500,1500,1260,1500,4294967284,0.00,0.00,1.39,-0.24,0.77,0.00,0.40,16.99,1.86,-25.80,5.80,-22.75
33244521,-0.068,0.120,1.044,0.83,16.91,1.29,0.28,-0.67,1260,1260,1302,1222,1260,1256,0,1500,1500,1260,1500,4294967285,0.00,0.00,1.40,-0.28,0.67,0.00,0.83,16.91,1.29,-19.90,2.97,-21.68
33248521,-0.054,0.066,0.996,1.48,17.22,1.41,0.32,-0.57,1260,1260,1303,1217,1259,1261,0,1500,1500,1260,1500,4294967284,0.00,0.00,1.40,-0.32,0.57,0.00,1.48,17.22,1.41,-22.14,-0.51,-22.00
33252521,0.010,0.096,0.952,1.36,17.22,1.97,0.37,-0.50,1260,1260,1300,1222,1266,1252,0,1500,1500,1260,1500,4294967283,0.00,0.00,1.41,-0.37,0.50,0.00,1.36,17.22,1.97,-16.45,1.86,-23.20
33256521,0.031,0.113,0.927,0.82,17.66,1.99,0.42,-0.44,1260,1260,1293,1223,1273,1251,0,1500,1500,1260,1500,4294967284,0.00,0.00,1.42,-0.42,0.44,0.00,0.82,17.66,1.99,-12.83,-2.12,-23.35
33260521,-0.049,0.031,0.861,1.88,17.09,2.09,0.44,-0.33,1260,1260,1313,1217,1253,1257,0,1500,1500,1260,1500,4294967285,0.00,0.00,1.43,-0.44,0.33,0.00,1.88,17.09,2.09,-25.59,5.30,-23.64
33264521,-0.115,0.070,0.964,1.70,16.84,1.99,0.47,-0.22,1260,1260,1301,1223,1265,1251,0,1500,1500,1260,1500,4294967284,0.00,0.00,1.44,-0.47,0.22,0.00,1.70,16.84,1.99,-16.21,2.86,-23.53
33268521,-0.078,0.140,1.103,1.67,16.81,1.75,0.52,-0.13,1260,1260,1300,1220,1266,1254,0,1500,1500,1260,1500,4294967286,0.00,0.00,1.45,-0.52,0.13,0.00,1.67,16.81,1.75,-17.51,0.99,-23.14
33272521,-0.040,0.092,1.012,2.76,16.02,1.97,0.57,-0.05,1259,1259,1315,1217,1249,1255,0,1500,1500,1259,1500,4294967284,0.00,0.00,1.45,-0.57,0.05,0.00,2.76,16.02,1.97,-26.90,7.17,-23.68
33276521,-0.037,0.055,0.971,1.35,16.51,2.42,0.61,0.05,1260,1260,1288,1226,1280,1246,0,1500,1500,1260,1500,4294967285,0.00,0.00,1.46,-0.61,-0.05,0.00,1.35,16.51,2.42,-7.03,-3.22,-24.69
33280521,-0.015,0.058,0.977,1.01,16.09,2.69,0.66,0.13,1260,1260,1302,1224,1268,1246,0,1500,1500,1260,1500,4294967284,0.00,0.00,1.48,-0.66,-0.13,0.00,1.01,16.09,2.69,-14.86,3.79,-25.37
33284521,-0.017,0.041,0.827,1.54,15.07,2.66,0.70,0.21,1259,1259,1313,1221,1255,1247,0,1500,1500,1259,1500,4294967283,0.00,0.00,1.49,-0.70,-0.21,0.00,1.54,15.07,2.66,-21.90,8.85,-25.42
33288521,-0.054,0.060,0.978,0.56,15.35,2.29,0.74,0.30,1259,1259,1291,1225,1275,1245,0,1500,1500,1259,1500,4294967284,0.00,0.00,1.50,-0.74,-0.30,0.00,0.56,15.35,2.29,-9.69,-1.51,-24.80
33292521,-0.076,0.115,1.170,0.81,14.75,2.46,0.78,0.39,1259,1259,1308,1220,1260,1248,0,1500,1500,1259,1500,3988,0.00,0.00,1.51,-0.78,-0.39,0.00,0.81,14.75,2.46,-19.30,5.33,-25.25
33296521,-0.092,0.063,1.066,0.86,13.89,2.92,0.80,0.48,1259,1259,1309,1223,1261,1243,0,1500,1500,1259,1500,4294967285,0.00,0.00,1.52,-0.80,-0.48,0.00,0.86,13.89,2.92,-17.72,7.70,-26.31
33300521,-0.096,0.078,1.042,0.16,14.32,3.25,0.83,0.58,1259,1259,1295,1219,1277,1245,0,1500,1500,1259,1500,4294967284,0.00,0.00,1.53,-0.83,-0.58,0.00,0.16,14.32,3.25,-11.57,-2.63,-27.14
33304521,-0.090,0.036,1.008,-0.10,13.81,3.38,0.84,0.68,1259,1259,1304,1222,1268,1242,0,1500,1500,1259,1500,3988,0.00,0.00,1.55,-0.84,-0.68,0.00,-0.10,13.81,3.38,-14.57,4.54,-27.56
33308521,-0.063,-0.030,0.916,-0.46,12.94,3.43,0.81,0.76,1260,1260,1307,1227,1267,1239,0,1500,1500,1260,1500,4294967283,0.00,0.00,1.56,-0.81,-0.76,0.00,-0.46,12.94,3.43,-13.21,7.84,-27.82
33312521,-0.039,-0.017,1.061,-0.78,13.21,3.20,0.77,0.84,1260,1260,1299,1219,1275,1247,0,1500,1500,1260,1500,4294967284,0.00,0.00,1.58,-0.77,-0.84,0.00,-0.78,13.21,3.20,-13.15,-1.17,-27.51
33316521,-0.103,0.024,1.193,-0.77,12.93,3.23,0.77,0.94,1260,1260,1304,1220,1270,1246,0,1500,1500,1260,1500,4294967285,0.00,0.00,1.59,-0.77,-0.94,0.00,-0.77,12.93,3.23,-15.95,2.76,-27.73
33320521,-0.184,-0.048,1.187,-0.97,11.87,3.93,0.75,1.03,1259,1259,1311,1225,1265,1235,0,1500,1500,1259,1500,4294967284,0.00,0.00,1.61,-0.75,-1.03,0.00,-0.97,11.87,3.93,-14.02,9.32,-29.31
33324521,-0.145,-0.003,0.990,-0.47,11.97,4.14,0.75,1.12,1259,1259,1307,1211,1269,1249,0,1500,1500,1259,1500,4294967283,0.00,0.00,1.62,-0.75,-1.12,0.00,-0.47,11.97,4.14,-19.77,0.30,-29.93
33328521,-0.144,0.042,0.957,-0.93,12.31,3.84,0.75,1.22,1259,1259,1298,1216,1278,1244,0,1500,1500,1259,1500,4294967284,0.00,0.00,1.64,-0.75,-1.22,0.00,-0.93,12.31,3.84,-12.25,-2.03,-29.53
33332521,-0.133,-0.019,0.929,-1.21,11.32,4.13,0.74,1.31,1259,1259,1310,1224,1268,1234,0,1500,1500,1259,1500,4294967285,0.00,0.00,1.66,-0.74,-1.31,0.00,-1.21,11.32,4.13,-13.27,8.46,-30.29
33336521,-0.083,-0.018,0.943,-0.85,11.35,4.20,0.71,1.39,1260,1260,1308,1212,1272,1248,0,1500,1500,1260,1500,4294967284,0.00,0.00,1.67,-0.71,-1.39,0.00,-0.85,11.35,4.20,-18.24,0.68,-30.65
33340521,-0.156,0.012,1.173,-1.11,11.87,4.03,0.71,1.49,1260,1260,1300,1214,1280,1246,0,1500,1500,1260,1500,4294967283,0.00,0.00,1.69,-0.71,-1.49,0.00,-1.11,11.87,4.03,-13.55,-3.82,-30.49
33344521,-0.232,-0.035,1.189,-0.70,9.96,4.72,0.70,1.57,1260,1260,1325,1225,1259,1231,0,1500,1500,1260,1500,4294967284,0.00,0.00,1.71,-0.70,-1.57,0.00,-0.70,9.96,4.72,-18.81,15.88,-32.11
33348521,-0.125,-0.000,0.875,0.09,9.97,4.77,0.69,1.65,1259,1259,1314,1206,1268,1248,0,1500,1500,1259,1500,4294967285,0.00,0.00,1.73,-0.69,-1.65,0.00,0.09,9.97,4.77,-22.30,1.16,-32.43
33352521,-0.059,-0.016,0.999,-0.66,11.04,4.35,0.66,1.73,1260,1260,1294,1212,1288,1246,0,1500,1500,1260,1500,4294967284,0.00,0.00,1.75,-0.66,-1.73,0.00,-0.66,11.04,4.35,-10.00,-7.72,-31.80
33356521,-0.073,-0.077,0.943,-0.03,9.33,4.72,0.62,1.79,1260,1260,1326,1222,1258,1234,0,1500,1500,1260,1500,4294967283,0.00,0.00,1.76,-0.62,-1.79,0.00,-0.03,9.33,4.72,-20.78,14.44,-32.77
33360521,-0.018,-0.070,0.961,-0.20,9.57,4.82,0.57,1.82,1260,1260,1307,1213,1279,1241,0,1500,1500,1260,1500,4294967284,0.00,0.00,1.78,-0.57,-1.82,0.00,-0.20,9.57,4.82,-14.53,-0.39,-33.20
33364521,-0.109,-0.010,1.210,-0.03,10.11,4.65,0.56,1.90,1260,1260,1307,1207,1279,1247,0,1500,1500,1260,1500,4294967285,0.00,0.00,1.80,-0.56,-1.90,0.00,-0.03,10.11,4.65,-17.43,-3.66,-33.09
33368521,-0.190,-0.004,1.157,1.15,8.11,5.07,0.56,1.98,1260,1260,1336,1216,1252,1236,0,1500,1500,1260,1500,4294967282,0.00,0.00,1.82,-0.56,-1.98,0.00,1.15,8.11,5.07,-26.07,16.79,-34.15
33372521,-0.110,0.030,0.919,1.28,8.38,5.04,0.58,2.06,1260,1260,1312,1208,1276,1244,0,1500,1500,1260,1500,4294967283,0.00,0.00,1.84,-0.58,-2.06,0.00,1.28,8.38,5.04,-18.50,-0.56,-34.35
33376521,-0.062,0.051,0.954,1.02,9.34,4.79,0.62,2.12,1260,1260,1303,1205,1285,1247,0,1500,1500,1260,1500,4294967284,0.00,0.00,1.86,-0.62,-2.12,0.00,1.02,9.34,4.79,-15.62,-6.64,-34.07
33380521,-0.101,-0.046,0.940,1.60,7.93,5.15,0.60,2.19,1260,1260,1328,1216,1262,1234,0,1500,1500,1260,1500,4294967285,0.00,0.00,1.88,-0.60,-2.19,0.00,1.60,7.93,5.15,-21.89,12.05,-35.05
33384521,-0.106,-0.057,0.931,1.31,8.11,5.16,0.57,2.26,1260,1260,1310,1210,1280,1240,0,1500,1500,1260,1500,4294967284,0.00,0.00,1.90,-0.57,-2.26,0.00,1.31,8.11,5.16,-15.12,-0.22,-35.30
33388521,-0.180,0.005,1.146,1.76,8.21,4.90,0.58,2.33,1260,1260,1316,1204,1274,1246,0,1500,1500,1260,1500,4294967283,0.00,0.00,1.92,-0.58,-2.33,0.00,1.76,8.21,4.90,-21.31,0.10,-35.02
33392521,-0.235,-0.013,1.191,2.10,6.61,5.09,0.58,2.41,1259,1259,1327,1217,1261,1231,0,1500,1500,1259,1500,4294967284,0.00,0.00,1.94,-0.58,-2.41,0.00,2.10,6.61,5.09,-20.75,13.91,-35.65
33396521,-0.175,0.023,0.992,2.28,6.63,5.00,0.60,2.48,1260,1260,1315,1207,1275,1243,0,1500,1500,1260,1500,4294967285,0.00,0.00,1.96,-0.60,-2.48,0.00,2.28,6.63,5.00,-19.84,1.61,-35.70
33400521,-0.134,0.042,1.005,1.84,7.05,5.10,0.62,2.55,1259,1259,1308,1208,1282,1238,0,1500,1500,1259,1500,4294967284,0.00,0.00,1.98,-0.62,-2.55,0.00,1.84,7.05,5.10,-14.97,-1.91,-36.15
33404521,-0.152,-0.063,1.034,1.72,6.19,5.48,0.60,2.61,1259,1259,1320,1214,1272,1230,0,1500,1500,1259,1500,4294967283,0.00,0.00,2.01,-0.60,-2.61,0.00,1.72,6.19,5.48,-16.96,8.32,-37.18
33408521,-0.197,-0.061,0.929,1.72,5.59,5.28,0.59,2.67,1259,1259,1319,1211,1273,1233,0,1500,1500,1259,1500,4294967284,0.00,0.00,2.03,-0.59,-2.67,0.00,1.72,5.59,5.28,-17.98,6.68,-37.03
33412521,-0.215,0.046,1.150,1.54,5.76,5.00,0.61,2.74,1260,1260,1312,1208,1280,1240,0,1500,1500,1260,1500,4294967285,0.00,0.00,2.05,-0.61,-2.74,0.00,1.54,5.76,5.00,-16.69,0.55,-36.70
33416521,-0.233,0.047,1.256,1.40,4.55,5.26,0.62,2.80,1260,1260,1324,1218,1270,1228,0,1500,1500,1260,1500,4294967284,0.00,0.00,2.07,-0.62,-2.80,0.00,1.40,4.55,5.26,-16.92,11.77,-37.49
33420521,-0.209,0.028,0.982,1.69,3.78,5.50,0.63,2.87,1260,1260,1326,1210,1270,1234,0,1500,1500,1260,1500,4294967283,0.00,0.00,2.09,-0.63,-2.87,0.00,1.69,3.78,5.50,-20.36,8.96,-38.22
33424521,-0.187,0.002,1.054,0.63,4.90,5.68,0.63,2.93,1259,1259,1300,1206,1294,1236,0,1500,1500,1259,1500,4294967284,0.00,0.00,2.11,-0.63,-2.93,0.00,0.63,4.90,5.68,-9.33,-6.32,-38.85
33428521,-0.172,-0.053,1.071,0.49,3.60,6.01,0.62,2.98,1260,1260,1327,1217,1271,1225,0,1500,1500,1260,1500,4294967285,0.00,0.00,2.14,-0.62,-2.98,0.00,0.49,3.60,6.01,-16.01,12.81,-39.80
33432521,-0.147,-0.077,0.864,0.89,2.70,5.73,0.59,3.03,1260,1260,1329,1211,1269,1231,0,1500,1500,1260,1500,4294967284,0.00,0.00,2.16,-0.59,-3.03,0.00,0.89,2.70,5.73,-20.31,10.53,-39.52
33436521,-0.145,-0.021,1.179,0.29,3.83,5.13,0.58,3.09,1260,1260,1305,1205,1291,1239,0,1500,1500,1260,1500,4294967283,0.00,0.00,2.18,-0.58,-3.09,0.00,0.29,3.83,5.13,-12.36,-5.82,-38.57
33440521,-0.154,0.021,1.330,0.14,2.12,5.59,0.58,3.14,1260,1260,1330,1222,1268,1220,0,1500,1500,1260,1500,4294967284,0.00,0.00,2.20,-0.58,-3.14,0.00,0.14,2.12,5.59,-15.82,16.72,-39.76
33444521,-0.126,0.008,1.031,0.41,1.30,5.96,0.58,3.19,1260,1260,1329,1211,1271,1229,0,1500,1500,1260,1500,4294967285,0.00,0.00,2.22,-0.58,-3.19,0.00,0.41,1.30,5.96,-19.17,10.66,-40.77
33448521,-0.181,0.015,1.055,-0.41,2.63,5.88,0.58,3.25,1260,1260,1304,1204,1296,1236,0,1500,1500,1260,1500,4294967284,0.00,0.00,2.25,-0.58,-3.25,0.00,-0.41,2.63,5.88,-10.32,-6.69,-40.90
33452521,-0.174,-0.035,1.025,-0.36,0.99,6.09,0.57,3.29,1260,1260,1333,1219,1269,1219,0,1500,1500,1260,1500,4294967283,0.00,0.00,2.27,-0.57,-3.29,0.00,-0.36,0.99,6.09,-16.75,16.86,-41.61
33456521,-0.118,-0.068,0.815,-0.17,0.28,5.60,0.53,3.33,1260,1260,1327,1213,1273,1227,0,1500,1500,1260,1500,4294967284,0.00,0.00,2.29,-0.53,-3.33,0.00,-0.17,0.28,5.60,-17.82,10.51,-40.91
33460521,-0.118,-0.028,1.143,-0.05,1.46,5.00,0.51,3.37,1260,1260,1312,1200,1286,1242,0,1500,1500,1260,1500,4294967285,0.00,0.00,2.31,-0.51,-3.37,0.00,-0.05,1.46,5.00,-17.47,-4.79,-39.93
33464521,-0.143,0.062,1.302,-0.24,-0.28,5.47,0.54,3.40,1260,1260,1334,1222,1268,1216,0,1500,1500,1260,1500,4294967284,0.00,0.00,2.33,-0.54,-3.40,0.00,-0.24,-0.28,5.47,-15.37,18.49,-41.14
33468521,-0.173,0.077,1.020,-0.13,-1.31,5.84,0.56,3.44,1260,1260,1333,1215,1271,1221,0,1500,1500,1260,1500,4294967281,0.00,0.00,2.36,-0.56,-3.44,0.00,-0.13,-1.31,5.84,-17.68,14.01,-42.18
33472521,-0.176,0.082,0.989,0.34,-0.13,5.66,0.59,3.48,1259,1259,1318,1194,1284,1240,0,1500,1500,1259,1500,4294967284,0.00,0.00,2.38,-0.59,-3.48,0.00,0.34,-0.13,5.66,-20.86,-3.69,-42.08
33476521,-0.161,-0.002,0.956,-0.11,-1.12,5.48,0.58,3.52,1259,1259,1326,1218,1274,1218,0,1500,1500,1259,1500,4294967285,0.00,0.00,2.40,-0.58,-3.52,0.00,-0.11,-1.12,5.48,-13.32,13.28,-41.97
33480521,-0.123,-0.137,0.854,-0.16,-2.08,5.20,0.54,3.53,1259,1259,1330,1216,1270,1220,0,1500,1500,1259,1500,4294967284,0.00,0.00,2.42,-0.54,-3.53,0.00,-0.16,-2.08,5.20,-16.01,14.04,-41.67
33484521,-0.142,-0.094,1.097,1.14,-1.29,4.68,0.51,3.55,1259,1259,1326,1192,1272,1246,0,1500,1500,1259,1500,4294967283,0.00,0.00,2.44,-0.51,-3.55,0.00,1.14,-1.29,4.68,-27.28,0.17,-40.85
33488521,-0.196,0.015,1.297,0.66,-1.97,4.74,0.52,3.59,1259,1259,1324,1216,1276,1220,0,1500,1500,1259,1500,4294967284,0.00,0.00,2.46,-0.52,-3.59,0.00,0.66,-1.97,4.74,-13.83,11.52,-41.20
33492521,-0.236,0.056,1.071,0.94,-3.76,5.27,0.53,3.62,1260,1260,1342,1220,1262,1216,0,1500,1500,1260,1500,4294967285,0.00,0.00,2.48,-0.53,-3.62,0.00,0.94,-3.76,5.27,-19.81,21.37,-42.52
33496521,-0.201,0.143,0.915,1.96,-2.84,4.83,0.57,3.64,1260,1260,1327,1193,1275,1245,0,1500,1500,1260,1500,4294967284,0.00,0.00,2.50,-0.57,-3.64,0.00,1.96,-2.84,4.83,-26.44,0.36,-41.87
33500521,-0.172,0.065,0.966,1.07,-2.53,4.35,0.60,3.67,1260,1260,1316,1212,1286,1226,0,1500,1500,1260,1500,4294967283,0.00,0.00,2.52,-0.60,-3.67,0.00,1.07,-2.53,4.35,-11.34,4.57,-41.11
33504521,-0.149,-0.055,0.926,1.44,-4.42,4.66,0.58,3.69,1260,1260,1343,1221,1259,1217,0,1500,1500,1260,1500,4294967284,0.00,0.00,2.54,-0.58,-3.69,0.00,1.44,-4.42,4.66,-20.78,22.60,-41.97
33508521,-0.191,0.004,1.089,2.34,-3.87,4.22,0.59,3.72,1260,1260,1329,1197,1273,1241,0,1500,1500,1260,1500,4294967285,0.00,0.00,2.55,-0.59,-3.72,0.00,2.34,-3.87,4.22,-25.75,3.83,-41.29
33512521,-0.243,0.102,1.264,2.18,-3.92,3.80,0.62,3.74,1260,1260,1325,1211,1275,1229,0,1500,1500,1260,1500,3989,0.00,0.00,2.57,-0.62,-3.74,0.00,2.18,-3.92,3.80,-17.85,8.35,-40.63
33516521,-0.215,0.122,1.088,2.68,-5.92,4.39,0.66,3.75,1260,1260,1349,1219,1255,1217,0,1500,1500,1260,1500,4294967284,0.00,0.00,2.59,-0.66,-3.75,0.00,2.68,-5.92,4.39,-23.33,24.68,-42.01
33520521,-0.111,0.186,1.008,2.76,-5.28,4.07,0.72,3.74,1260,1260,1325,1203,1277,1235,0,1500,1500,1260,1500,4294967283,0.00,0.00,2.61,-0.72,-3.74,0.00,2.76,-5.28,4.07,-20.52,4.56,-41.58
33524521,-0.138,0.066,0.968,2.08,-4.87,3.59,0.75,3.76,1260,1260,1319,1211,1281,1229,0,1500,1500,1260,1500,4294967284,0.00,0.00,2.62,-0.75,-3.76,0.00,2.08,-4.87,3.59,-14.09,5.79,-40.78
33528521,-0.159,-0.060,0.964,2.19,-6.27,3.90,0.73,3.77,1260,1260,1340,1220,1262,1218,0,1500,1500,1260,1500,4294967285,0.00,0.00,2.64,-0.73,-3.77,0.00,2.19,-6.27,3.90,-19.79,20.50,-41.59
33532521,-0.192,-0.016,1.165,2.63,-6.31,3.77,0.73,3.79,1260,1260,1333,1207,1269,1231,0,1500,1500,1260,1500,4294967284,0.00,0.00,2.65,-0.73,-3.79,0.00,2.63,-6.31,3.77,-22.81,10.32,-41.50
33536521,-0.227,0.050,1.185,2.63,-6.66,3.14,0.75,3.81,1259,1259,1330,1212,1268,1226,0,1500,1500,1259,1500,4294967283,0.00,0.00,2.66,-0.75,-3.81,0.00,2.63,-6.66,3.14,-19.75,12.98,-40.40
33540521,-0.238,0.050,1.078,2.81,-7.76,3.08,0.78,3.82,1259,1259,1339,1217,1259,1221,0,1500,1500,1259,1500,4294967284,0.00,0.00,2.68,-0.78,-3.82,0.00,2.81,-7.76,3.08,-21.23,19.56,-40.42
33544521,-0.075,0.059,1.087,2.50,-7.09,3.18,0.83,3.80,1259,1259,1322,1208,1276,1230,0,1500,1500,1259,1500,4294967285,0.00,0.00,2.69,-0.83,-3.80,0.00,2.50,-7.09,3.18,-17.71,6.10,-40.78
33548521,-0.098,0.031,0.988,1.58,-7.24,2.92,0.86,3.81,1260,1260,1324,1220,1276,1220,0,1500,1500,1260,1500,4294967284,0.00,0.00,2.70,-0.86,-3.81,0.00,1.58,-7.24,2.92,-12.25,12.04,-40.41
33552521,-0.250,-0.074,0.945,1.71,-8.27,2.86,0.85,3.82,1260,1260,1338,1220,1262,1220,0,1500,1500,1260,1500,4294967283,0.00,0.00,2.71,-0.85,-3.82,0.00,1.71,-8.27,2.86,-19.94,19.66,-40.43
33556521,-0.246,0.001,1.037,2.26,-8.26,2.60,0.85,3.83,1259,1259,1333,1207,1265,1231,0,1500,1500,1259,1500,4294967284,0.00,0.00,2.72,-0.85,-3.83,0.00,2.26,-8.26,2.60,-23.65,11.82,-40.02
33560521,-0.193,0.086,1.193,1.66,-8.57,2.07,0.89,3.83,1260,1260,1327,1221,1271,1221,0,1500,1500,1260,1500,4294967285,0.00,0.00,2.73,-0.89,-3.83,0.00,1.66,-8.57,2.07,-14.88,14.54,-39.06
33564521,-0.205,0.015,1.061,1.95,-9.43,2.09,0.89,3.84,1260,1260,1339,1219,1259,1223,0,1500,1500,1260,1500,4294967284,0.00,0.00,2.74,-0.89,-3.84,0.00,1.95,-9.43,2.09,-21.57,19.46,-39.20
33568521,-0.130,0.023,0.933,1.80,-8.68,2.11,0.91,3.85,1260,1260,1323,1209,1275,1233,0,1500,1500,1260,1500,4294967283,0.00,0.00,2.75,-0.91,-3.85,0.00,1.80,-8.68,2.11,-18.27,6.78,-39.35
33572521,-0.154,-0.049,0.879,0.51,-9.77,2.02,0.88,3.85,1260,1260,1328,1234,1270,1208,0,1500,1500,1260,1500,4294967284,0.00,0.00,2.76,-0.88,-3.85,0.00,0.51,-9.77,2.02,-8.40,21.61,-39.26
33576521,-0.265,-0.005,0.837,1.50,-9.47,1.52,0.89,3.86,1260,1260,1335,1207,1261,1237,0,1500,1500,1260,1500,4294967285,0.00,0.00,2.76,-0.89,-3.86,0.00,1.50,-9.47,1.52,-26.55,11.02,-38.33
33580521,-0.148,0.072,1.241,0.74,-9.30,0.83,0.92,3.86,1260,1260,1320,1222,1272,1226,0,1500,1500,1260,1500,4294967284,0.00,0.00,2.77,-0.92,-3.86,0.00,0.74,-9.30,0.83,-13.08,11.94,-37.00
33584521,-0.139,0.022,0.988,0.10,-10.60,1.18,0.92,3.86,1260,1260,1334,1234,1260,1212,0,1500,1500,1260,1500,4294967283,0.00,0.00,2.77,-0.92,-3.86,0.00,0.10,-10.60,1.18,-13.25,24.01,-37.75
33588521,-0.156,-0.029,0.897,0.69,-9.87,1.37,0.91,3.86,1260,1260,1328,1208,1268,1236,0,1500,1500,1260,1500,4294967284,0.00,0.00,2.77,-0.91,-3.86,0.00,0.69,-9.87,1.37,-22.83,8.37,-38.20
33592521,-0.080,-0.018,1.050,0.05,-9.19,1.00,0.86,3.84,1260,1260,1317,1219,1277,1227,0,1500,1500,1260,1500,4294967285,0.00,0.00,2.77,-0.86,-3.84,0.00,0.05,-9.19,1.00,-12.88,8.42,-37.51
33596521,-0.093,-0.034,0.871,-0.90,-10.85,0.75,0.82,3.82,1260,1260,1333,1241,1261,1205,0,1500,1500,1260,1500,4294967284,0.00,0.00,2.77,-0.82,-3.82,0.00,-0.90,-10.85,0.75,-9.72,27.36,-37.04
33600521,-0.149,-0.094,1.030,-0.26,-10.70,0.26,0.78,3.80,1259,1259,1330,1214,1260,1232,0,1500,1500,1259,1500,4294967283,0.00,0.00,2.77,-0.78,-3.80,0.00,-0.26,-10.70,0.26,-22.23,13.79,-36.06
33604521,-0.143,-0.032,1.247,0.18,-10.02,-0.03,0.76,3.80,1259,1259,1324,1212,1264,1236,0,1500,1500,1259,1500,4294967284,0.00,0.00,2.77,-0.76,-3.80,0.00,0.18,-10.02,-0.03,-21.14,9.24,-35.50
33608521,-0.154,-0.026,1.080,-1.10,-10.71,0.42,0.73,3.80,1259,1259,1322,1236,1268,1210,0,1500,1500,1259,1500,4294967285,0.00,0.00,2.77,-0.73,-3.80,0.00,-1.10,-10.71,0.42,-7.14,20.17,-36.42
33612521,-0.093,-0.096,1.033,-0.72,-10.37,0.42,0.68,3.77,1260,1260,1327,1217,1265,1231,0,1500,1500,1260,1500,4294967284,0.00,0.00,2.77,-0.68,-3.77,0.00,-0.72,-10.37,0.42,-19.76,12.42,-36.44
33616521,-0.082,-0.035,0.880,0.32,-10.00,-0.33,0.64,3.75,1260,1260,1330,1212,1258,1240,0,1500,1500,1260,1500,4294967283,0.00,0.00,2.76,-0.64,-3.75,0.00,0.32,-10.00,-0.33,-25.56,11.97,-34.92
33620521,-0.041,0.007,1.021,-1.42,-10.38,-0.60,0.63,3.66,1260,1260,1315,1241,1273,1211,0,1500,1500,1260,1500,4294967284,0.00,0.00,2.76,-0.63,-3.66,0.00,-1.42,-10.38,-0.60,-3.44,18.55,-34.35
33624521,-0.063,-0.016,1.133,-0.74,-10.91,-0.51,0.58,3.60,1260,1260,1335,1225,1253,1227,0,1500,1500,1260,1500,4294967285,0.00,0.00,2.75,-0.58,-3.60,0.00,-0.74,-10.91,-0.51,-21.89,20.07,-34.51
