t_us,ax_g,ay_g,az_g,gx_dps,gy_dps,gz_dps,roll_deg,pitch_deg,throttle_us,motor_us,m1,m2,m3,m4,mode,rc_roll,rc_pitch,rc_throttle,rc_yaw,rc_age_us,att_sp_roll,att_sp_pitch,att_sp_yaw,rate_sp_roll,rate_sp_pitch,rate_sp_yaw,rate_meas_roll,rate_meas_pitch,rate_meas_yaw,rate_out_roll,rate_out_pitch,rate_out_yaw
10144521,0.001,0.003,1.001,0.00,0.01,-0.00,0.09,-0.09,1000,1000,1000,1000,1000,1000,0,1500,1500,989,1500,4294967284,0.00,0.00,0.00,0.00,0.00,0.00,0.00,0.00,0.00,0.00,0.00,0.00
10148521,0.002,0.002,1.001,0.02,0.02,-0.01,0.14,-0.09,1000,1000,1000,1000,1000,1000,0,1500,1500,989,1500,4294967283,0.00,0.00,0.00,0.00,0.00,0.00,0.00,0.00,0.00,0.00,0.00,0.00
10152521,0.002,0.000,1.000,0.02,0.02,-0.01,0.09,-0.10,1000,1000,1000,1000,1000,1000,0,1500,1500,989,1500,4294967284,0.00,0.00,0.00,0.00,0.00,0.00,0.00,0.00,0.00,0.00,0.00,0.00
10156521,0.004,-0.001,1.001,0.03,0.02,0.00,0.06,-0.13,1000,1000,1000,1000,1000,1000,0,1500,1500,989,1500,4294967285,0.00,0.00,0.00,0.00,0.00,0.00,0.00,0.00,0.00,0.00,0.00,0.00
10160521,0.004,-0.001,1.001,0.03,0.02,0.00,0.03,-0.16,1000,1000,1000,1000,1000,1000,0,1500,1500,989,1500,4294967284,0.00,0.00,0.00,0.00,0.00,0.00,0.00,0.00,0.00,0.00,0.00,0.00
10164521,0.004,0.001,0.999,0.02,0.02,0.00,0.04,-0.20,1000,1000,1000,1000,1000,1000,0,1500,1500,989,1500,4294967283,0.00,0.00,0.00,0.00,0.00,0.00,0.00,0.00,0.00,0.00,0.00,0.00
10168521,0.004,0.002,0.999,0.03,0.02,0.01,0.08,-0.22,1000,1000,1000,1000,1000,1000,0,1500,1500,989,1500,4294967284,0.00,0.00,0.00,0.00,0.00,0.00,0.00,0.00,0.00,0.00,0.00,0.00
10172521,0.003,0.002,0.999,0.01,0.04,0.00,0.09,-0.18,1000,1000,1000,1000,1000,1000,0,1500,1500,989,1500,4294967285,0.00,0.00,0.00,0.00,0.00,0.00,0.00,0.00,0.00,0.00,0.00,0.00
10176521,0.001,0.001,1.000,-0.02,0.03,0.01,0.09,-0.13,1000,1000,1000,1000,1000,1000,0,1500,1500,989,1500,4294967284,0.00,0.00,0.00,0.00,0.00,0.00,0.00,0.00,0.00,0.00,0.00,0.00
10180521,0.002,0.001,1.001,-0.03,0.02,0.01,0.05,-0.10,1000,1000,1000,1000,1000,1000,0,1500,1500,989,1500,4294967283,0.00,0.00,0.00,0.00,0.00,0.00,0.00,0.00,0.00,0.00,0.00,0.00
10184521,0.003,-0.001,1.001,-0.03,0.02,0.02,0.01,-0.12,1000,1000,1000,1000,1000,1000,0,1500,1500,989,1500,4294967284,0.00,0.00,0.00,0.00,0.00,0.00,0.00,0.00,0.00,0.00,0.00,0.00
10188521,0.002,-0.002,1.002,-0.01,0.00,0.02,-0.04,-0.12,1000,1000,1000,1000,1000,1000,0,1500,1500,989,1500,4294967285,0.00,0.00,0.00,0.00,0.00,0.00,0.00,0.00,0.00,0.00,0.00,0.00
10192521,0.003,-0.002,1.003,-0.02,-0.02,-0.00,-0.08,-0.14,1000,1000,1000,1000,1000,1000,0,1500,1500,989,1500,4294967284,0.00,0.00,0.00,0.00,0.00,0.00,0.00,0.00,0.00,0.00,0.00,0.00
10196521,0.003,-0.002,1.003,-0.02,0.00,-0.00,-0.09,-0.18,1000,1000,1000,1000,1000,1000,0,1500,1500,989,1500,4294967283,0.00,0.00,0.00,0.00,0.00,0.00,0.00,0.00,0.00,0.00,0.00,0.00
10200521,0.004,0.000,1.003,-0.03,0.00,-0.02,-0.06,-0.21,1000,1000,1000,1000,1000,1000,0,1500,1500,989,1500,4294967284,0.00,0.00,0.00,0.00,0.00,0.00,0.00,0.00,0.00,0.00,0.00,0.00
10204521,0.004,0.001,1.004,-0.04,0.00,-0.03,-0.01,-0.21,1000,1000,1000,1000,1000,1000,0,1500,1500,989,1500,4294967285,0.00,0.00,0.00,0.00,0.00,0.00,0.00,0.00,0.00,0.00,0.00,0.00
10208521,0.002,0.003,1.003,-0.04,0.01,-0.02,0.03,-0.18,1000,1000,1000,1000,1000,1000,0,1500,1500,989,1500,4294967284,0.00,0.00,0.00,0.00,0.00,0.00,0.00,0.00,0.00,0.00,0.00,0.00
10212521,0.002,0.003,1.003,-0.01,0.02,-0.02,0.07,-0.16,1000,1000,1000,1000,1000,1000,0,1500,1500,989,1500,4294967283,0.00,0.00,0.00,0.00,0.00,0.00,0.00,0.00,0.00,0.00,0.00,0.00
10216521,0.001,0.003,1.004,0.02,0.01,-0.01,0.10,-0.13,1000,1000,1000,1000,1000,1000,0,1500,1500,989,1500,4294967284,0.00,0.00,0.00,0.00,0.00,0.00,0.00,0.00,0.00,0.00,0.00,0.00
10220521,0.001,0.003,1.003,0.02,0.01,0.01,0.13,-0.09,1000,1000,1000,1000,1000,1000,0,1500,1500,989,1500,4294967285,0.00,0.00,0.00,0.00,0.00,0.00,0.00,0.00,0.00,0.00,0.00,0.00
10224521,0.003,0.002,1.004,0.01,0.01,0.01,0.13,-0.14,1000,1000,1000,1000,1000,1000,0,1500,1500,989,1500,4294967282,0.00,0.00,0.00,0.00,0.00,0.00,0.00,0.00,0.00,0.00,0.00,0.00
10228521,0.004,0.002,1.004,0.01,-0.00,0.01,0.11,-0.18,1000,1000,1000,1000,1000,1000,0,1500,1500,989,1500,4294967283,0.00,0.00,0.00,0.00,0.00,0.00,0.00,0.00,0.00,0.00,0.00,0.00
10232521,0.004,0.001,1.005,0.02,-0.00,0.01,0.07,-0.20,1000,1000,1000,1000,1000,1000,0,1500,1500,989,1500,4294967284,0.00,0.00,0.00,0.00,0.00,0.00,0.00,0.00,0.00,0.00,0.00,0.00
10236521,0.004,0.000,1.005,0.03,-0.01,0.01,0.03,-0.22,1000,1000,1000,1000,1000,1000,0,1500,1500,989,1500,4294967285,0.00,0.00,0.00,0.00,0.00,0.00,0.00,0.00,0.00,0.00,0.00,0.00
10240521,0.003,-0.000,1.004,0.04,-0.02,-0.00,0.01,-0.17,1000,1000,1000,1000,1000,1000,0,1500,1500,989,1500,4294967284,0.00,0.00,0.00,0.00,0.00,0.00,0.00,0.00,0.00,0.00,0.00,0.00
10244521,0.005,-0.001,1.004,0.02,-0.01,-0.02,-0.02,-0.21,1000,1000,1000,1000,1000,1000,0,1500,1500,989,1500,4294967283,0.00,0.00,0.00,0.00,0.00,0.00,0.00,0.00,0.00,0.00,0.00,0.00
10248521,0.006,0.000,1.004,-0.01,0.00,-0.01,-0.01,-0.26,1000,1000,1000,1000,1000,1000,0,1500,1500,989,1500,4294967284,0.00,0.00,0.00,0.00,0.00,0.00,0.00,0.00,0.00,0.00,0.00,0.00
10252521,0.005,-0.000,1.003,-0.01,-0.00,-0.01,-0.02,-0.30,1000,1000,1000,1000,1000,1000,0,1500,1500,989,1500,4294967285,0.00,0.00,0.00,0.00,0.00,0.00,0.00,0.00,0.00,0.00,0.00,0.00
10256521,0.004,-0.001,1.004,-0.00,-0.01,-0.01,-0.05,-0.26,1000,1000,1000,1000,1000,1000,0,1500,1500,989,1500,4294967284,0.00,0.00,0.00,0.00,0.00,0.00,0.00,0.00,0.00,0.00,0.00,0.00
10260521,0.002,-0.003,1.007,-0.00,-0.03,-0.01,-0.08,-0.23,1000,1000,1000,1000,1000,1000,0,1500,1500,989,1500,4294967283,0.00,0.00,0.00,0.00,0.00,0.00,0.00,0.00,0.00,0.00,0.00,0.00
10264521,0.002,-0.003,1.008,-0.01,-0.01,-0.01,-0.11,-0.19,1000,1000,1000,1000,1000,1000,0,1500,1500,989,1500,4294967284,0.00,0.00,0.00,0.00,0.00,0.00,0.00,0.00,0.00,0.00,0.00,0.00
10268521,0.000,-0.004,1.005,-0.02,-0.01,-0.01,-0.14,-0.15,1000,1000,1000,1000,1000,1000,0,1500,1500,989,1500,4294967285,0.00,0.00,0.00,0.00,0.00,0.00,0.00,0.00,0.00,0.00,0.00,0.00
10272521,-0.001,-0.005,1.004,-0.03,0.01,-0.01,-0.17,-0.12,1000,1000,1000,1000,1000,1000,0,1500,1500,989,1500,4294967284,0.00,0.00,0.00,0.00,0.00,0.00,0.00,0.00,0.00,0.00,0.00,0.00
10276521,-0.003,-0.006,1.002,-0.01,-0.00,0.00,-0.19,-0.08,1000,1000,1000,1000,1000,1000,0,1500,1500,989,1500,4294967283,0.00,0.00,0.00,0.00,0.00,0.00,0.00,0.00,0.00,0.00,0.00,0.00
10280521,-0.004,-0.005,0.998,-0.01,0.02,-0.01,-0.21,-0.04,1000,1000,1000,1000,1000,1000,0,1500,1500,989,1500,4294967284,0.00,0.00,0.00,0.00,0.00,0.00,0.00,0.00,0.00,0.00,0.00,0.00
10284521,-0.003,-0.005,0.996,-0.00,0.01,0.00,-0.22,0.01,1000,1000,1000,1000,1000,1000,0,1500,1500,989,1500,4294967285,0.00,0.00,0.00,0.00,0.00,0.00,0.00,0.00,0.00,0.00,0.00,0.00
10288521,-0.002,-0.004,0.997,-0.01,-0.00,-0.00,-0.23,0.05,1000,1000,1000,1000,1000,1000,0,1500,1500,989,1500,4294967284,0.00,0.00,0.00,0.00,0.00,0.00,0.00,0.00,0.00,0.00,0.00,0.00
10292521,-0.002,-0.004,1.000,-0.03,-0.01,-0.01,-0.22,0.10,1000,1000,1000,1000,1000,1000,0,1500,1500,989,1500,3988,0.00,0.00,0.00,0.00,0.00,0.00,0.00,0.00,0.00,0.00,0.00,0.00
10296521,-0.001,-0.004,1.001,-0.01,-0.02,-0.01,-0.24,0.05,1000,1000,1000,1000,1000,1000,0,1500,1500,989,1500,7988,0.00,0.00,0.00,0.00,0.00,0.00,0.00,0.00,0.00,0.00,0.00,0.00
10300521,0.000,-0.005,1.003,-0.02,-0.02,-0.00,-0.27,0.02,1000,1000,1000,1000,1000,1000,0,1500,1500,989,1500,4294967283,0.00,0.00,0.00,0.00,0.00,0.00,0.00,0.00,0.00,0.00,0.00,0.00
10304521,0.001,-0.005,1.003,-0.03,-0.00,-0.01,-0.28,-0.02,1000,1000,1000,1000,1000,1000,0,1500,1500,989,1500,4294967284,0.00,0.00,0.00,0.00,0.00,0.00,0.00,0.00,0.00,0.00,0.00,0.00
10308521,0.002,-0.005,1.002,-0.02,0.02,-0.02,-0.29,-0.07,1000,1000,1000,1000,1000,1000,0,1500,1500,989,1500,4294967285,0.00,0.00,0.00,0.00,0.00,0.00,0.00,0.00,0.00,0.00,0.00,0.00
10312521,0.003,-0.006,0.999,-0.01,0.01,-0.02,-0.31,-0.11,1000,1000,1000,1000,1000,1000,0,1500,1500,989,1500,4294967284,0.00,0.00,0.00,0.00,0.00,0.00,0.00,0.00,0.00,0.00,0.00,0.00
10316521,0.004,-0.005,0.998,-0.00,-0.01,-0.02,-0.29,-0.16,1000,1000,1000,1000,1000,1000,0,1500,1500,989,1500,4294967283,0.00,0.00,0.00,0.00,0.00,0.00,0.00,0.00,0.00,0.00,0.00,0.00
10320521,0.002,-0.003,1.000,-0.01,0.00,-0.01,-0.25,-0.15,1000,1000,1000,1000,1000,1000,0,1500,1500,989,1500,4294967284,0.00,0.00,0.00,0.00,0.00,0.00,0.00,0.00,0.00,0.00,0.00,0.00
10324521,0.001,-0.003,1.002,-0.02,0.01,-0.01,-0.21,-0.12,1000,1000,1000,1000,1000,1000,0,1500,1500,989,1500,4294967285,0.00,0.00,0.00,0.00,0.00,0.00,0.00,0.00,0.00,0.00,0.00,0.00
10328521,0.001,-0.003,1.004,-0.02,0.01,0.00,-0.18,-0.08,1000,1000,1000,1000,1000,1000,0,1500,1500,989,1500,4294967284,0.00,0.00,0.00,0.00,0.00,0.00,0.00,0.00,0.00,0.00,0.00,0.00
10332521,0.002,-0.004,1.002,-0.02,0.01,-0.00,-0.20,-0.12,1000,1000,1000,1000,1000,1000,0,1500,1500,989,1500,4294967283,0.00,0.00,0.00,0.00,0.00,0.00,0.00,0.00,0.00,0.00,0.00,0.00
10336521,0.001,-0.005,1.002,-0.01,-0.00,0.01,-0.24,-0.10,1000,1000,1000,1000,1000,1000,0,1500,1500,989,1500,4294967284,0.00,0.00,0.00,0.00,0.00,0.00,0.00,0.00,0.00,0.00,0.00,0.00
10340521,0.001,-0.004,1.003,-0.01,-0.01,0.01,-0.26,-0.06,1000,1000,1000,1000,1000,1000,0,1500,1500,989,1500,4294967285,0.00,0.00,0.00,0.00,0.00,0.00,0.00,0.00,0.00,0.00,0.00,0.00
10344521,0.000,-0.004,1.005,-0.01,-0.01,0.01,-0.24,-0.02,1000,1000,1000,1000,1000,1000,0,1500,1500,989,1500,4294967284,0.00,0.00,0.00,0.00,0.00,0.00,0.00,0.00,0.00,0.00,0.00,0.00
10348521,0.001,-0.004,1.006,-0.02,-0.01,0.01,-0.21,-0.06,1000,1000,1000,1000,1000,1000,0,1500,1500,989,1500,4294967283,0.00,0.00,0.00,0.00,0.00,0.00,0.00,0.00,0.00,0.00,0.00,0.00
10352521,0.002,-0.002,1.004,0.00,-0.01,0.00,-0.18,-0.08,1000,1000,1000,1000,1000,1000,0,1500,1500,989,1500,4294967284,0.00,0.00,0.00,0.00,0.00,0.00,0.00,0.00,0.00,0.00,0.00,0.00
10356521,0.002,-0.002,1.003,-0.02,-0.01,-0.00,-0.13,-0.10,1000,1000,1000,1000,1000,1000,0,1500,1500,989,1500,4294967285,0.00,0.00,0.00,0.00,0.00,0.00,0.00,0.00,0.00,0.00,0.00,0.00
10360521,0.000,-0.000,1.002,-0.02,-0.01,-0.00,-0.10,-0.07,1000,1000,1000,1000,1000,1000,0,1500,1500,989,1500,4294967284,0.00,0.00,0.00,0.00,0.00,0.00,0.00,0.00,0.00,0.00,0.00,0.00
10364521,0.000,-0.000,1.002,-0.01,-0.01,-0.01,-0.06,-0.05,1000,1000,1000,1000,1000,1000,0,1500,1500,989,1500,4294967283,0.00,0.00,0.00,0.00,0.00,0.00,0.00,0.00,0.00,0.00,0.00,0.00
10368521,-0.002,-0.001,1.001,-0.01,0.01,-0.01,-0.05,-0.00,1000,1000,1000,1000,1000,1000,0,1500,1500,989,1500,4294967284,0.00,0.00,0.00,0.00,0.00,0.00,0.00,0.00,0.00,0.00,0.00,0.00
10372521,-0.002,-0.001,1.000,0.01,-0.00,0.01,-0.06,0.04,1000,1000,1000,1000,1000,1000,0,1500,1500,989,1500,4294967285,0.00,0.00,0.00,0.00,0.00,0.00,0.00,0.00,0.00,0.00,0.00,0.00
10376521,-0.002,-0.002,1.001,0.01,0.00,0.02,-0.08,0.08,1000,1000,1000,1000,1000,1000,0,1500,1500,989,1500,4294967284,0.00,0.00,0.00,0.00,0.00,0.00,0.00,0.00,0.00,0.00,0.00,0.00
10380521,-0.002,-0.002,1.005,0.03,-0.01,0.02,-0.11,0.12,1000,1000,1000,1000,1000,1000,0,1500,1500,989,1500,4294967283,0.00,0.00,0.00,0.00,0.00,0.00,0.00,0.00,0.00,0.00,0.00,0.00
10384521,-0.000,-0.001,1.007,0.02,0.01,0.03,-0.10,0.08,1000,1000,1000,1000,1000,1000,0,1500,1500,989,1500,3987,0.00,0.00,0.00,0.00,0.00,0.00,0.00,0.00,0.00,0.00,0.00,0.00
10388521,0.001,-0.001,1.005,0.01,0.02,0.03,-0.08,0.03,1000,1000,1000,1000,1000,1000,0,1500,1500,989,1500,4294967284,0.00,0.00,0.00,0.00,0.00,0.00,0.00,0.00,0.00,0.00,0.00,0.00
10392521,0.003,-0.001,1.004,0.00,0.03,0.01,-0.08,-0.01,1000,1000,1000,1000,1000,1000,0,1500,1500,989,1500,4294967285,0.00,0.00,0.00,0.00,0.00,0.00,0.00,0.00,0.00,0.00,0.00,0.00
10396521,0.004,-0.001,1.003,0.01,0.02,0.00,-0.07,-0.06,1000,1000,1000,1000,1000,1000,0,1500,1500,989,1500,4294967284,0.00,0.00,0.00,0.00,0.00,0.00,0.00,0.00,0.00,0.00,0.00,0.00
10400521,0.006,-0.002,1.003,0.00,0.00,-0.01,-0.08,-0.10,1000,1000,1000,1000,1000,1000,0,1500,1500,989,1500,4294967283,0.00,0.00,0.00,0.00,0.00,0.00,0.00,0.00,0.00,0.00,0.00,0.00
10404521,0.006,-0.003,1.003,-0.01,0.00,-0.00,-0.10,-0.15,1000,1000,1000,1000,1000,1000,0,1500,1500,989,1500,4294967284,0.00,0.00,0.00,0.00,0.00,0.00,0.00,0.00,0.00,0.00,0.00,0.00
10408521,0.003,-0.002,1.003,-0.01,0.02,0.01,-0.13,-0.18,1000,1000,1000,1000,1000,1000,0,1500,1500,989,1500,4294967285,0.00,0.00,0.00,0.00,0.00,0.00,0.00,0.00,0.00,0.00,0.00,0.00
10412521,0.001,-0.001,1.002,-0.02,0.03,0.01,-0.11,-0.14,1000,1000,1000,1000,1000,1000,0,1500,1500,989,1500,4294967284,0.00,0.00,0.00,0.00,0.00,0.00,0.00,0.00,0.00,0.00,0.00,0.00
10416521,-0.000,-0.000,1.000,-0.02,0.02,0.01,-0.08,-0.10,1000,1000,1000,1000,1000,1000,0,1500,1500,989,1500,4294967283,0.00,0.00,0.00,0.00,0.00,0.00,0.00,0.00,0.00,0.00,0.00,0.00
10420521,-0.000,-0.001,0.997,-0.03,0.00,0.01,-0.08,-0.06,1000,1000,1000,1000,1000,1000,0,1500,1500,989,1500,3987,0.00,0.00,0.00,0.00,0.00,0.00,0.00,0.00,0.00,0.00,0.00,0.00
10424521,-0.001,-0.002,0.996,-0.02,-0.00,-0.01,-0.09,-0.01,1000,1000,1000,1000,1000,1000,0,1500,1500,989,1500,7987,0.00,0.00,0.00,0.00,0.00,0.00,0.00,0.00,0.00,0.00,0.00,0.00
10428521,-0.001,-0.001,0.995,0.00,0.00,-0.01,-0.08,0.04,1000,1000,1000,1000,1000,1000,0,1500,1500,989,1500,4294967282,0.00,0.00,0.00,0.00,0.00,0.00,0.00,0.00,0.00,0.00,0.00,0.00
10432521,-0.001,0.001,0.995,-0.00,0.01,0.01,-0.04,0.04,1000,1000,1000,1000,1000,1000,0,1500,1500,989,1500,4294967285,0.00,0.00,0.00,0.00,0.00,0.00,0.00,0.00,0.00,0.00,0.00,0.00
10436521,-0.001,0.001,0.997,-0.00,0.01,0.02,0.00,0.06,1000,1000,1000,1000,1000,1000,0,1500,1500,989,1500,4294967284,0.00,0.00,0.00,0.00,0.00,0.00,0.00,0.00,0.00,0.00,0.00,0.00
10440521,-0.002,-0.001,0.997,0.01,0.02,-0.00,-0.02,0.10,1000,1000,1000,1000,1000,1000,0,1500,1500,989,1500,4294967283,0.00,0.00,0.00,0.00,0.00,0.00,0.00,0.00,0.00,0.00,0.00,0.00
10444521,-0.002,-0.001,0.997,0.02,0.02,-0.00,-0.06,0.12,1000,1000,1000,1000,1000,1000,0,1500,1500,989,1500,4294967284,0.00,0.00,0.00,0.00,0.00,0.00,0.00,0.00,0.00,0.00,0.00,0.00
10448521,-0.001,-0.002,0.997,0.02,0.03,0.01,-0.10,0.10,1000,1000,1000,1000,1000,1000,0,1500,1500,989,1500,4294967285,0.00,0.00,0.00,0.00,0.00,0.00,0.00,0.00,0.00,0.00,0.00,0.00
10452521,-0.001,-0.003,0.995,0.00,0.04,-0.01,-0.14,0.07,1000,1000,1000,1000,1000,1000,0,1500,1500,989,1500,4294967284,0.00,0.00,0.00,0.00,0.00,0.00,0.00,0.00,0.00,0.00,0.00,0.00
10456521,-0.000,-0.001,0.995,-0.02,0.01,-0.00,-0.10,0.04,1000,1000,1000,1000,1000,1000,0,1500,1500,989,1500,4294967283,0.00,0.00,0.00,0.00,0.00,0.00,0.00,0.00,0.00,0.00,0.00,0.00
10460521,0.000,0.001,0.996,-0.02,-0.00,-0.00,-0.06,0.03,1000,1000,1000,1000,1000,1000,0,1500,1500,989,1500,4294967284,0.00,0.00,0.00,0.00,0.00,0.00,0.00,0.00,0.00,0.00,0.00,0.00
10464521,0.000,0.001,0.996,-0.04,-0.03,-0.00,-0.01,0.02,1000,1000,1000,1000,1000,1000,0,1500,1500,989,1500,4294967285,0.00,0.00,0.00,0.00,0.00,0.00,0.00,0.00,0.00,0.00,0.00,0.00
10468521,0.000,0.001,0.998,-0.04,-0.03,-0.02,0.03,0.00,1000,1000,1000,1000,1000,1000,0,1500,1500,989,1500,4294967284,0.00,0.00,0.00,0.00,0.00,0.00,0.00,0.00,0.00,0.00,0.00,0.00
10472521,-0.001,0.001,1.001,-0.03,-0.03,-0.02,0.06,0.04,1000,1000,1000,1000,1000,1000,0,1500,1500,989,1500,4294967283,0.00,0.00,0.00,0.00,0.00,0.00,0.00,0.00,0.00,0.00,0.00,0.00
10476521,-0.002,0.002,1.002,-0.03,-0.03,-0.02,0.09,0.07,1000,1000,1000,1000,1000,1000,0,1500,1500,989,1500,4294967284,0.00,0.00,0.00,0.00,0.00,0.00,0.00,0.00,0.00,0.00,0.00,0.00
10480521,-0.002,0.002,1.006,-0.05,-0.03,-0.01,0.12,0.10,1000,1000,1000,1000,1000,1000,0,1500,1500,989,1500,4294967285,0.00,0.00,0.00,0.00,0.00,0.00,0.00,0.00,0.00,0.00,0.00,0.00
10484521,-0.003,0.002,1.008,-0.05,-0.02,-0.01,0.11,0.15,1000,1000,1000,1000,1000,1000,0,1500,1500,989,1500,3989,0.00,0.00,0.00,0.00,0.00,0.00,0.00,0.00,0.00,0.00,0.00,0.00
10488521,-0.001,0.002,1.009,-0.05,-0.03,-0.01,0.11,0.10,1000,1000,1000,1000,1000,1000,0,1500,1500,989,1500,7989,0.00,0.00,0.00,0.00,0.00,0.00,0.00,0.00,0.00,0.00,0.00,0.00
10492521,0.001,0.002,1.010,-0.05,-0.02,0.00,0.11,0.06,1000,1000,1000,1000,1000,1000,0,1500,1500,989,1500,4294967284,0.00,0.00,0.00,0.00,0.00,0.00,0.00,0.00,0.00,0.00,0.00,0.00
10496521,0.002,0.002,1.010,-0.04,-0.02,-0.01,0.11,0.01,1000,1000,1000,1000,1000,1000,0,1500,1500,989,1500,4294967283,0.00,0.00,0.00,0.00,0.00,0.00,0.00,0.00,0.00,0.00,0.00,0.00
10500521,0.003,0.001,1.011,-0.01,-0.02,-0.01,0.09,-0.03,1000,1000,1000,1000,1000,1000,0,1500,1500,989,1500,4294967284,0.00,0.00,0.00,0.00,0.00,0.00,0.00,0.00,0.00,0.00,0.00,0.00
10504521,0.003,0.001,1.013,-0.01,-0.02,-0.01,0.08,-0.08,1000,1000,1000,1000,1000,1000,0,1500,1500,989,1500,4294967285,0.00,0.00,0.00,0.00,0.00,0.00,0.00,0.00,0.00,0.00,0.00,0.00
10508521,0.002,0.000,1.012,0.01,-0.02,-0.01,0.04,-0.10,1000,1000,1000,1000,1000,1000,0,1500,1500,989,1500,4294967284,0.00,0.00,0.00,0.00,0.00,0.00,0.00,0.00,0.00,0.00,0.00,0.00
10512521,0.002,-0.001,1.011,-0.00,-0.01,0.00,-0.01,-0.10,1000,1000,1000,1000,1000,1000,0,1500,1500,989,1500,4294967283,0.00,0.00,0.00,0.00,0.00,0.00,0.00,0.00,0.00,0.00,0.00,0.00
10516521,0.003,-0.002,1.010,0.00,-0.03,-0.00,-0.04,-0.13,1000,1000,1000,1000,1000,1000,0,1500,1500,989,1500,4294967284,0.00,0.00,0.00,0.00,0.00,0.00,0.00,0.00,0.00,0.00,0.00,0.00
10520521,0.004,-0.000,1.009,0.03,-0.01,-0.00,-0.03,-0.17,1000,1000,1000,1000,1000,1000,0,1500,1500,989,1500,4294967285,0.00,0.00,0.00,0.00,0.00,0.00,0.00,0.00,0.00,0.00,0.00,0.00
10524521,0.004,0.002,1.007,0.04,-0.00,-0.00,0.01,-0.19,1000,1000,1000,1000,1000,1000,0,1500,1500,989,1500,4294967284,0.00,0.00,0.00,0.00,0.00,0.00,0.00,0.00,0.00,0.00,0.00,0.00
10528521,0.004,0.001,1.005,0.03,0.00,0.01,0.05,-0.21,1000,1000,1000,1000,1000,1000,0,1500,1500,989,1500,4294967281,0.00,0.00,0.00,0.00,0.00,0.00,0.00,0.00,0.00,0.00,0.00,0.00
10532521,0.001,0.001,1.003,0.02,0.00,0.01,0.06,-0.16,1000,1000,1000,1000,1000,1000,0,1500,1500,989,1500,4294967284,0.00,0.00,0.00,0.00,0.00,0.00,0.00,0.00,0.00,0.00,0.00,0.00
10536521,-0.001,0.001,1.002,0.00,-0.01,0.00,0.06,-0.12,1000,1000,1000,1000,1000,1000,0,1500,1500,989,1500,4294967285,0.00,0.00,0.00,0.00,0.00,0.00,0.00,0.00,0.00,0.00,0.00,0.00
10540521,-0.003,0.000,1.002,-0.00,0.00,-0.00,0.05,-0.07,1000,1000,1000,1000,1000,1000,0,1500,1500,989,1500,4294967284,0.00,0.00,0.00,0.00,0.00,0.00,0.00,0.00,0.00,0.00,0.00,0.00
10544521,-0.002,-0.001,1.000,-0.01,0.02,-0.02,0.03,-0.03,1000,1000,1000,1000,1000,1000,0,1500,1500,989,1500,4294967283,0.00,0.00,0.00,0.00,0.00,0.00,0.00,0.00,0.00,0.00,0.00,0.00
10548521,-0.003,-0.001,1.002,-0.02,0.01,-0.03,0.01,0.01,1000,1000,1000,1000,1000,1000,0,1500,1500,989,1500,4294967284,0.00,0.00,0.00,0.00,0.00,0.00,0.00,0.00,0.00,0.00,0.00,0.00
10552521,-0.002,-0.001,1.000,-0.03,-0.00,-0.02,-0.02,0.04,1000,1000,1000,1000,1000,1000,0,1500,1500,989,1500,4294967285,0.00,0.00,0.00,0.00,0.00,0.00,0.00,0.00,0.00,0.00,0.00,0.00
10556521,-0.001,-0.002,1.001,-0.04,0.00,-0.02,-0.07,0.04,1000,1000,1000,1000,1000,1000,0,1500,1500,989,1500,4294967284,0.00,0.00,0.00,0.00,0.00,0.00,0.00,0.00,0.00,0.00,0.00,0.00
10560521,-0.001,-0.002,1.002,-0.03,0.00,-0.00,-0.11,0.04,1000,1000,1000,1000,1000,1000,0,1500,1500,989,1500,4294967283,0.00,0.00,0.00,0.00,0.00,0.00,0.00,0.00,0.00,0.00,0.00,0.00
10564521,-0.001,-0.002,1.002,-0.02,-0.01,0.00,-0.15,0.07,1000,1000,1000,1000,1000,1000,0,1500,1500,989,1500,4294967284,0.00,0.00,0.00,0.00,0.00,0.00,0.00,0.00,0.00,0.00,0.00,0.00
10568521,-0.001,0.000,1.002,-0.03,0.00,0.00,-0.10,0.07,1000,1000,1000,1000,1000,1000,0,1500,1500,989,1500,4294967285,0.00,0.00,0.00,0.00,0.00,0.00,0.00,0.00,0.00,0.00,0.00,0.00
10572521,-0.002,0.002,1.003,-0.03,-0.00,-0.01,-0.06,0.07,1000,1000,1000,1000,1000,1000,0,1500,1500,989,1500,4294967284,0.00,0.00,0.00,0.00,0.00,0.00,0.00,0.00,0.00,0.00,0.00,0.00
10576521,-0.002,0.002,1.003,-0.01,-0.01,-0.02,-0.01,0.09,1000,1000,1000,1000,1000,1000,0,1500,1500,989,1500,4294967283,0.00,0.00,0.00,0.00,0.00,0.00,0.00,0.00,0.00,0.00,0.00,0.00
10580521,-0.002,-0.000,1.001,-0.01,-0.01,0.00,-0.02,0.14,1000,1000,1000,1000,1000,1000,0,1500,1500,989,1500,4294967284,0.00,0.00,0.00,0.00,0.00,0.00,0.00,0.00,0.00,0.00,0.00,0.00
10584521,-0.001,-0.002,0.998,-0.01,-0.03,0.00,-0.05,0.10,1000,1000,1000,1000,1000,1000,0,1500,1500,989,1500,4294967285,0.00,0.00,0.00,0.00,0.00,0.00,0.00,0.00,0.00,0.00,0.00,0.00
10588521,0.000,-0.002,0.996,-0.02,-0.04,0.00,-0.07,0.06,1000,1000,1000,1000,1000,1000,0,1500,1500,989,1500,4294967284,0.00,0.00,0.00,0.00,0.00,0.00,0.00,0.00,0.00,0.00,0.00,0.00
10592521,0.000,-0.002,0.994,-0.03,-0.04,0.00,-0.09,0.02,1000,1000,1000,1000,1000,1000,0,1500,1500,989,1500,4294967283,0.00,0.00,0.00,0.00,0.00,0.00,0.00,0.00,0.00,0.00,0.00,0.00
10596521,0.000,-0.002,0.992,-0.05,-0.05,-0.00,-0.12,-0.01,1000,1000,1000,1000,1000,1000,0,1500,1500,989,1500,4294967284,0.00,0.00,0.00,0.00,0.00,0.00,0.00,0.00,0.00,0.00,0.00,0.00
10600521,0.001,-0.000,0.994,-0.04,-0.04,-0.02,-0.08,-0.02,1000,1000,1000,1000,1000,1000,0,1500,1500,989,1500,4294967285,0.00,0.00,0.00,0.00,0.00,0.00,0.00,0.00,0.00,0.00,0.00,0.00
10604521,-0.001,-0.000,0.998,-0.02,-0.03,-0.02,-0.04,0.01,1000,1000,1000,1000,1000,1000,0,1500,1500,989,1500,4294967284,0.00,0.00,0.00,0.00,0.00,0.00,0.00,0.00,0.00,0.00,0.00,0.00
10608521,-0.002,-0.000,1.000,-0.01,-0.01,-0.02,-0.03,0.05,1000,1000,1000,1000,1000,1000,0,1500,1500,989,1500,4294967283,0.00,0.00,0.00,0.00,0.00,0.00,0.00,0.00,0.00,0.00,0.00,0.00
10612521,-0.003,0.001,1.001,-0.01,-0.02,-0.00,-0.00,0.09,1000,1000,1000,1000,1000,1000,0,1500,1500,989,1500,4294967284,0.00,0.00,0.00,0.00,0.00,0.00,0.00,0.00,0.00,0.00,0.00,0.00
10616521,-0.002,0.000,1.002,-0.01,-0.01,-0.01,0.03,0.13,1000,1000,1000,1000,1000,1000,0,1500,1500,989,1500,4294967285,0.00,0.00,0.00,0.00,0.00,0.00,0.00,0.00,0.00,0.00,0.00,0.00
10620521,0.000,0.001,1.003,-0.01,-0.01,-0.00,0.03,0.08,1000,1000,1000,1000,1000,1000,0,1500,1500,989,1500,4294967284,0.00,0.00,0.00,0.00,0.00,0.00,0.00,0.00,0.00,0.00,0.00,0.00
10624521,0.001,0.002,1.003,-0.00,-0.01,0.00,0.06,0.05,1000,1000,1000,1000,1000,1000,0,1500,1500,989,1500,4294967283,0.00,0.00,0.00,0.00,0.00,0.00,0.00,0.00,0.00,0.00,0.00,0.00
10628521,0.001,0.001,1.002,0.02,-0.02,0.02,0.07,0.00,1000,1000,1000,1000,1000,1000,0,1500,1500,989,1500,4294967283,0.00,0.00,0.00,0.00,0.00,0.00,0.00,0.00,0.00,0.00,0.00,0.00
10632521,0.001,-0.000,1.001,0.03,-0.01,0.03,0.03,-0.02,1000,1000,1000,1000,1000,1000,0,1500,1500,989,1500,3987,0.00,0.00,0.00,0.00,0.00,0.00,0.00,0.00,0.00,0.00,0.00,0.00
10636521,0.000,-0.000,1.001,0.04,-0.00,0.02,-0.02,-0.01,1000,1000,1000,1000,1000,1000,0,1500,1500,989,1500,4294967285,0.00,0.00,0.00,0.00,0.00,0.00,0.00,0.00,0.00,0.00,0.00,0.00
10640521,0.001,-0.002,1.001,0.03,0.01,0.01,-0.06,-0.03,1000,1000,1000,1000,1000,1000,0,1500,1500,989,1500,4294967284,0.00,0.00,0.00,0.00,0.00,0.00,0.00,0.00,0.00,0.00,0.00,0.00
10644521,-0.000,-0.004,1.004,0.03,0.01,0.00,-0.11,-0.02,1000,1000,1000,1000,1000,1000,0,1500,1500,989,1500,4294967283,0.00,0.00,0.00,0.00,0.00,0.00,0.00,0.00,0.00,0.00,0.00,0.00
10648521,-0.001,-0.003,1.004,0.02,-0.00,-0.01,-0.14,0.01,1000,1000,1000,1000,1000,1000,0,1500,1500,989,1500,4294967284,0.00,0.00,0.00,0.00,0.00,0.00,0.00,0.00,0.00,0.00,0.00,0.00
10652521,-0.002,-0.002,1.006,0.03,-0.01,-0.01,-0.13,0.06,1000,1000,1000,1000,1000,1000,0,1500,1500,989,1500,4294967285,0.00,0.00,0.00,0.00,0.00,0.00,0.00,0.00,0.00,0.00,0.00,0.00
10656521,-0.003,0.000,1.007,0.03,-0.02,-0.01,-0.09,0.08,1000,1000,1000,1000,1000,1000,0,1500,1500,989,1500,4294967284,0.00,0.00,0.00,0.00,0.00,0.00,0.00,0.00,0.00,0.00,0.00,0.00
10660521,0.000,0.002,1.008,0.02,-0.01,-0.02,-0.05,0.06,1000,1000,1000,1000,1000,1000,0,1500,1500,989,1500,4294967283,0.00,0.00,0.00,0.00,0.00,0.00,0.00,0.00,0.00,0.00,0.00,0.00
10664521,0.002,0.002,1.007,0.01,-0.00,-0.01,-0.01,0.03,1000,1000,1000,1000,1000,1000,0,1500,1500,989,1500,4294967284,0.00,0.00,0.00,0.00,0.00,0.00,0.00,0.00,0.00,0.00,0.00,0.00
10668521,0.001,0.001,1.006,0.01,0.01,-0.01,0.00,-0.02,1000,1000,1000,1000,1000,1000,0,1500,1500,989,1500,4294967285,0.00,0.00,0.00,0.00,0.00,0.00,0.00,0.00,0.00,0.00,0.00,0.00
10672521,0.001,-0.000,1.003,0.00,0.02,-0.02,-0.02,-0.05,1000,1000,1000,1000,1000,1000,0,1500,1500,989,1500,4294967284,0.00,0.00,0.00,0.00,0.00,0.00,0.00,0.00,0.00,0.00,0.00,0.00
10676521,-0.000,0.000,1.000,-0.01,0.03,-0.04,-0.01,-0.01,1000,1000,1000,1000,1000,1000,0,1500,1500,989,1500,4294967283,0.00,0.00,0.00,0.00,0.00,0.00,0.00,0.00,0.00,0.00,0.00,0.00
10680521,-0.001,0.000,1.002,-0.01,0.03,-0.03,0.02,0.03,1000,1000,1000,1000,1000,1000,0,1500,1500,989,1500,4294967284,0.00,0.00,0.00,0.00,0.00,0.00,0.00,0.00,0.00,0.00,0.00,0.00
10684521,0.001,0.000,1.003,-0.00,0.01,-0.02,0.02,-0.01,1000,1000,1000,1000,1000,1000,0,1500,1500,989,1500,3988,0.00,0.00,0.00,0.00,0.00,0.00,0.00,0.00,0.00,0.00,0.00,0.00
10688521,0.002,-0.001,1.000,0.00,0.00,-0.01,-0.01,-0.05,1000,1000,1000,1000,1000,1000,0,1500,1500,989,1500,4294967285,0.00,0.00,0.00,0.00,0.00,0.00,0.00,0.00,0.00,0.00,0.00,0.00
10692521,0.003,-0.003,0.999,0.00,0.01,-0.02,-0.04,-0.08,1000,1000,1000,1000,1000,1000,0,1500,1500,989,1500,4294967284,0.00,0.00,0.00,0.00,0.00,0.00,0.00,0.00,0.00,0.00,0.00,0.00
10696521,0.004,-0.003,1.000,-0.02,0.02,-0.01,-0.07,-0.12,1000,1000,1000,1000,1000,1000,0,1500,1500,989,1500,4294967283,0.00,0.00,0.00,0.00,0.00,0.00,0.00,0.00,0.00,0.00,0.00,0.00
10700521,0.002,-0.001,1.001,-0.02,0.02,-0.01,-0.03,-0.14,1000,1000,1000,1000,1000,1000,0,1500,1500,989,1500,4294967284,0.00,0.00,0.00,0.00,0.00,0.00,0.00,0.00,0.00,0.00,0.00,0.00
10704521,0.002,0.001,1.002,-0.02,0.02,-0.02,0.01,-0.13,1000,1000,1000,1000,1000,1000,0,1500,1500,989,1500,4294967285,0.00,0.00,0.00,0.00,0.00,0.00,0.00,0.00,0.00,0.00,0.00,0.00
10708521,0.001,0.001,1.002,-0.01,0.01,-0.02,0.03,-0.09,1000,1000,1000,1000,1000,1000,0,1500,1500,989,1500,4294967284,0.00,0.00,0.00,0.00,0.00,0.00,0.00,0.00,0.00,0.00,0.00,0.00
10712521,0.000,0.000,1.005,-0.02,0.01,-0.02,0.01,-0.04,1000,1000,1000,1000,1000,1000,0,1500,1500,989,1500,4294967283,0.00,0.00,0.00,0.00,0.00,0.00,0.00,0.00,0.00,0.00,0.00,0.00
10716521,-0.000,-0.000,1.003,-0.02,0.01,-0.01,-0.01,-0.00,1000,1000,1000,1000,1000,1000,0,1500,1500,989,1500,4294967284,0.00,0.00,0.00,0.00,0.00,0.00,0.00,0.00,0.00,0.00,0.00,0.00
10720521,0.001,-0.001,1.003,-0.01,0.02,-0.02,-0.03,-0.04,1000,1000,1000,1000,1000,1000,0,1500,1500,989,1500,4294967285,0.00,0.00,0.00,0.00,0.00,0.00,0.00,0.00,0.00,0.00,0.00,0.00
10724521,0.001,-0.002,1.001,-0.01,0.03,-0.02,-0.07,-0.05,1000,1000,1000,1000,1000,1000,0,1500,1500,989,1500,3989,0.00,0.00,0.00,0.00,0.00,0.00,0.00,0.00,0.00,0.00,0.00,0.00
10728521,0.001,-0.002,1.002,-0.02,0.03,-0.00,-0.12,-0.06,1000,1000,1000,1000,1000,1000,0,1500,1500,989,1500,4294967284,0.00,0.00,0.00,0.00,0.00,0.00,0.00,0.00,0.00,0.00,0.00,0.00
10732521,0.002,-0.002,1.001,-0.03,0.01,-0.00,-0.13,-0.11,1000,1000,1000,1000,1000,1000,0,1500,1500,989,1500,4294967282,0.00,0.00,0.00,0.00,0.00,0.00,0.00,0.00,0.00,0.00,0.00,0.00
10736521,0.003,-0.002,0.999,-0.02,-0.01,0.00,-0.12,-0.15,1000,1000,1000,1000,1000,1000,0,1500,1500,989,1500,4294967284,0.00,0.00,0.00,0.00,0.00,0.00,0.00,0.00,0.00,0.00,0.00,0.00
10740521,0.005,-0.002,0.998,-0.03,-0.01,-0.02,-0.11,-0.20,1000,1000,1000,1000,1000,1000,0,1500,1500,989,1500,4294967285,0.00,0.00,0.00,0.00,0.00,0.00,0.00,0.00,0.00,0.00,0.00,0.00
10744521,0.004,-0.002,1.001,-0.05,-0.00,-0.03,-0.12,-0.24,1000,1000,1000,1000,1000,1000,0,1500,1500,989,1500,4294967284,0.00,0.00,0.00,0.00,0.00,0.00,0.00,0.00,0.00,0.00,0.00,0.00
10748521,0.006,-0.001,1.002,-0.07,-0.00,-0.02,-0.08,-0.27,1000,1000,1000,1000,1000,1000,0,1500,1500,989,1500,4294967283,0.00,0.00,0.00,0.00,0.00,0.00,0.00,0.00,0.00,0.00,0.00,0.00
10752521,0.005,-0.000,1.002,-0.05,-0.01,-0.03,-0.04,-0.30,1000,1000,1000,1000,1000,1000,0,1500,1500,989,1500,4294967284,0.00,0.00,0.00,0.00,0.00,0.00,0.00,0.00,0.00,0.00,0.00,0.00
10756521,0.005,-0.001,1.004,-0.03,-0.02,-0.01,-0.08,-0.33,1000,1000,1000,1000,1000,1000,0,1500,1500,989,1500,4294967285,0.00,0.00,0.00,0.00,0.00,0.00,0.00,0.00,0.00,0.00,0.00,0.00
10760521,0.005,-0.002,1.002,-0.04,-0.01,-0.01,-0.10,-0.29,1000,1000,1000,1000,1000,1000,0,1500,1500,989,1500,4294967284,0.00,0.00,0.00,0.00,0.00,0.00,0.00,0.00,0.00,0.00,0.00,0.00
10764521,0.003,-0.002,1.002,-0.03,-0.02,-0.01,-0.11,-0.24,1000,1000,1000,1000,1000,1000,0,1500,1500,989,1500,4294967283,0.00,0.00,0.00,0.00,0.00,0.00,0.00,0.00,0.00,0.00,0.00,0.00
10768521,0.002,-0.001,1.003,-0.02,-0.02,-0.00,-0.09,-0.20,1000,1000,1000,1000,1000,1000,0,1500,1500,989,1500,4294967284,0.00,0.00,0.00,0.00,0.00,0.00,0.00,0.00,0.00,0.00,0.00,0.00
10772521,0.002,0.000,1.002,-0.03,-0.03,0.00,-0.06,-0.18,1000,1000,1000,1000,1000,1000,0,1500,1500,989,1500,4294967285,0.00,0.00,0.00,0.00,0.00,0.00,0.00,0.00,0.00,0.00,0.00,0.00
10776521,0.001,0.001,1.002,-0.03,-0.04,0.00,-0.02,-0.14,1000,1000,1000,1000,1000,1000,0,1500,1500,989,1500,4294967284,0.00,0.00,0.00,0.00,0.00,0.00,0.00,0.00,0.00,0.00,0.00,0.00
10780521,-0.000,0.001,1.001,-0.03,-0.03,-0.00,0.00,-0.10,1000,1000,1000,1000,1000,1000,0,1500,1500,989,1500,4294967283,0.00,0.00,0.00,0.00,0.00,0.00,0.00,0.00,0.00,0.00,0.00,0.00
10784521,0.000,0.001,1.000,-0.05,-0.02,-0.02,0.02,-0.06,1000,1000,1000,1000,1000,1000,0,1500,1500,989,1500,4294967284,0.00,0.00,0.00,0.00,0.00,0.00,0.00,0.00,0.00,0.00,0.00,0.00
10788521,0.002,0.001,1.000,-0.04,-0.00,-0.01,0.05,-0.10,1000,1000,1000,1000,1000,1000,0,1500,1500,989,1500,4294967285,0.00,0.00,0.00,0.00,0.00,0.00,0.00,0.00,0.00,0.00,0.00,0.00
10792521,0.003,0.001,0.999,-0.03,-0.01,0.00,0.06,-0.15,1000,1000,1000,1000,1000,1000,0,1500,1500,989,1500,4294967284,0.00,0.00,0.00,0.00,0.00,0.00,0.00,0.00,0.00,0.00,0.00,0.00
10796521,0.005,0.001,1.001,-0.02,-0.00,0.03,0.06,-0.19,1000,1000,1000,1000,1000,1000,0,1500,1500,989,1500,4294967283,0.00,0.00,0.00,0.00,0.00,0.00,0.00,0.00,0.00,0.00,0.00,0.00
10800521,0.006,0.001,1.001,-0.03,-0.01,0.03,0.06,-0.24,1000,1000,1000,1000,1000,1000,0,1500,1500,989,1500,4294967284,0.00,0.00,0.00,0.00,0.00,0.00,0.00,0.00,0.00,0.00,0.00,0.00
10804521,0.006,0.001,1.002,-0.02,0.00,0.04,0.06,-0.28,1000,1000,1000,1000,1000,1000,0,1500,1500,989,1500,3988,0.00,0.00,0.00,0.00,0.00,0.00,0.00,0.00,0.00,0.00,0.00,0.00
10808521,0.006,0.002,1.003,-0.02,0.00,0.03,0.09,-0.32,1000,1000,1000,1000,1000,1000,0,1500,1500,989,1500,7988,0.00,0.00,0.00,0.00,0.00,0.00,0.00,0.00,0.00,0.00,0.00,0.00
10812521,0.004,0.004,1.004,-0.01,0.00,0.02,0.13,-0.30,1000,1000,1000,1000,1000,1000,0,1500,1500,989,1500,11988,0.00,0.00,0.00,0.00,0.00,0.00,0.00,0.00,0.00,0.00,0.00,0.00
10816521,0.002,0.005,1.003,-0.00,0.00,0.02,0.16,-0.26,1000,1000,1000,1000,1000,1000,0,1500,1500,989,1500,4294967285,0.00,0.00,0.00,0.00,0.00,0.00,0.00,0.00,0.00,0.00,0.00,0.00
10820521,0.001,0.003,1.004,-0.01,0.01,0.01,0.16,-0.21,1000,1000,1000,1000,1000,1000,0,1500,1500,989,1500,4294967284,0.00,0.00,0.00,0.00,0.00,0.00,0.00,0.00,0.00,0.00,0.00,0.00
10824521,-0.000,0.000,1.003,0.01,0.01,0.01,0.13,-0.18,1000,1000,1000,1000,1000,1000,0,1500,1500,989,1500,4294967283,0.00,0.00,0.00,0.00,0.00,0.00,0.00,0.00,0.00,0.00,0.00,0.00
10828521,-0.001,-0.002,1.003,0.03,0.01,0.02,0.10,-0.14,1000,1000,1000,1000,1000,1000,0,1500,1500,989,1500,4294967284,0.00,0.00,0.00,0.00,0.00,0.00,0.00,0.00,0.00,0.00,0.00,0.00
10832521,0.001,-0.002,1.002,0.03,0.01,0.02,0.06,-0.13,1000,1000,1000,1000,1000,1000,0,1500,1500,989,1500,4294967283,0.00,0.00,0.00,0.00,0.00,0.00,0.00,0.00,0.00,0.00,0.00,0.00
10836521,0.002,-0.003,1.000,0.05,0.01,0.00,0.01,-0.13,1000,1000,1000,1000,1000,1000,0,1500,1500,989,1500,4294967284,0.00,0.00,0.00,0.00,0.00,0.00,0.00,0.00,0.00,0.00,0.00,0.00
10840521,0.002,-0.003,1.000,0.03,0.01,-0.00,-0.03,-0.12,1000,1000,1000,1000,1000,1000,0,1500,1500,989,1500,4294967283,0.00,0.00,0.00,0.00,0.00,0.00,0.00,0.00,0.00,0.00,0.00,0.00
10844521,-0.000,-0.001,1.001,0.03,0.02,-0.00,-0.05,-0.08,1000,1000,1000,1000,1000,1000,0,1500,1500,989,1500,4294967284,0.00,0.00,0.00,0.00,0.00,0.00,0.00,0.00,0.00,0.00,0.00,0.00
10848521,0.001,-0.000,1.002,0.03,0.01,-0.01,-0.02,-0.04,1000,1000,1000,1000,1000,1000,0,1500,1500,989,1500,4294967285,0.00,0.00,0.00,0.00,0.00,0.00,0.00,0.00,0.00,0.00,0.00,0.00
10852521,0.001,0.001,1.003,0.02,0.01,-0.02,0.03,-0.06,1000,1000,1000,1000,1000,1000,0,1500,1500,989,1500,4294967284,0.00,0.00,0.00,0.00,0.00,0.00,0.00,0.00,0.00,0.00,0.00,0.00
10856521,0.001,0.001,1.002,0.02,-0.00,-0.01,0.07,-0.07,1000,1000,1000,1000,1000,1000,0,1500,1500,989,1500,4294967283,0.00,0.00,0.00,0.00,0.00,0.00,0.00,0.00,0.00,0.00,0.00,0.00
10860521,0.002,0.001,1.002,0.00,-0.00,-0.01,0.03,-0.09,1000,1000,1000,1000,1000,1000,0,1500,1500,989,1500,4294967284,0.00,0.00,0.00,0.00,0.00,0.00,0.00,0.00,0.00,0.00,0.00,0.00
10864521,0.001,0.001,1.003,0.02,-0.01,0.00,0.06,-0.06,1000,1000,1000,1000,1000,1000,0,1500,1500,989,1500,3988,0.00,0.00,0.00,0.00,0.00,0.00,0.00,0.00,0.00,0.00,0.00,0.00
10868521,0.000,0.001,1.002,0.02,0.00,0.02,0.07,-0.01,1000,1000,1000,1000,1000,1000,0,1500,1500,989,1500,4294967285,0.00,0.00,0.00,0.00,0.00,0.00,0.00,0.00,0.00,0.00,0.00,0.00
10872521,-0.002,0.001,1.003,0.04,0.02,0.03,0.06,0.03,1000,1000,1000,1000,1000,1000,0,1500,1500,989,1500,4294967284,0.00,0.00,0.00,0.00,0.00,0.00,0.00,0.00,0.00,0.00,0.00,0.00
10876521,-0.003,0.001,1.005,0.04,0.02,0.02,0.05,0.08,1000,1000,1000,1000,1000,1000,0,1500,1500,989,1500,4294967283,0.00,0.00,0.00,0.00,0.00,0.00,0.00,0.00,0.00,0.00,0.00,0.00
10880521,-0.003,0.001,1.006,0.03,0.01,0.02,0.07,0.12,1000,1000,1000,1000,1000,1000,0,1500,1500,989,1500,4294967284,0.00,0.00,0.00,0.00,0.00,0.00,0.00,0.00,0.00,0.00,0.00,0.00
10884521,-0.003,0.002,1.006,-0.00,0.02,0.01,0.10,0.15,1000,1000,1000,1000,1000,1000,0,1500,1500,989,1500,4294967285,0.00,0.00,0.00,0.00,0.00,0.00,0.00,0.00,0.00,0.00,0.00,0.00
10888521,-0.003,0.003,1.006,-0.02,0.01,-0.00,0.14,0.17,1000,1000,1000,1000,1000,1000,0,1500,1500,989,1500,4294967284,0.00,0.00,0.00,0.00,0.00,0.00,0.00,0.00,0.00,0.00,0.00,0.00
10892521,-0.004,0.002,1.005,-0.02,0.01,-0.01,0.12,0.21,1000,1000,1000,1000,1000,1000,0,1500,1500,989,1500,4294967283,0.00,0.00,0.00,0.00,0.00,0.00,0.00,0.00,0.00,0.00,0.00,0.00
10896521,-0.005,0.001,1.002,-0.02,0.01,-0.02,0.09,0.24,1000,1000,1000,1000,1000,1000,0,1500,1500,989,1500,3987,0.00,0.00,0.00,0.00,0.00,0.00,0.00,0.00,0.00,0.00,0.00,0.00
10900521,-0.007,0.001,0.999,-0.00,0.00,-0.01,0.07,0.29,1000,1000,1000,1000,1000,1000,0,1500,1500,989,1500,4294967284,0.00,0.00,0.00,0.00,0.00,0.00,0.00,0.00,0.00,0.00,0.00,0.00
10904521,-0.007,-0.001,0.997,-0.01,0.02,-0.01,0.04,0.32,1000,1000,1000,1000,1000,1000,0,1500,1500,989,1500,4294967285,0.00,0.00,0.00,0.00,0.00,0.00,0.00,0.00,0.00,0.00,0.00,0.00
10908521,-0.006,-0.002,0.998,-0.00,0.03,-0.00,-0.00,0.32,1000,1000,1000,1000,1000,1000,0,1500,1500,989,1500,4294967284,0.00,0.00,0.00,0.00,0.00,0.00,0.00,0.00,0.00,0.00,0.00,0.00
10912521,-0.004,-0.002,1.000,-0.00,0.03,-0.00,-0.04,0.30,1000,1000,1000,1000,1000,1000,0,1500,1500,989,1500,4294967283,0.00,0.00,0.00,0.00,0.00,0.00,0.00,0.00,0.00,0.00,0.00,0.00
10916521,-0.003,-0.004,1.001,-0.01,0.03,0.00,-0.08,0.27,1000,1000,1000,1000,1000,1000,0,1500,1500,989,1500,4294967284,0.00,0.00,0.00,0.00,0.00,0.00,0.00,0.00,0.00,0.00,0.00,0.00
10920521,-0.003,-0.003,1.001,-0.01,0.03,-0.00,-0.11,0.24,1000,1000,1000,1000,1000,1000,0,1500,1500,989,1500,4294967285,0.00,0.00,0.00,0.00,0.00,0.00,0.00,0.00,0.00,0.00,0.00,0.00
10924521,-0.003,-0.002,0.997,0.00,0.03,0.00,-0.13,0.20,1000,1000,1000,1000,1000,1000,0,1500,1500,989,1500,4294967284,0.00,0.00,0.00,0.00,0.00,0.00,0.00,0.00,0.00,0.00,0.00,0.00
10928521,-0.002,-0.002,0.993,0.01,0.03,0.00,-0.11,0.16,1000,1000,1000,1000,1000,1000,0,1500,1500,989,1500,4294967283,0.00,0.00,0.00,0.00,0.00,0.00,0.00,0.00,0.00,0.00,0.00,0.00
10932521,-0.001,-0.000,0.990,0.00,0.03,0.01,-0.08,0.12,1000,1000,1000,1000,1000,1000,0,1500,1500,989,1500,4294967282,0.00,0.00,0.00,0.00,0.00,0.00,0.00,0.00,0.00,0.00,0.00,0.00
10936521,-0.000,-0.000,0.991,0.00,0.02,0.01,-0.05,0.09,1000,1000,1000,1000,1000,1000,0,1500,1500,989,1500,4294967285,0.00,0.00,0.00,0.00,0.00,0.00,0.00,0.00,0.00,0.00,0.00,0.00
10940521,-0.000,-0.000,0.993,0.01,0.02,0.02,-0.04,0.04,1000,1000,1000,1000,1000,1000,0,1500,1500,989,1500,4294967284,0.00,0.00,0.00,0.00,0.00,0.00,0.00,0.00,0.00,0.00,0.00,0.00
10944521,-0.000,-0.000,0.996,0.01,0.03,0.02,-0.01,0.01,1000,1000,1000,1000,1000,1000,0,1500,1500,989,1500,4294967283,0.00,0.00,0.00,0.00,0.00,0.00,0.00,0.00,0.00,0.00,0.00,0.00
10948521,-0.000,-0.001,0.999,0.01,0.03,0.02,-0.05,0.00,1000,1000,1000,1000,1000,1000,0,1500,1500,989,1500,4294967284,0.00,0.00,0.00,0.00,0.00,0.00,0.00,0.00,0.00,0.00,0.00,0.00
10952521,-0.001,0.000,1.000,-0.01,0.03,0.01,-0.02,0.04,1000,1000,1000,1000,1000,1000,0,1500,1500,989,1500,4294967285,0.00,0.00,0.00,0.00,0.00,0.00,0.00,0.00,0.00,0.00,0.00,0.00
10956521,-0.002,0.000,1.003,-0.02,0.01,0.01,0.00,0.08,1000,1000,1000,1000,1000,1000,0,1500,1500,989,1500,4294967284,0.00,0.00,0.00,0.00,0.00,0.00,0.00,0.00,0.00,0.00,0.00,0.00
10960521,-0.004,-0.001,1.004,-0.02,-0.01,-0.00,-0.01,0.12,1000,1000,1000,1000,1000,1000,0,1500,1500,989,1500,4294967283,0.00,0.00,0.00,0.00,0.00,0.00,0.00,0.00,0.00,0.00,0.00,0.00
10964521,-0.005,-0.002,1.003,-0.02,-0.02,0.00,-0.04,0.16,1000,1000,1000,1000,1000,1000,0,1500,1500,989,1500,4294967284,0.00,0.00,0.00,0.00,0.00,0.00,0.00,0.00,0.00,0.00,0.00,0.00
10968521,-0.005,-0.002,1.003,-0.00,-0.03,0.01,-0.06,0.20,1000,1000,1000,1000,1000,1000,0,1500,1500,989,1500,4294967285,0.00,0.00,0.00,0.00,0.00,0.00,0.00,0.00,0.00,0.00,0.00,0.00
10972521,-0.004,-0.002,1.002,-0.01,-0.02,0.01,-0.11,0.21,1000,1000,1000,1000,1000,1000,0,1500,1500,989,1500,4294967284,0.00,0.00,0.00,0.00,0.00,0.00,0.00,0.00,0.00,0.00,0.00,0.00
10976521,-0.001,-0.002,1.002,0.00,-0.00,-0.00,-0.11,0.16,1000,1000,1000,1000,1000,1000,0,1500,1500,989,1500,4294967283,0.00,0.00,0.00,0.00,0.00,0.00,0.00,0.00,0.00,0.00,0.00,0.00
10980521,0.000,-0.000,1.002,0.01,-0.00,-0.00,-0.09,0.12,1000,1000,1000,1000,1000,1000,0,1500,1500,989,1500,4294967284,0.00,0.00,0.00,0.00,0.00,0.00,0.00,0.00,0.00,0.00,0.00,0.00
10984521,0.003,0.001,1.000,0.04,0.00,-0.00,-0.07,0.08,1000,1000,1000,1000,1000,1000,0,1500,1500,989,1500,3988,0.00,0.00,0.00,0.00,0.00,0.00,0.00,0.00,0.00,0.00,0.00,0.00
10988521,0.004,0.002,1.000,0.05,-0.00,0.01,-0.05,0.04,1000,1000,1000,1000,1000,1000,0,1500,1500,989,1500,7988,0.00,0.00,0.00,0.00,0.00,0.00,0.00,0.00,0.00,0.00,0.00,0.00
10992521,0.005,0.003,1.000,0.04,0.00,0.02,-0.02,0.00,1000,1000,1000,1000,1000,1000,0,1500,1500,989,1500,4294967285,0.00,0.00,0.00,0.00,0.00,0.00,0.00,0.00,0.00,0.00,0.00,0.00
10996521,0.005,0.003,0.999,0.01,0.00,0.03,0.01,-0.03,1000,1000,1000,1000,1000,1000,0,1500,1500,989,1500,4294967284,0.00,0.00,0.00,0.00,0.00,0.00,0.00,0.00,0.00,0.00,0.00,0.00
11000521,0.004,0.003,1.000,0.00,0.01,0.03,0.04,-0.07,1000,1000,1000,1000,1000,1000,0,1500,1500,989,1500,4294967283,0.00,0.00,0.00,0.00,0.00,0.00,0.00,0.00,0.00,0.00,0.00,0.00
11004521,0.003,0.001,0.998,0.00,-0.00,0.02,0.05,-0.11,1000,1000,1000,1000,1000,1000,0,1500,1500,989,1500,4294967284,0.00,0.00,0.00,0.00,0.00,0.00,0.00,0.00,0.00,0.00,0.00,0.00
11008521,0.003,0.003,0.997,-0.01,0.01,0.01,0.09,-0.14,1000,1000,1000,1000,1000,1000,0,1500,1500,989,1500,4294967285,0.00,0.00,0.00,0.00,0.00,0.00,0.00,0.00,0.00,0.00,0.00,0.00
11012521,0.003,0.004,0.997,-0.01,0.02,-0.00,0.13,-0.15,1000,1000,1000,1000,1000,1000,0,1500,1500,989,1500,4294967284,0.00,0.00,0.00,0.00,0.00,0.00,0.00,0.00,0.00,0.00,0.00,0.00
11016521,0.003,0.003,0.995,-0.01,0.02,0.01,0.17,-0.17,1000,1000,1000,1000,1000,1000,0,1500,1500,989,1500,4294967283,0.00,0.00,0.00,0.00,0.00,0.00,0.00,0.00,0.00,0.00,0.00,0.00
11020521,0.003,0.002,0.994,-0.00,0.02,0.01,0.13,-0.16,1000,1000,1000,1000,1000,1000,0,1500,1500,989,1500,4294967284,0.00,0.00,0.00,0.00,0.00,0.00,0.00,0.00,0.00,0.00,0.00,0.00
11024521,0.003,0.001,0.994,-0.01,0.03,0.01,0.08,-0.16,1000,1000,1000,1000,1000,1000,0,1500,1500,989,1500,4294967285,0.00,0.00,0.00,0.00,0.00,0.00,0.00,0.00,0.00,0.00,0.00,0.00
11028521,0.002,-0.001,0.994,-0.02,0.03,0.01,0.04,-0.15,1000,1000,1000,1000,1000,1000,0,1500,1500,989,1500,4294967284,0.00,0.00,0.00,0.00,0.00,0.00,0.00,0.00,0.00,0.00,0.00,0.00
11032521,0.001,-0.002,0.995,-0.01,0.02,0.02,-0.00,-0.13,1000,1000,1000,1000,1000,1000,0,1500,1500,989,1500,4294967281,0.00,0.00,0.00,0.00,0.00,0.00,0.00,0.00,0.00,0.00,0.00,0.00
11036521,-0.001,-0.002,0.995,-0.01,0.02,0.02,-0.02,-0.09,1000,1000,1000,1000,1000,1000,0,1500,1500,989,1500,3985,0.00,0.00,0.00,0.00,0.00,0.00,0.00,0.00,0.00,0.00,0.00,0.00
11040521,-0.000,0.000,0.996,-0.00,0.02,0.02,-0.01,-0.05,1000,1000,1000,1000,1000,1000,0,1500,1500,989,1500,4294967284,0.00,0.00,0.00,0.00,0.00,0.00,0.00,0.00,0.00,0.00,0.00,0.00
11044521,-0.001,0.001,0.998,0.01,0.03,0.01,0.01,-0.00,1000,1000,1000,1000,1000,1000,0,1500,1500,989,1500,4294967285,0.00,0.00,0.00,0.00,0.00,0.00,0.00,0.00,0.00,0.00,0.00,0.00
11048521,-0.001,0.001,0.998,0.02,0.03,0.02,0.02,0.04,1000,1000,1000,1000,1000,1000,0,1500,1500,989,1500,4294967284,0.00,0.00,0.00,0.00,0.00,0.00,0.00,0.00,0.00,0.00,0.00,0.00
11052521,-0.002,-0.001,0.998,-0.00,0.02,0.01,-0.01,0.08,1000,1000,1000,1000,1000,1000,0,1500,1500,989,1500,4294967283,0.00,0.00,0.00,0.00,0.00,0.00,0.00,0.00,0.00,0.00,0.00,0.00
11056521,-0.002,-0.000,0.998,0.00,0.02,0.01,-0.02,0.12,1000,1000,1000,1000,1000,1000,0,1500,1500,989,1500,4294967284,0.00,0.00,0.00,0.00,0.00,0.00,0.00,0.00,0.00,0.00,0.00,0.00
11060521,-0.002,-0.000,0.999,0.01,-0.00,-0.00,0.02,0.10,1000,1000,1000,1000,1000,1000,0,1500,1500,989,1500,4294967285,0.00,0.00,0.00,0.00,0.00,0.00,0.00,0.00,0.00,0.00,0.00,0.00
11064521,-0.002,0.000,1.003,0.02,-0.00,-0.01,-0.02,0.07,1000,1000,1000,1000,1000,1000,0,1500,1500,989,1500,4294967284,0.00,0.00,0.00,0.00,0.00,0.00,0.00,0.00,0.00,0.00,0.00,0.00
11068521,-0.001,-0.001,1.003,0.02,0.01,-0.00,-0.06,0.05,1000,1000,1000,1000,1000,1000,0,1500,1500,989,1500,4294967283,0.00,0.00,0.00,0.00,0.00,0.00,0.00,0.00,0.00,0.00,0.00,0.00
11072521,-0.002,0.000,1.001,0.01,0.02,-0.01,-0.02,0.08,1000,1000,1000,1000,1000,1000,0,1500,1500,989,1500,4294967284,0.00,0.00,0.00,0.00,0.00,0.00,0.00,0.00,0.00,0.00,0.00,0.00
11076521,-0.002,0.001,0.999,-0.01,0.01,-0.01,0.02,0.08,1000,1000,1000,1000,1000,1000,0,1500,1500,989,1500,4294967285,0.00,0.00,0.00,0.00,0.00,0.00,0.00,0.00,0.00,0.00,0.00,0.00
11080521,-0.001,0.001,0.997,-0.02,0.00,-0.01,0.05,0.05,1000,1000,1000,1000,1000,1000,0,1500,1500,989,1500,4294967284,0.00,0.00,0.00,0.00,0.00,0.00,0.00,0.00,0.00,0.00,0.00,0.00
11084521,0.001,0.002,0.997,-0.03,-0.00,0.00,0.08,0.01,1000,1000,1000,1000,1000,1000,0,1500,1500,989,1500,4294967283,0.00,0.00,0.00,0.00,0.00,0.00,0.00,0.00,0.00,0.00,0.00,0.00
11088521,-0.000,0.001,0.997,-0.04,-0.01,-0.01,0.06,-0.03,1000,1000,1000,1000,1000,1000,0,1500,1500,989,1500,4294967284,0.00,0.00,0.00,0.00,0.00,0.00,0.00,0.00,0.00,0.00,0.00,0.00
11092521,-0.001,0.001,0.996,-0.04,0.00,-0.02,0.04,0.01,1000,1000,1000,1000,1000,1000,0,1500,1500,989,1500,4294967285,0.00,0.00,0.00,0.00,0.00,0.00,0.00,0.00,0.00,0.00,0.00,0.00
11096521,-0.002,0.000,0.996,-0.02,0.01,-0.02,0.03,0.06,1000,1000,1000,1000,1000,1000,0,1500,1500,989,1500,4294967284,0.00,0.00,0.00,0.00,0.00,0.00,0.00,0.00,0.00,0.00,0.00,0.00
11100521,-0.004,-0.000,0.997,-0.00,-0.00,-0.02,0.02,0.10,1000,1000,1000,1000,1000,1000,0,1500,1500,989,1500,3988,0.00,0.00,0.00,0.00,0.00,0.00,0.00,0.00,0.00,0.00,0.00,0.00
11104521,-0.005,-0.000,0.996,-0.01,-0.00,-0.00,0.01,0.15,1000,1000,1000,1000,1000,1000,0,1500,1500,989,1500,4294967283,0.00,0.00,0.00,0.00,0.00,0.00,0.00,0.00,0.00,0.00,0.00,0.00
11108521,-0.006,-0.001,0.996,-0.02,-0.01,-0.00,-0.01,0.19,1000,1000,1000,1000,1000,1000,0,1500,1500,989,1500,4294967284,0.00,0.00,0.00,0.00,0.00,0.00,0.00,0.00,0.00,0.00,0.00,0.00
11112521,-0.005,-0.001,0.996,-0.05,-0.01,0.01,-0.03,0.23,1000,1000,1000,1000,1000,1000,0,1500,1500,989,1500,4294967285,0.00,0.00,0.00,0.00,0.00,0.00,0.00,0.00,0.00,0.00,0.00,0.00
11116521,-0.005,-0.001,0.998,-0.05,-0.00,-0.01,-0.06,0.26,1000,1000,1000,1000,1000,1000,0,1500,1500,989,1500,4294967284,0.00,0.00,0.00,0.00,0.00,0.00,0.00,0.00,0.00,0.00,0.00,0.00
11120521,-0.004,-0.000,1.001,-0.04,0.01,-0.01,-0.03,0.24,1000,1000,1000,1000,1000,1000,0,1500,1500,989,1500,3988,0.00,0.00,0.00,0.00,0.00,0.00,0.00,0.00,0.00,0.00,0.00,0.00
11124521,-0.002,0.002,1.001,-0.05,0.02,-0.02,0.01,0.21,1000,1000,1000,1000,1000,1000,0,1500,1500,989,1500,4294967283,0.00,0.00,0.00,0.00,0.00,0.00,0.00,0.00,0.00,0.00,0.00,0.00
11128521,-0.002,0.003,1.000,-0.04,0.02,-0.01,0.05,0.18,1000,1000,1000,1000,1000,1000,0,1500,1500,989,1500,4294967284,0.00,0.00,0.00,0.00,0.00,0.00,0.00,0.00,0.00,0.00,0.00,0.00
11132521,-0.003,0.001,0.999,-0.02,0.03,0.00,0.09,0.20,1000,1000,1000,1000,1000,1000,0,1500,1500,989,1500,4294967285,0.00,0.00,0.00,0.00,0.00,0.00,0.00,0.00,0.00,0.00,0.00,0.00
11136521,-0.005,0.000,0.997,-0.02,0.01,0.01,0.06,0.23,1000,1000,1000,1000,1000,1000,0,1500,1500,989,1500,4294967283,0.00,0.00,0.00,0.00,0.00,0.00,0.00,0.00,0.00,0.00,0.00,0.00
11140521,-0.007,-0.001,0.997,-0.01,0.02,0.00,0.03,0.27,1000,1000,1000,1000,1000,1000,0,1500,1500,989,1500,4294967283,0.00,0.00,0.00,0.00,0.00,0.00,0.00,0.00,0.00,0.00,0.00,0.00
11144521,-0.008,-0.002,0.996,-0.01,0.00,0.01,0.00,0.30,1000,1000,1000,1000,1000,1000,0,1500,1500,989,1500,4294967284,0.00,0.00,0.00,0.00,0.00,0.00,0.00,0.00,0.00,0.00,0.00,0.00
11148521,-0.006,-0.002,0.996,-0.01,-0.03,0.01,-0.04,0.32,1000,1000,1000,1000,1000,1000,0,1500,1500,989,1500,4294967285,0.00,0.00,0.00,0.00,0.00,0.00,0.00,0.00,0.00,0.00,0.00,0.00
11152521,-0.004,-0.001,0.993,-0.00,-0.03,0.02,-0.06,0.28,1000,1000,1000,1000,1000,1000,0,1500,1500,989,1500,4294967284,0.00,0.00,0.00,0.00,0.00,0.00,0.00,0.00,0.00,0.00,0.00,0.00
11156521,-0.002,-0.001,0.991,-0.02,-0.00,-0.00,-0.06,0.24,1000,1000,1000,1000,1000,1000,0,1500,1500,989,1500,4294967283,0.00,0.00,0.00,0.00,0.00,0.00,0.00,0.00,0.00,0.00,0.00,0.00
11160521,-0.001,-0.001,0.993,-0.04,-0.00,0.00,-0.06,0.19,1000,1000,1000,1000,1000,1000,0,1500,1500,989,1500,4294967284,0.00,0.00,0.00,0.00,0.00,0.00,0.00,0.00,0.00,0.00,0.00,0.00
11164521,-0.002,-0.002,0.994,-0.05,0.01,0.02,-0.09,0.15,1000,1000,1000,1000,1000,1000,0,1500,1500,989,1500,4294967285,0.00,0.00,0.00,0.00,0.00,0.00,0.00,0.00,0.00,0.00,0.00,0.00
11168521,-0.003,-0.003,0.996,-0.05,-0.01,0.02,-0.13,0.16,1000,1000,1000,1000,1000,1000,0,1500,1500,989,1500,4294967284,0.00,0.00,0.00,0.00,0.00,0.00,0.00,0.00,0.00,0.00,0.00,0.00
11172521,-0.003,-0.003,0.996,-0.06,-0.02,0.02,-0.18,0.18,1000,1000,1000,1000,1000,1000,0,1500,1500,989,1500,4294967283,0.00,0.00,0.00,0.00,0.00,0.00,0.00,0.00,0.00,0.00,0.00,0.00
11176521,-0.003,-0.004,0.996,-0.04,-0.01,0.01,-0.22,0.18,1000,1000,1000,1000,1000,1000,0,1500,1500,989,1500,4294967284,0.00,0.00,0.00,0.00,0.00,0.00,0.00,0.00,0.00,0.00,0.00,0.00
11180521,-0.003,-0.003,0.996,-0.05,0.00,-0.00,-0.18,0.17,1000,1000,1000,1000,1000,1000,0,1500,1500,989,1500,4294967285,0.00,0.00,0.00,0.00,0.00,0.00,0.00,0.00,0.00,0.00,0.00,0.00
11184521,-0.002,-0.004,0.997,-0.04,-0.01,-0.00,-0.20,0.12,1000,1000,1000,1000,1000,1000,0,1500,1500,989,1500,4294967284,0.00,0.00,0.00,0.00,0.00,0.00,0.00,0.00,0.00,0.00,0.00,0.00
11188521,-0.001,-0.004,0.994,-0.04,-0.01,-0.00,-0.22,0.09,1000,1000,1000,1000,1000,1000,0,1500,1500,989,1500,4294967283,0.00,0.00,0.00,0.00,0.00,0.00,0.00,0.00,0.00,0.00,0.00,0.00
11192521,-0.002,-0.004,0.993,-0.03,-0.00,-0.00,-0.25,0.12,1000,1000,1000,1000,1000,1000,0,1500,1500,989,1500,4294967284,0.00,0.00,0.00,0.00,0.00,0.00,0.00,0.00,0.00,0.00,0.00,0.00
11196521,-0.001,-0.003,0.990,0.00,-0.01,-0.01,-0.21,0.10,1000,1000,1000,1000,1000,1000,0,1500,1500,989,1500,4294967285,0.00,0.00,0.00,0.00,0.00,0.00,0.00,0.00,0.00,0.00,0.00,0.00
11200521,-0.002,-0.002,0.991,-0.00,-0.00,-0.01,-0.17,0.12,1000,1000,1000,1000,1000,1000,0,1500,1500,989,1500,4294967284,0.00,0.00,0.00,0.00,0.00,0.00,0.00,0.00,0.00,0.00,0.00,0.00
11204521,-0.003,-0.002,0.992,0.00,0.01,-0.01,-0.14,0.16,1000,1000,1000,1000,1000,1000,0,1500,1500,989,1500,4294967283,0.00,0.00,0.00,0.00,0.00,0.00,0.00,0.00,0.00,0.00,0.00,0.00
11208521,-0.004,-0.000,0.994,0.01,0.01,-0.01,-0.10,0.18,1000,1000,1000,1000,1000,1000,0,1500,1500,989,1500,4294967284,0.00,0.00,0.00,0.00,0.00,0.00,0.00,0.00,0.00,0.00,0.00,0.00
11212521,-0.004,0.001,0.994,-0.01,0.02,-0.01,-0.05,0.19,1000,1000,1000,1000,1000,1000,0,1500,1500,989,1500,4294967285,0.00,0.00,0.00,0.00,0.00,0.00,0.00,0.00,0.00,0.00,0.00,0.00
11216521,-0.003,0.001,0.995,0.01,0.02,-0.01,-0.01,0.19,1000,1000,1000,1000,1000,1000,0,1500,1500,989,1500,4294967284,0.00,0.00,0.00,0.00,0.00,0.00,0.00,0.00,0.00,0.00,0.00,0.00
11220521,-0.002,-0.000,0.998,0.01,0.03,-0.01,-0.02,0.14,1000,1000,1000,1000,1000,1000,0,1500,1500,989,1500,4294967283,0.00,0.00,0.00,0.00,0.00,0.00,0.00,0.00,0.00,0.00,0.00,0.00
11224521,-0.000,-0.001,1.001,0.00,0.01,0.01,-0.03,0.10,1000,1000,1000,1000,1000,1000,0,1500,1500,989,1500,4294967284,0.00,0.00,0.00,0.00,0.00,0.00,0.00,0.00,0.00,0.00,0.00,0.00
11228521,0.001,-0.001,1.003,-0.00,0.01,0.01,-0.03,0.05,1000,1000,1000,1000,1000,1000,0,1500,1500,989,1500,4294967285,0.00,0.00,0.00,0.00,0.00,0.00,0.00,0.00,0.00,0.00,0.00,0.00
11232521,0.001,-0.000,1.004,-0.00,0.01,0.02,-0.03,0.01,1000,1000,1000,1000,1000,1000,0,1500,1500,989,1500,4294967284,0.00,0.00,0.00,0.00,0.00,0.00,0.00,0.00,0.00,0.00,0.00,0.00
11236521,0.001,-0.000,1.003,-0.01,0.01,0.01,-0.01,-0.03,1000,1000,1000,1000,1000,1000,0,1500,1500,989,1500,4294967281,0.00,0.00,0.00,0.00,0.00,0.00,0.00,0.00,0.00,0.00,0.00,0.00
11240521,0.002,-0.001,1.001,-0.01,0.01,0.01,-0.04,-0.07,1000,1000,1000,1000,1000,1000,0,1500,1500,989,1500,3985,0.00,0.00,0.00,0.00,0.00,0.00,0.00,0.00,0.00,0.00,0.00,0.00
11244521,0.003,-0.000,1.000,-0.01,0.00,0.01,-0.02,-0.12,1000,1000,1000,1000,1000,1000,0,1500,1500,989,1500,7985,0.00,0.00,0.00,0.00,0.00,0.00,0.00,0.00,0.00,0.00,0.00,0.00
11248521,0.003,0.000,0.999,0.00,0.01,0.02,0.01,-0.15,1000,1000,1000,1000,1000,1000,0,1500,1500,989,1500,4294967284,0.00,0.00,0.00,0.00,0.00,0.00,0.00,0.00,0.00,0.00,0.00,0.00
11252521,0.004,-0.000,0.998,0.00,0.02,0.01,-0.00,-0.20,1000,1000,1000,1000,1000,1000,0,1500,1500,989,1500,4294967285,0.00,0.00,0.00,0.00,0.00,0.00,0.00,0.00,0.00,0.00,0.00,0.00
11256521,0.007,0.010,0.973,0.00,0.04,0.01,0.04,-0.21,1000,1000,1000,1000,1000,1000,0,1500,1500,989,1500,4294967284,0.00,0.00,0.00,0.00,0.00,0.00,0.00,0.00,0.00,0.00,0.00,0.00
11260521,0.010,0.020,0.942,-0.03,0.01,0.01,0.08,-0.23,1000,1000,1000,1000,1000,1000,0,1500,1500,989,1500,4294967283,0.00,0.00,0.00,0.00,0.00,0.00,0.00,0.00,0.00,0.00,0.00,0.00
11264521,0.008,0.024,0.957,-0.00,-0.07,0.03,0.13,-0.24,1000,1000,1000,1000,1000,1000,0,1500,1500,989,1500,4294967284,0.00,0.00,0.00,0.00,0.00,0.00,0.00,0.00,0.00,0.00,0.00,0.00
11268521,0.002,0.026,0.991,-0.09,-0.09,0.01,0.18,-0.23,1000,1000,1000,1000,1000,1000,0,1500,1500,989,1500,4294967285,0.00,0.00,0.00,0.00,0.00,0.00,0.00,0.00,0.00,0.00,0.00,0.00
11272521,-0.006,0.016,1.017,-0.15,-0.09,-0.02,0.21,-0.21,1000,1000,1000,1000,1000,1000,0,1500,1500,989,1500,4294967284,0.00,0.00,0.00,0.00,0.00,0.00,0.00,0.00,0.00,0.00,0.00,0.00
11276521,-0.008,0.002,1.031,-0.11,-0.06,-0.04,0.20,-0.16,1000,1000,1000,1000,1000,1000,0,1500,1500,989,1500,4294967283,0.00,0.00,0.00,0.00,0.00,0.00,0.00,0.00,0.00,0.00,0.00,0.00
11280521,-0.003,-0.010,1.034,-0.07,-0.01,-0.05,0.16,-0.14,1000,1000,1000,1000,1000,1000,0,1500,1500,989,1500,4294967284,0.00,0.00,0.00,0.00,0.00,0.00,0.00,0.00,0.00,0.00,0.00,0.00
11284521,0.002,-0.020,1.020,-0.05,0.03,-0.07,0.12,-0.14,1000,1000,1000,1000,1000,1000,0,1500,1500,989,1500,4294967285,0.00,0.00,0.00,0.00,0.00,0.00,0.00,0.00,0.00,0.00,0.00,0.00
11288521,0.010,-0.022,0.998,-0.06,-0.00,-0.07,0.07,-0.16,1000,1000,1000,1000,1000,1000,0,1500,1500,989,1500,4294967284,0.00,0.00,0.00,0.00,0.00,0.00,0.00,0.00,0.00,0.00,0.00,0.00
11292521,0.016,-0.014,0.989,-0.09,-0.02,-0.05,0.04,-0.19,1000,1000,1000,1000,1000,1000,0,1500,1500,989,1500,4294967283,0.00,0.00,0.00,0.00,0.00,0.00,0.00,0.00,0.00,0.00,0.00,0.00
11296521,0.014,-0.002,1.000,-0.09,-0.05,-0.04,0.03,-0.23,1000,1000,1000,1000,1000,1000,0,1500,1500,989,1500,4294967284,0.00,0.00,0.00,0.00,0.00,0.00,0.00,0.00,0.00,0.00,0.00,0.00
11300521,0.008,0.011,1.008,-0.06,-0.05,-0.00,0.07,-0.25,1000,1000,1000,1000,1000,1000,0,1500,1500,989,1500,4294967285,0.00,0.00,0.00,0.00,0.00,0.00,0.00,0.00,0.00,0.00,0.00,0.00
11304521,-0.002,0.023,1.002,-0.02,-0.02,0.01,0.11,-0.24,1000,1000,1000,1000,1000,1000,0,1500,1500,989,1500,4294967284,0.00,0.00,0.00,0.00,0.00,0.00,0.00,0.00,0.00,0.00,0.00,0.00
11308521,-0.014,0.032,0.981,0.02,-0.01,0.03,0.15,-0.21,1000,1000,1000,1000,1000,1000,0,1500,1500,989,1500,4294967283,0.00,0.00,0.00,0.00,0.00,0.00,0.00,0.00,0.00,0.00,0.00,0.00
11312521,-0.019,0.033,0.964,0.03,0.00,0.04,0.19,-0.19,1000,1000,1000,1000,1000,1000,0,1500,1500,989,1500,4294967284,0.00,0.00,0.00,0.00,0.00,0.00,0.00,0.00,0.00,0.00,0.00,0.00
11316521,-0.016,0.029,0.966,-0.02,0.00,0.05,0.22,-0.16,1000,1000,1000,1000,1000,1000,0,1500,1500,989,1500,4294967285,0.00,0.00,0.00,0.00,0.00,0.00,0.00,0.00,0.00,0.00,0.00,0.00
11320521,-0.011,0.021,0.981,-0.09,-0.04,0.04,0.26,-0.13,1000,1000,1000,1000,1000,1000,0,1500,1500,989,1500,3989,0.00,0.00,0.00,0.00,0.00,0.00,0.00,0.00,0.00,0.00,0.00,0.00
11324521,-0.005,0.012,0.996,-0.16,-0.10,-0.00,0.29,-0.10,1000,1000,1000,1000,1000,1000,0,1500,1500,989,1500,4294967284,0.00,0.00,0.00,0.00,0.00,0.00,0.00,0.00,0.00,0.00,0.00,0.00
11328521,0.003,0.001,1.013,-0.17,-0.14,-0.04,0.25,-0.11,1000,1000,1000,1000,1000,1000,0,1500,1500,989,1500,3988,0.00,0.00,0.00,0.00,0.00,0.00,0.00,0.00,0.00,0.00,0.00,0.00
11332521,0.008,-0.010,1.031,-0.14,-0.11,-0.08,0.20,-0.13,1000,1000,1000,1000,1000,1000,0,1500,1500,989,1500,7988,0.00,0.00,0.00,0.00,0.00,0.00,0.00,0.00,0.00,0.00,0.00,0.00
11336521,0.013,-0.018,1.038,-0.09,-0.10,-0.10,0.16,-0.15,1000,1000,1000,1000,1000,1000,0,1500,1500,989,1500,4294967281,0.00,0.00,0.00,0.00,0.00,0.00,0.00,0.00,0.00,0.00,0.00,0.00
11340521,0.013,-0.022,1.034,-0.08,-0.11,-0.09,0.12,-0.17,1000,1000,1000,1000,1000,1000,0,1500,1500,989,1500,4294967284,0.00,0.00,0.00,0.00,0.00,0.00,0.00,0.00,0.00,0.00,0.00,0.00
11344521,0.008,-0.022,1.025,-0.06,-0.11,-0.07,0.08,-0.18,1000,1000,1000,1000,1000,1000,0,1500,1500,989,1500,4294967285,0.00,0.00,0.00,0.00,0.00,0.00,0.00,0.00,0.00,0.00,0.00,0.00
11348521,0.000,-0.013,1.017,-0.06,-0.10,-0.06,0.03,-0.17,1000,1000,1000,1000,1000,1000,0,1500,1500,989,1500,4294967284,0.00,0.00,0.00,0.00,0.00,0.00,0.00,0.00,0.00,0.00,0.00,0.00
11352521,-0.008,-0.005,1.017,-0.07,-0.06,-0.02,0.01,-0.13,1000,1000,1000,1000,1000,1000,0,1500,1500,989,1500,4294967283,0.00,0.00,0.00,0.00,0.00,0.00,0.00,0.00,0.00,0.00,0.00,0.00
11356521,-0.013,0.002,1.020,-0.05,-0.05,0.01,0.02,-0.08,1000,1000,1000,1000,1000,1000,0,1500,1500,989,1500,3987,0.00,0.00,0.00,0.00,0.00,0.00,0.00,0.00,0.00,0.00,0.00,0.00
11360521,-0.014,0.007,1.023,-0.03,-0.05,0.03,0.03,-0.04,1000,1000,1000,1000,1000,1000,0,1500,1500,989,1500,4294967284,0.00,0.00,0.00,0.00,0.00,0.00,0.00,0.00,0.00,0.00,0.00,0.00
11364521,-0.010,0.006,1.024,-0.03,-0.01,0.03,0.05,-0.00,1000,1000,1000,1000,1000,1000,0,1500,1500,989,1500,4294967285,0.00,0.00,0.00,0.00,0.00,0.00,0.00,0.00,0.00,0.00,0.00,0.00
11368521,-0.005,0.002,1.021,-0.03,-0.00,0.01,0.06,0.04,1000,1000,1000,1000,1000,1000,0,1500,1500,989,1500,4294967284,0.00,0.00,0.00,0.00,0.00,0.00,0.00,0.00,0.00,0.00,0.00,0.00
11372521,0.000,-0.003,1.012,-0.01,-0.02,-0.01,0.02,0.03,1000,1000,1000,1000,1000,1000,0,1500,1500,989,1500,4294967283,0.00,0.00,0.00,0.00,0.00,0.00,0.00,0.00,0.00,0.00,0.00,0.00
11376521,0.006,-0.007,1.000,-0.00,-0.03,-0.03,-0.02,0.00,1000,1000,1000,1000,1000,1000,0,1500,1500,989,1500,4294967284,0.00,0.00,0.00,0.00,0.00,0.00,0.00,0.00,0.00,0.00,0.00,0.00
11380521,0.009,-0.008,0.996,0.01,-0.03,-0.04,-0.05,-0.03,1000,1000,1000,1000,1000,1000,0,1500,1500,989,1500,4294967285,0.00,0.00,0.00,0.00,0.00,0.00,0.00,0.00,0.00,0.00,0.00,0.00
11384521,0.011,-0.009,0.999,-0.01,-0.04,-0.04,-0.08,-0.07,1000,1000,1000,1000,1000,1000,0,1500,1500,989,1500,4294967284,0.00,0.00,0.00,0.00,0.00,0.00,0.00,0.00,0.00,0.00,0.00,0.00
11388521,0.009,-0.007,1.004,-0.01,-0.05,-0.03,-0.10,-0.11,1000,1000,1000,1000,1000,1000,0,1500,1500,989,1500,4294967283,0.00,0.00,0.00,0.00,0.00,0.00,0.00,0.00,0.00,0.00,0.00,0.00
11392521,0.006,-0.007,1.006,-0.01,-0.05,0.00,-0.14,-0.14,1000,1000,1000,1000,1000,1000,0,1500,1500,989,1500,4294967284,0.00,0.00,0.00,0.00,0.00,0.00,0.00,0.00,0.00,0.00,0.00,0.00
11396521,0.003,-0.006,1.008,-0.02,-0.05,0.04,-0.18,-0.15,1000,1000,1000,1000,1000,1000,0,1500,1500,989,1500,4294967285,0.00,0.00,0.00,0.00,0.00,0.00,0.00,0.00,0.00,0.00,0.00,0.00
11400521,0.003,-0.007,1.009,-0.01,-0.03,0.04,-0.23,-0.15,1000,1000,1000,1000,1000,1000,0,1500,1500,989,1500,4294967284,0.00,0.00,0.00,0.00,0.00,0.00,0.00,0.00,0.00,0.00,0.00,0.00
11404521,0.004,-0.010,1.010,0.01,-0.02,0.04,-0.27,-0.16,1000,1000,1000,1000,1000,1000,0,1500,1500,989,1500,4294967283,0.00,0.00,0.00,0.00,0.00,0.00,0.00,0.00,0.00,0.00,0.00,0.00
11408521,0.003,-0.012,1.008,0.00,-0.01,0.02,-0.32,-0.16,1000,1000,1000,1000,1000,1000,0,1500,1500,989,1500,3987,0.00,0.00,0.00,0.00,0.00,0.00,0.00,0.00,0.00,0.00,0.00,0.00
11412521,0.006,-0.012,1.006,-0.00,-0.02,0.01,-0.36,-0.18,1000,1000,1000,1000,1000,1000,0,1500,1500,989,1500,4294967284,0.00,0.00,0.00,0.00,0.00,0.00,0.00,0.00,0.00,0.00,0.00,0.00
11416521,0.010,-0.011,1.005,0.02,-0.00,0.01,-0.39,-0.22,1000,1000,1000,1000,1000,1000,0,1500,1500,989,1500,4294967285,0.00,0.00,0.00,0.00,0.00,0.00,0.00,0.00,0.00,0.00,0.00,0.00
11420521,0.014,-0.008,1.005,0.05,0.01,0.00,-0.39,-0.27,1000,1000,1000,1000,1000,1000,0,1500,1500,989,1500,4294967284,0.00,0.00,0.00,0.00,0.00,0.00,0.00,0.00,0.00,0.00,0.00,0.00
11424521,0.016,-0.004,1.003,0.06,0.01,0.03,-0.38,-0.31,1000,1000,1000,1000,1000,1000,0,1500,1500,989,1500,4294967283,0.00,0.00,0.00,0.00,0.00,0.00,0.00,0.00,0.00,0.00,0.00,0.00
11428521,0.014,-0.003,0.998,0.07,0.03,0.03,-0.36,-0.35,1000,1000,1000,1000,1000,1000,0,1500,1500,989,1500,4294967284,0.00,0.00,0.00,0.00,0.00,0.00,0.00,0.00,0.00,0.00,0.00,0.00
11432521,0.008,-0.000,0.995,0.07,0.05,0.05,-0.32,-0.37,1000,1000,1000,1000,1000,1000,0,1500,1500,989,1500,4294967285,0.00,0.00,0.00,0.00,0.00,0.00,0.00,0.00,0.00,0.00,0.00,0.00
11436521,0.001,0.003,0.997,0.06,0.07,0.08,-0.28,-0.34,1000,1000,1000,1000,1000,1000,0,1500,1500,989,1500,4294967282,0.00,0.00,0.00,0.00,0.00,0.00,0.00,0.00,0.00,0.00,0.00,0.00
11440521,-0.008,0.005,0.996,0.06,0.08,0.09,-0.26,-0.31,1000,1000,1000,1000,1000,1000,0,1500,1500,989,1500,3986,0.00,0.00,0.00,0.00,0.00,0.00,0.00,0.00,0.00,0.00,0.00,0.00
11444521,-0.014,0.006,0.998,0.07,0.07,0.07,-0.23,-0.27,1000,1000,1000,1000,1000,1000,0,1500,1500,989,1500,7986,0.00,0.00,0.00,0.00,0.00,0.00,0.00,0.00,0.00,0.00,0.00,0.00
11448521,-0.018,0.009,1.003,0.04,0.09,0.06,-0.21,-0.23,1000,1000,1000,1000,1000,1000,0,1500,1500,989,1500,4294967283,0.00,0.00,0.00,0.00,0.00,0.00,0.00,0.00,0.00,0.00,0.00,0.00
11452521,-0.019,0.010,1.006,0.02,0.09,0.03,-0.19,-0.19,1000,1000,1000,1000,1000,1000,0,1500,1500,989,1500,4294967284,0.00,0.00,0.00,0.00,0.00,0.00,0.00,0.00,0.00,0.00,0.00,0.00
11456521,-0.014,0.009,1.007,0.02,0.08,0.00,-0.16,-0.15,1000,1000,1000,1000,1000,1000,0,1500,1500,989,1500,4294967285,0.00,0.00,0.00,0.00,0.00,0.00,0.00,0.00,0.00,0.00,0.00,0.00
11460521,-0.008,0.008,1.004,0.03,0.04,-0.04,-0.13,-0.12,1000,1000,1000,1000,1000,1000,0,1500,1500,989,1500,4294967284,0.00,0.00,0.00,0.00,0.00,0.00,0.00,0.00,0.00,0.00,0.00,0.00
11464521,-0.001,0.004,0.996,0.02,0.01,-0.06,-0.09,-0.09,1000,1000,1000,1000,1000,1000,0,1500,1500,989,1500,4294967283,0.00,0.00,0.00,0.00,0.00,0.00,0.00,0.00,0.00,0.00,0.00,0.00
11468521,0.003,0.003,0.986,0.04,0.00,-0.07,-0.04,-0.11,1000,1000,1000,1000,1000,1000,0,1500,1500,989,1500,4294967284,0.00,0.00,0.00,0.00,0.00,0.00,0.00,0.00,0.00,0.00,0.00,0.00
11472521,0.006,-0.000,0.974,0.01,0.02,-0.06,-0.04,-0.15,1000,1000,1000,1000,1000,1000,0,1500,1500,989,1500,3988,0.00,0.00,0.00,0.00,0.00,0.00,0.00,0.00,0.00,0.00,0.00,0.00
11476521,0.007,-0.000,0.967,-0.01,0.03,-0.02,-0.03,-0.20,1000,1000,1000,1000,1000,1000,0,1500,1500,989,1500,4294967285,0.00,0.00,0.00,0.00,0.00,0.00,0.00,0.00,0.00,0.00,0.00,0.00
