t_us,ax_g,ay_g,az_g,gx_dps,gy_dps,gz_dps,roll_deg,pitch_deg,throttle_us,motor_us,m1,m2,m3,m4,mode,rc_roll,rc_pitch,rc_throttle,rc_yaw,rc_age_us,att_sp_roll,att_sp_pitch,att_sp_yaw,rate_sp_roll,rate_sp_pitch,rate_sp_yaw,rate_meas_roll,rate_meas_pitch,rate_meas_yaw,rate_out_roll,rate_out_pitch,rate_out_yaw
7748520,-0.001,0.000,1.005,-0.02,-0.00,-0.01,-0.02,-0.07,1000,1000,1000,1000,1000,1000,0,1500,1500,989,1500,4294967284,0.00,0.00,0.00,0.00,0.00,0.00,0.00,0.00,0.00,0.00,0.00,0.00
7752520,-0.001,-0.002,1.006,-0.00,-0.01,-0.00,-0.05,-0.04,1000,1000,1000,1000,1000,1000,0,1500,1500,989,1500,4294967283,0.00,0.00,0.00,0.00,0.00,0.00,0.00,0.00,0.00,0.00,0.00,0.00
7756520,-0.001,-0.003,1.007,-0.01,-0.02,-0.00,-0.08,-0.01,1000,1000,1000,1000,1000,1000,0,1500,1500,989,1500,4294967284,0.00,0.00,0.00,0.00,0.00,0.00,0.00,0.00,0.00,0.00,0.00,0.00
7760520,-0.000,-0.003,1.005,-0.01,-0.01,0.01,-0.13,0.00,1000,1000,1000,1000,1000,1000,0,1500,1500,989,1500,3988,0.00,0.00,0.00,0.00,0.00,0.00,0.00,0.00,0.00,0.00,0.00,0.00
7764520,0.000,-0.003,1.005,-0.02,-0.00,-0.00,-0.16,-0.03,1000,1000,1000,1000,1000,1000,0,1500,1500,989,1500,4294967285,0.00,0.00,0.00,0.00,0.00,0.00,0.00,0.00,0.00,0.00,0.00,0.00
7768520,-0.000,-0.002,1.005,-0.03,0.01,0.01,-0.14,0.01,1000,1000,1000,1000,1000,1000,0,1500,1500,989,1500,4294967284,0.00,0.00,0.00,0.00,0.00,0.00,0.00,0.00,0.00,0.00,0.00,0.00
7772520,-0.001,-0.003,1.007,-0.02,0.01,0.01,-0.15,0.06,1000,1000,1000,1000,1000,1000,0,1500,1500,989,1500,3988,0.00,0.00,0.00,0.00,0.00,0.00,0.00,0.00,0.00,0.00,0.00,0.00
7776520,-0.002,-0.001,1.006,-0.01,0.01,0.01,-0.10,0.08,1000,1000,1000,1000,1000,1000,0,1500,1500,989,1500,4294967283,0.00,0.00,0.00,0.00,0.00,0.00,0.00,0.00,0.00,0.00,0.00,0.00
7780520,-0.001,0.001,1.005,-0.00,0.01,0.00,-0.06,0.08,1000,1000,1000,1000,1000,1000,0,1500,1500,989,1500,4294967284,0.00,0.00,0.00,0.00,0.00,0.00,0.00,0.00,0.00,0.00,0.00,0.00
7784520,-0.001,0.000,1.002,0.00,0.03,0.00,-0.01,0.08,1000,1000,1000,1000,1000,1000,0,1500,1500,989,1500,4294967285,0.00,0.00,0.00,0.00,0.00,0.00,0.00,0.00,0.00,0.00,0.00,0.00
7788520,0.000,-0.001,1.003,-0.02,0.03,-0.02,-0.04,0.04,1000,1000,1000,1000,1000,1000,0,1500,1500,989,1500,4294967284,0.00,0.00,0.00,0.00,0.00,0.00,0.00,0.00,0.00,0.00,0.00,0.00
7792520,0.001,-0.002,1.002,-0.02,0.03,-0.02,-0.07,0.01,1000,1000,1000,1000,1000,1000,0,1500,1500,989,1500,4294967282,0.00,0.00,0.00,0.00,0.00,0.00,0.00,0.00,0.00,0.00,0.00,0.00
7796520,0.003,-0.004,1.002,-0.05,0.01,-0.01,-0.10,-0.03,1000,1000,1000,1000,1000,1000,0,1500,1500,989,1500,4294967284,0.00,0.00,0.00,0.00,0.00,0.00,0.00,0.00,0.00,0.00,0.00,0.00
7800520,0.004,-0.003,1.005,-0.04,0.00,0.00,-0.12,-0.07,1000,1000,1000,1000,1000,1000,0,1500,1500,989,1500,4294967285,0.00,0.00,0.00,0.00,0.00,0.00,0.00,0.00,0.00,0.00,0.00,0.00
7804520,0.004,-0.004,1.006,-0.04,-0.00,0.01,-0.15,-0.10,1000,1000,1000,1000,1000,1000,0,1500,1500,989,1500,4294967284,0.00,0.00,0.00,0.00,0.00,0.00,0.00,0.00,0.00,0.00,0.00,0.00
7808520,0.005,-0.005,1.004,-0.04,-0.01,0.01,-0.18,-0.14,1000,1000,1000,1000,1000,1000,0,1500,1500,989,1500,4294967283,0.00,0.00,0.00,0.00,0.00,0.00,0.00,0.00,0.00,0.00,0.00,0.00
7812520,0.003,-0.004,1.004,-0.04,-0.01,0.01,-0.22,-0.16,1000,1000,1000,1000,1000,1000,0,1500,1500,989,1500,4294967284,0.00,0.00,0.00,0.00,0.00,0.00,0.00,0.00,0.00,0.00,0.00,0.00
7816520,0.002,-0.004,1.004,-0.03,-0.01,0.02,-0.20,-0.12,1000,1000,1000,1000,1000,1000,0,1500,1500,989,1500,4294967285,0.00,0.00,0.00,0.00,0.00,0.00,0.00,0.00,0.00,0.00,0.00,0.00
7820520,0.002,-0.003,1.002,-0.02,-0.02,0.01,-0.16,-0.14,1000,1000,1000,1000,1000,1000,0,1500,1500,989,1500,4294967284,0.00,0.00,0.00,0.00,0.00,0.00,0.00,0.00,0.00,0.00,0.00,0.00
7824520,0.001,-0.004,1.001,-0.00,-0.02,0.01,-0.19,-0.11,1000,1000,1000,1000,1000,1000,0,1500,1500,989,1500,4294967283,0.00,0.00,0.00,0.00,0.00,0.00,0.00,0.00,0.00,0.00,0.00,0.00
7828520,0.002,-0.004,0.999,-0.00,-0.02,0.02,-0.22,-0.15,1000,1000,1000,1000,1000,1000,0,1500,1500,989,1500,4294967284,0.00,0.00,0.00,0.00,0.00,0.00,0.00,0.00,0.00,0.00,0.00,0.00
7832520,0.002,-0.003,0.999,-0.01,-0.01,0.01,-0.18,-0.12,1000,1000,1000,1000,1000,1000,0,1500,1500,989,1500,4294967285,0.00,0.00,0.00,0.00,0.00,0.00,0.00,0.00,0.00,0.00,0.00,0.00
7836520,0.002,-0.002,0.997,-0.01,0.01,0.00,-0.14,-0.13,1000,1000,1000,1000,1000,1000,0,1500,1500,989,1500,4294967284,0.00,0.00,0.00,0.00,0.00,0.00,0.00,0.00,0.00,0.00,0.00,0.00
7840520,0.002,-0.000,0.999,-0.03,0.02,0.02,-0.09,-0.13,1000,1000,1000,1000,1000,1000,0,1500,1500,989,1500,4294967283,0.00,0.00,0.00,0.00,0.00,0.00,0.00,0.00,0.00,0.00,0.00,0.00
7844520,0.003,-0.000,0.999,-0.02,-0.00,0.02,-0.05,-0.14,1000,1000,1000,1000,1000,1000,0,1500,1500,989,1500,4294967284,0.00,0.00,0.00,0.00,0.00,0.00,0.00,0.00,0.00,0.00,0.00,0.00
7848520,0.003,0.001,1.000,-0.02,-0.02,0.02,-0.01,-0.16,1000,1000,1000,1000,1000,1000,0,1500,1500,989,1500,4294967285,0.00,0.00,0.00,0.00,0.00,0.00,0.00,0.00,0.00,0.00,0.00,0.00
7852520,0.005,0.001,1.002,-0.02,-0.03,0.01,0.02,-0.19,1000,1000,1000,1000,1000,1000,0,1500,1500,989,1500,4294967284,0.00,0.00,0.00,0.00,0.00,0.00,0.00,0.00,0.00,0.00,0.00,0.00
7856520,0.006,0.002,1.002,-0.02,-0.02,0.01,0.04,-0.23,1000,1000,1000,1000,1000,1000,0,1500,1500,989,1500,4294967283,0.00,0.00,0.00,0.00,0.00,0.00,0.00,0.00,0.00,0.00,0.00,0.00
7860520,0.007,0.003,1.000,-0.02,-0.03,-0.01,0.07,-0.27,1000,1000,1000,1000,1000,1000,0,1500,1500,989,1500,4294967284,0.00,0.00,0.00,0.00,0.00,0.00,0.00,0.00,0.00,0.00,0.00,0.00
7864520,0.006,0.004,1.000,-0.01,-0.04,-0.00,0.11,-0.28,1000,1000,1000,1000,1000,1000,0,1500,1500,989,1500,4294967285,0.00,0.00,0.00,0.00,0.00,0.00,0.00,0.00,0.00,0.00,0.00,0.00
7868520,0.004,0.004,0.999,0.00,-0.03,-0.01,0.16,-0.27,1000,1000,1000,1000,1000,1000,0,1500,1500,989,1500,4294967284,0.00,0.00,0.00,0.00,0.00,0.00,0.00,0.00,0.00,0.00,0.00,0.00
7872520,0.003,0.004,0.999,-0.00,-0.01,-0.03,0.17,-0.22,1000,1000,1000,1000,1000,1000,0,1500,1500,989,1500,4294967283,0.00,0.00,0.00,0.00,0.00,0.00,0.00,0.00,0.00,0.00,0.00,0.00
7876520,0.002,0.004,1.000,-0.03,-0.01,-0.03,0.19,-0.18,1000,1000,1000,1000,1000,1000,0,1500,1500,989,1500,4294967284,0.00,0.00,0.00,0.00,0.00,0.00,0.00,0.00,0.00,0.00,0.00,0.00
7880520,0.001,0.002,0.999,-0.05,-0.03,-0.03,0.17,-0.14,1000,1000,1000,1000,1000,1000,0,1500,1500,989,1500,4294967285,0.00,0.00,0.00,0.00,0.00,0.00,0.00,0.00,0.00,0.00,0.00,0.00
7884520,0.001,-0.000,0.999,-0.06,-0.04,-0.02,0.13,-0.12,1000,1000,1000,1000,1000,1000,0,1500,1500,989,1500,4294967284,0.00,0.00,0.00,0.00,0.00,0.00,0.00,0.00,0.00,0.00,0.00,0.00
7888520,0.002,-0.001,1.000,-0.05,-0.03,-0.00,0.08,-0.13,1000,1000,1000,1000,1000,1000,0,1500,1500,989,1500,4294967283,0.00,0.00,0.00,0.00,0.00,0.00,0.00,0.00,0.00,0.00,0.00,0.00
7892520,0.002,-0.001,1.002,-0.05,-0.02,0.01,0.04,-0.12,1000,1000,1000,1000,1000,1000,0,1500,1500,989,1500,4294967282,0.00,0.00,0.00,0.00,0.00,0.00,0.00,0.00,0.00,0.00,0.00,0.00
7896520,0.002,-0.000,1.001,-0.04,-0.01,0.00,-0.01,-0.13,1000,1000,1000,1000,1000,1000,0,1500,1500,989,1500,4294967285,0.00,0.00,0.00,0.00,0.00,0.00,0.00,0.00,0.00,0.00,0.00,0.00
7900520,0.002,-0.000,0.998,-0.03,-0.03,-0.01,0.00,-0.17,1000,1000,1000,1000,1000,1000,0,1500,1500,989,1500,4294967284,0.00,0.00,0.00,0.00,0.00,0.00,0.00,0.00,0.00,0.00,0.00,0.00
7904520,0.002,-0.002,0.998,-0.02,-0.03,-0.02,-0.04,-0.14,1000,1000,1000,1000,1000,1000,0,1500,1500,989,1500,4294967283,0.00,0.00,0.00,0.00,0.00,0.00,0.00,0.00,0.00,0.00,0.00,0.00
7908520,0.003,-0.004,0.999,-0.00,-0.03,-0.03,-0.08,-0.15,1000,1000,1000,1000,1000,1000,0,1500,1500,989,1500,4294967284,0.00,0.00,0.00,0.00,0.00,0.00,0.00,0.00,0.00,0.00,0.00,0.00
7912520,0.003,-0.003,1.000,0.01,-0.01,-0.03,-0.12,-0.17,1000,1000,1000,1000,1000,1000,0,1500,1500,989,1500,4294967285,0.00,0.00,0.00,0.00,0.00,0.00,0.00,0.00,0.00,0.00,0.00,0.00
7916520,0.002,-0.003,1.001,0.00,0.00,-0.04,-0.16,-0.14,1000,1000,1000,1000,1000,1000,0,1500,1500,989,1500,4294967284,0.00,0.00,0.00,0.00,0.00,0.00,0.00,0.00,0.00,0.00,0.00,0.00
7920520,0.002,-0.002,1.001,-0.01,-0.01,-0.03,-0.12,-0.13,1000,1000,1000,1000,1000,1000,0,1500,1500,989,1500,4294967283,0.00,0.00,0.00,0.00,0.00,0.00,0.00,0.00,0.00,0.00,0.00,0.00
7924520,0.001,-0.001,1.000,-0.02,-0.00,-0.02,-0.10,-0.09,1000,1000,1000,1000,1000,1000,0,1500,1500,989,1500,4294967284,0.00,0.00,0.00,0.00,0.00,0.00,0.00,0.00,0.00,0.00,0.00,0.00
7928520,0.001,-0.000,1.001,-0.02,-0.01,-0.01,-0.06,-0.07,1000,1000,1000,1000,1000,1000,0,1500,1500,989,1500,4294967285,0.00,0.00,0.00,0.00,0.00,0.00,0.00,0.00,0.00,0.00,0.00,0.00
7932520,0.002,-0.000,1.001,-0.02,-0.00,-0.02,-0.03,-0.10,1000,1000,1000,1000,1000,1000,0,1500,1500,989,1500,4294967284,0.00,0.00,0.00,0.00,0.00,0.00,0.00,0.00,0.00,0.00,0.00,0.00
7936520,0.003,-0.001,0.999,-0.02,-0.00,-0.01,-0.04,-0.15,1000,1000,1000,1000,1000,1000,0,1500,1500,989,1500,4294967283,0.00,0.00,0.00,0.00,0.00,0.00,0.00,0.00,0.00,0.00,0.00,0.00
7940520,0.004,-0.001,0.996,-0.03,0.01,0.00,-0.05,-0.19,1000,1000,1000,1000,1000,1000,0,1500,1500,989,1500,4294967284,0.00,0.00,0.00,0.00,0.00,0.00,0.00,0.00,0.00,0.00,0.00,0.00
7944520,0.004,-0.001,0.996,-0.02,0.02,0.01,-0.07,-0.23,1000,1000,1000,1000,1000,1000,0,1500,1500,989,1500,4294967285,0.00,0.00,0.00,0.00,0.00,0.00,0.00,0.00,0.00,0.00,0.00,0.00
7948520,0.006,-0.001,0.997,-0.01,0.01,0.00,-0.07,-0.28,1000,1000,1000,1000,1000,1000,0,1500,1500,989,1500,4294967284,0.00,0.00,0.00,0.00,0.00,0.00,0.00,0.00,0.00,0.00,0.00,0.00
7952520,0.006,-0.001,0.998,0.01,0.01,0.01,-0.07,-0.33,1000,1000,1000,1000,1000,1000,0,1500,1500,989,1500,4294967283,0.00,0.00,0.00,0.00,0.00,0.00,0.00,0.00,0.00,0.00,0.00,0.00
7956520,0.005,-0.002,0.998,0.00,0.01,0.01,-0.11,-0.31,1000,1000,1000,1000,1000,1000,0,1500,1500,989,1500,4294967284,0.00,0.00,0.00,0.00,0.00,0.00,0.00,0.00,0.00,0.00,0.00,0.00
7960520,0.004,-0.001,0.998,-0.01,-0.00,0.01,-0.09,-0.27,1000,1000,1000,1000,1000,1000,0,1500,1500,989,1500,4294967285,0.00,0.00,0.00,0.00,0.00,0.00,0.00,0.00,0.00,0.00,0.00,0.00
7964520,0.002,-0.003,0.997,-0.04,-0.02,0.02,-0.11,-0.23,1000,1000,1000,1000,1000,1000,0,1500,1500,989,1500,4294967284,0.00,0.00,0.00,0.00,0.00,0.00,0.00,0.00,0.00,0.00,0.00,0.00
7968520,0.001,-0.001,0.997,-0.06,-0.03,0.01,-0.10,-0.18,1000,1000,1000,1000,1000,1000,0,1500,1500,989,1500,3988,0.00,0.00,0.00,0.00,0.00,0.00,0.00,0.00,0.00,0.00,0.00,0.00
7972520,0.002,-0.002,0.999,-0.05,-0.04,-0.01,-0.11,-0.14,1000,1000,1000,1000,1000,1000,0,1500,1500,989,1500,7988,0.00,0.00,0.00,0.00,0.00,0.00,0.00,0.00,0.00,0.00,0.00,0.00
7976520,0.001,-0.001,0.998,-0.04,-0.02,-0.01,-0.09,-0.09,1000,1000,1000,1000,1000,1000,0,1500,1500,989,1500,4294967283,0.00,0.00,0.00,0.00,0.00,0.00,0.00,0.00,0.00,0.00,0.00,0.00
7980520,0.002,-0.001,0.999,-0.03,-0.02,0.00,-0.06,-0.12,1000,1000,1000,1000,1000,1000,0,1500,1500,989,1500,4294967284,0.00,0.00,0.00,0.00,0.00,0.00,0.00,0.00,0.00,0.00,0.00,0.00
7984520,0.002,-0.001,1.000,-0.04,-0.03,0.01,-0.10,-0.13,1000,1000,1000,1000,1000,1000,0,1500,1500,989,1500,4294967285,0.00,0.00,0.00,0.00,0.00,0.00,0.00,0.00,0.00,0.00,0.00,0.00
7988520,0.002,-0.000,0.999,-0.04,-0.02,0.00,-0.06,-0.14,1000,1000,1000,1000,1000,1000,0,1500,1500,989,1500,4294967284,0.00,0.00,0.00,0.00,0.00,0.00,0.00,0.00,0.00,0.00,0.00,0.00
7992520,0.003,0.000,1.000,-0.03,0.00,-0.01,-0.02,-0.17,1000,1000,1000,1000,1000,1000,0,1500,1500,989,1500,4294967281,0.00,0.00,0.00,0.00,0.00,0.00,0.00,0.00,0.00,0.00,0.00,0.00
7996520,0.004,0.000,1.000,-0.02,-0.00,-0.02,0.00,-0.21,1000,1000,1000,1000,1000,1000,0,1500,1500,989,1500,4294967284,0.00,0.00,0.00,0.00,0.00,0.00,0.00,0.00,0.00,0.00,0.00,0.00
8000520,0.003,-0.000,0.999,-0.02,-0.02,-0.02,-0.04,-0.18,1000,1000,1000,1000,1000,1000,0,1500,1500,989,1500,4294967285,0.00,0.00,0.00,0.00,0.00,0.00,0.00,0.00,0.00,0.00,0.00,0.00
8004520,0.001,-0.000,0.998,-0.02,-0.02,-0.01,-0.02,-0.14,1000,1000,1000,1000,1000,1000,0,1500,1500,989,1500,4294967284,0.00,0.00,0.00,0.00,0.00,0.00,0.00,0.00,0.00,0.00,0.00,0.00
8008520,0.000,0.002,0.999,-0.01,-0.03,-0.01,0.01,-0.11,1000,1000,1000,1000,1000,1000,0,1500,1500,989,1500,4294967283,0.00,0.00,0.00,0.00,0.00,0.00,0.00,0.00,0.00,0.00,0.00,0.00
8012520,-0.000,0.002,0.999,-0.02,-0.02,-0.00,0.04,-0.07,1000,1000,1000,1000,1000,1000,0,1500,1500,989,1500,4294967284,0.00,0.00,0.00,0.00,0.00,0.00,0.00,0.00,0.00,0.00,0.00,0.00
8016520,-0.000,0.001,0.999,-0.03,-0.02,-0.01,0.06,-0.03,1000,1000,1000,1000,1000,1000,0,1500,1500,989,1500,4294967285,0.00,0.00,0.00,0.00,0.00,0.00,0.00,0.00,0.00,0.00,0.00,0.00
8020520,-0.000,0.002,0.999,-0.03,-0.01,-0.02,0.08,0.00,1000,1000,1000,1000,1000,1000,0,1500,1500,989,1500,4294967284,0.00,0.00,0.00,0.00,0.00,0.00,0.00,0.00,0.00,0.00,0.00,0.00
8024520,0.001,0.001,0.999,-0.03,-0.03,-0.01,0.06,-0.03,1000,1000,1000,1000,1000,1000,0,1500,1500,989,1500,4294967283,0.00,0.00,0.00,0.00,0.00,0.00,0.00,0.00,0.00,0.00,0.00,0.00
8028520,0.001,0.002,1.002,-0.02,-0.01,-0.00,0.10,-0.06,1000,1000,1000,1000,1000,1000,0,1500,1500,989,1500,4294967284,0.00,0.00,0.00,0.00,0.00,0.00,0.00,0.00,0.00,0.00,0.00,0.00
8032520,0.003,0.002,1.003,-0.01,-0.01,-0.01,0.10,-0.10,1000,1000,1000,1000,1000,1000,0,1500,1500,989,1500,4294967285,0.00,0.00,0.00,0.00,0.00,0.00,0.00,0.00,0.00,0.00,0.00,0.00
8036520,0.004,0.003,1.003,-0.01,-0.00,-0.02,0.12,-0.14,1000,1000,1000,1000,1000,1000,0,1500,1500,989,1500,4294967284,0.00,0.00,0.00,0.00,0.00,0.00,0.00,0.00,0.00,0.00,0.00,0.00
8040520,0.002,0.002,0.999,-0.02,-0.01,-0.01,0.16,-0.13,1000,1000,1000,1000,1000,1000,0,1500,1500,989,1500,4294967283,0.00,0.00,0.00,0.00,0.00,0.00,0.00,0.00,0.00,0.00,0.00,0.00
8044520,-0.000,0.002,0.998,-0.02,-0.00,-0.01,0.14,-0.08,1000,1000,1000,1000,1000,1000,0,1500,1500,989,1500,4294967284,0.00,0.00,0.00,0.00,0.00,0.00,0.00,0.00,0.00,0.00,0.00,0.00
8048520,-0.002,0.001,0.997,-0.03,-0.00,-0.00,0.12,-0.04,1000,1000,1000,1000,1000,1000,0,1500,1500,989,1500,4294967285,0.00,0.00,0.00,0.00,0.00,0.00,0.00,0.00,0.00,0.00,0.00,0.00
8052520,-0.004,-0.000,0.997,-0.03,0.00,0.00,0.10,-0.00,1000,1000,1000,1000,1000,1000,0,1500,1500,989,1500,4294967284,0.00,0.00,0.00,0.00,0.00,0.00,0.00,0.00,0.00,0.00,0.00,0.00
8056520,-0.004,-0.001,0.996,-0.02,-0.01,0.00,0.08,0.04,1000,1000,1000,1000,1000,1000,0,1500,1500,989,1500,4294967283,0.00,0.00,0.00,0.00,0.00,0.00,0.00,0.00,0.00,0.00,0.00,0.00
8060520,-0.005,-0.002,0.996,-0.02,-0.01,0.00,0.05,0.08,1000,1000,1000,1000,1000,1000,0,1500,1500,989,1500,4294967284,0.00,0.00,0.00,0.00,0.00,0.00,0.00,0.00,0.00,0.00,0.00,0.00
8064520,-0.006,-0.002,0.997,-0.04,-0.00,-0.00,0.03,0.12,1000,1000,1000,1000,1000,1000,0,1500,1500,989,1500,3988,0.00,0.00,0.00,0.00,0.00,0.00,0.00,0.00,0.00,0.00,0.00,0.00
8068520,-0.005,-0.002,0.997,-0.05,-0.01,-0.00,0.00,0.15,1000,1000,1000,1000,1000,1000,0,1500,1500,989,1500,4294967284,0.00,0.00,0.00,0.00,0.00,0.00,0.00,0.00,0.00,0.00,0.00,0.00
8072520,-0.005,-0.001,0.997,-0.05,-0.02,-0.01,-0.01,0.20,1000,1000,1000,1000,1000,1000,0,1500,1500,989,1500,4294967284,0.00,0.00,0.00,0.00,0.00,0.00,0.00,0.00,0.00,0.00,0.00,0.00
8076520,-0.004,-0.001,0.998,-0.03,-0.04,-0.01,-0.03,0.24,1000,1000,1000,1000,1000,1000,0,1500,1500,989,1500,4294967283,0.00,0.00,0.00,0.00,0.00,0.00,0.00,0.00,0.00,0.00,0.00,0.00
8080520,-0.005,0.001,1.000,-0.02,-0.02,-0.01,0.00,0.27,1000,1000,1000,1000,1000,1000,0,1500,1500,989,1500,4294967284,0.00,0.00,0.00,0.00,0.00,0.00,0.00,0.00,0.00,0.00,0.00,0.00
8084520,-0.004,0.002,0.999,-0.02,-0.01,-0.02,0.04,0.26,1000,1000,1000,1000,1000,1000,0,1500,1500,989,1500,4294967285,0.00,0.00,0.00,0.00,0.00,0.00,0.00,0.00,0.00,0.00,0.00,0.00
8088520,-0.002,0.003,1.000,-0.02,0.01,-0.02,0.08,0.22,1000,1000,1000,1000,1000,1000,0,1500,1500,989,1500,4294967284,0.00,0.00,0.00,0.00,0.00,0.00,0.00,0.00,0.00,0.00,0.00,0.00
8092520,-0.001,0.004,1.001,-0.03,0.00,-0.02,0.11,0.19,1000,1000,1000,1000,1000,1000,0,1500,1500,989,1500,4294967281,0.00,0.00,0.00,0.00,0.00,0.00,0.00,0.00,0.00,0.00,0.00,0.00
8096520,0.001,0.003,1.002,-0.03,-0.02,-0.01,0.12,0.14,1000,1000,1000,1000,1000,1000,0,1500,1500,989,1500,4294967284,0.00,0.00,0.00,0.00,0.00,0.00,0.00,0.00,0.00,0.00,0.00,0.00
8100520,0.003,0.003,1.002,-0.01,-0.03,-0.00,0.13,0.10,1000,1000,1000,1000,1000,1000,0,1500,1500,989,1500,4294967285,0.00,0.00,0.00,0.00,0.00,0.00,0.00,0.00,0.00,0.00,0.00,0.00
8104520,0.004,0.004,1.001,-0.01,-0.03,-0.01,0.14,0.05,1000,1000,1000,1000,1000,1000,0,1500,1500,989,1500,4294967284,0.00,0.00,0.00,0.00,0.00,0.00,0.00,0.00,0.00,0.00,0.00,0.00
8108520,0.003,0.005,1.000,-0.01,-0.03,-0.02,0.17,0.01,1000,1000,1000,1000,1000,1000,0,1500,1500,989,1500,4294967283,0.00,0.00,0.00,0.00,0.00,0.00,0.00,0.00,0.00,0.00,0.00,0.00
8112520,0.002,0.003,1.002,-0.02,-0.03,-0.03,0.17,-0.03,1000,1000,1000,1000,1000,1000,0,1500,1500,989,1500,4294967284,0.00,0.00,0.00,0.00,0.00,0.00,0.00,0.00,0.00,0.00,0.00,0.00
8116520,0.002,0.000,1.002,-0.02,-0.03,-0.03,0.13,-0.06,1000,1000,1000,1000,1000,1000,0,1500,1500,989,1500,4294967285,0.00,0.00,0.00,0.00,0.00,0.00,0.00,0.00,0.00,0.00,0.00,0.00
8120520,0.002,0.000,1.000,-0.04,-0.03,-0.04,0.09,-0.07,1000,1000,1000,1000,1000,1000,0,1500,1500,989,1500,3989,0.00,0.00,0.00,0.00,0.00,0.00,0.00,0.00,0.00,0.00,0.00,0.00
8124520,0.004,0.001,1.001,-0.03,-0.03,-0.03,0.07,-0.11,1000,1000,1000,1000,1000,1000,0,1500,1500,989,1500,7989,0.00,0.00,0.00,0.00,0.00,0.00,0.00,0.00,0.00,0.00,0.00,0.00
8128520,0.005,0.001,1.003,-0.02,-0.04,-0.01,0.07,-0.16,1000,1000,1000,1000,1000,1000,0,1500,1500,989,1500,4294967284,0.00,0.00,0.00,0.00,0.00,0.00,0.00,0.00,0.00,0.00,0.00,0.00
8132520,0.005,0.002,1.005,-0.05,-0.04,-0.01,0.08,-0.20,1000,1000,1000,1000,1000,1000,0,1500,1500,989,1500,4294967283,0.00,0.00,0.00,0.00,0.00,0.00,0.00,0.00,0.00,0.00,0.00,0.00
8136520,0.005,0.004,1.003,-0.07,-0.03,-0.01,0.12,-0.22,1000,1000,1000,1000,1000,1000,0,1500,1500,989,1500,4294967284,0.00,0.00,0.00,0.00,0.00,0.00,0.00,0.00,0.00,0.00,0.00,0.00
8140520,0.003,0.004,1.002,-0.09,-0.03,-0.02,0.17,-0.21,1000,1000,1000,1000,1000,1000,0,1500,1500,989,1500,4294967285,0.00,0.00,0.00,0.00,0.00,0.00,0.00,0.00,0.00,0.00,0.00,0.00
8144520,0.003,0.005,1.000,-0.10,-0.02,-0.03,0.21,-0.20,1000,1000,1000,1000,1000,1000,0,1500,1500,989,1500,4294967284,0.00,0.00,0.00,0.00,0.00,0.00,0.00,0.00,0.00,0.00,0.00,0.00
8148520,0.003,0.007,1.000,-0.08,-0.01,-0.03,0.25,-0.18,1000,1000,1000,1000,1000,1000,0,1500,1500,989,1500,4294967283,0.00,0.00,0.00,0.00,0.00,0.00,0.00,0.00,0.00,0.00,0.00,0.00
8152520,0.002,0.006,0.999,-0.06,-0.00,-0.03,0.29,-0.15,1000,1000,1000,1000,1000,1000,0,1500,1500,989,1500,4294967284,0.00,0.00,0.00,0.00,0.00,0.00,0.00,0.00,0.00,0.00,0.00,0.00
8156520,0.001,0.005,0.999,-0.04,-0.01,-0.02,0.28,-0.11,1000,1000,1000,1000,1000,1000,0,1500,1500,989,1500,4294967285,0.00,0.00,0.00,0.00,0.00,0.00,0.00,0.00,0.00,0.00,0.00,0.00
8160520,0.000,0.005,0.997,-0.03,-0.02,-0.02,0.27,-0.06,1000,1000,1000,1000,1000,1000,0,1500,1500,989,1500,4294967284,0.00,0.00,0.00,0.00,0.00,0.00,0.00,0.00,0.00,0.00,0.00,0.00
8164520,-0.000,0.004,0.995,-0.01,-0.02,-0.02,0.25,-0.02,1000,1000,1000,1000,1000,1000,0,1500,1500,989,1500,4294967283,0.00,0.00,0.00,0.00,0.00,0.00,0.00,0.00,0.00,0.00,0.00,0.00
8168520,-0.000,0.003,0.995,-0.00,-0.01,-0.02,0.21,-0.00,1000,1000,1000,1000,1000,1000,0,1500,1500,989,1500,4294967284,0.00,0.00,0.00,0.00,0.00,0.00,0.00,0.00,0.00,0.00,0.00,0.00
8172520,0.000,0.002,0.995,-0.02,-0.01,-0.01,0.17,-0.01,1000,1000,1000,1000,1000,1000,0,1500,1500,989,1500,4294967285,0.00,0.00,0.00,0.00,0.00,0.00,0.00,0.00,0.00,0.00,0.00,0.00
8176520,0.001,0.002,0.994,-0.01,-0.02,-0.01,0.13,-0.04,1000,1000,1000,1000,1000,1000,0,1500,1500,989,1500,4294967284,0.00,0.00,0.00,0.00,0.00,0.00,0.00,0.00,0.00,0.00,0.00,0.00
8180520,0.002,0.001,0.993,-0.02,-0.02,-0.01,0.11,-0.08,1000,1000,1000,1000,1000,1000,0,1500,1500,989,1500,4294967283,0.00,0.00,0.00,0.00,0.00,0.00,0.00,0.00,0.00,0.00,0.00,0.00
8184520,0.002,0.000,0.993,-0.03,-0.02,-0.00,0.07,-0.10,1000,1000,1000,1000,1000,1000,0,1500,1500,989,1500,4294967284,0.00,0.00,0.00,0.00,0.00,0.00,0.00,0.00,0.00,0.00,0.00,0.00
8188520,0.001,-0.001,0.991,-0.01,-0.02,-0.00,0.02,-0.09,1000,1000,1000,1000,1000,1000,0,1500,1500,989,1500,3988,0.00,0.00,0.00,0.00,0.00,0.00,0.00,0.00,0.00,0.00,0.00,0.00
8192520,-0.000,-0.002,0.992,0.00,-0.03,-0.02,-0.01,-0.07,1000,1000,1000,1000,1000,1000,0,1500,1500,989,1500,7988,0.00,0.00,0.00,0.00,0.00,0.00,0.00,0.00,0.00,0.00,0.00,0.00
8196520,-0.000,-0.003,0.993,-0.01,-0.03,-0.02,-0.05,-0.05,1000,1000,1000,1000,1000,1000,0,1500,1500,989,1500,4294967288,0.00,0.00,0.00,0.00,0.00,0.00,0.00,0.00,0.00,0.00,0.00,0.00
8200520,0.001,-0.003,0.998,-0.01,-0.02,-0.02,-0.10,-0.04,1000,1000,1000,1000,1000,1000,0,1500,1500,989,1500,4294967284,0.00,0.00,0.00,0.00,0.00,0.00,0.00,0.00,0.00,0.00,0.00,0.00
8204520,0.000,-0.003,1.001,-0.02,-0.03,-0.02,-0.14,-0.02,1000,1000,1000,1000,1000,1000,0,1500,1500,989,1500,4294967283,0.00,0.00,0.00,0.00,0.00,0.00,0.00,0.00,0.00,0.00,0.00,0.00
8208520,-0.000,-0.003,1.003,-0.02,-0.02,-0.01,-0.16,0.02,1000,1000,1000,1000,1000,1000,0,1500,1500,989,1500,4294967284,0.00,0.00,0.00,0.00,0.00,0.00,0.00,0.00,0.00,0.00,0.00,0.00
8212520,-0.000,-0.001,1.005,-0.01,-0.01,-0.00,-0.12,0.01,1000,1000,1000,1000,1000,1000,0,1500,1500,989,1500,4294967285,0.00,0.00,0.00,0.00,0.00,0.00,0.00,0.00,0.00,0.00,0.00,0.00
8216520,0.001,-0.002,1.005,-0.01,-0.01,-0.00,-0.10,-0.03,1000,1000,1000,1000,1000,1000,0,1500,1500,989,1500,4294967284,0.00,0.00,0.00,0.00,0.00,0.00,0.00,0.00,0.00,0.00,0.00,0.00
8220520,0.001,-0.003,1.003,-0.00,-0.01,-0.00,-0.15,-0.05,1000,1000,1000,1000,1000,1000,0,1500,1500,989,1500,4294967283,0.00,0.00,0.00,0.00,0.00,0.00,0.00,0.00,0.00,0.00,0.00,0.00
8224520,-0.000,-0.005,1.003,-0.01,-0.01,-0.00,-0.19,-0.03,1000,1000,1000,1000,1000,1000,0,1500,1500,989,1500,4294967284,0.00,0.00,0.00,0.00,0.00,0.00,0.00,0.00,0.00,0.00,0.00,0.00
8228520,-0.001,-0.004,1.003,-0.01,-0.01,0.01,-0.21,0.01,1000,1000,1000,1000,1000,1000,0,1500,1500,989,1500,4294967285,0.00,0.00,0.00,0.00,0.00,0.00,0.00,0.00,0.00,0.00,0.00,0.00
8232520,-0.000,-0.004,1.003,-0.01,-0.00,0.01,-0.25,0.00,1000,1000,1000,1000,1000,1000,0,1500,1500,989,1500,4294967284,0.00,0.00,0.00,0.00,0.00,0.00,0.00,0.00,0.00,0.00,0.00,0.00
8236520,0.002,-0.004,1.002,-0.02,-0.01,0.01,-0.24,-0.04,1000,1000,1000,1000,1000,1000,0,1500,1500,989,1500,4294967283,0.00,0.00,0.00,0.00,0.00,0.00,0.00,0.00,0.00,0.00,0.00,0.00
8240520,0.003,-0.004,1.001,-0.01,-0.01,0.00,-0.23,-0.09,1000,1000,1000,1000,1000,1000,0,1500,1500,989,1500,4294967284,0.00,0.00,0.00,0.00,0.00,0.00,0.00,0.00,0.00,0.00,0.00,0.00
8244520,0.003,-0.003,1.001,-0.01,-0.01,-0.00,-0.20,-0.12,1000,1000,1000,1000,1000,1000,0,1500,1500,989,1500,4294967285,0.00,0.00,0.00,0.00,0.00,0.00,0.00,0.00,0.00,0.00,0.00,0.00
8248520,0.001,-0.004,0.998,-0.01,-0.01,-0.00,-0.21,-0.08,1000,1000,1000,1000,1000,1000,0,1500,1500,989,1500,4294967284,0.00,0.00,0.00,0.00,0.00,0.00,0.00,0.00,0.00,0.00,0.00,0.00
8252520,-0.000,-0.004,0.999,-0.01,-0.01,-0.00,-0.22,-0.03,1000,1000,1000,1000,1000,1000,0,1500,1500,989,1500,4294967283,0.00,0.00,0.00,0.00,0.00,0.00,0.00,0.00,0.00,0.00,0.00,0.00
8256520,-0.002,-0.004,1.000,-0.01,0.01,-0.00,-0.23,0.01,1000,1000,1000,1000,1000,1000,0,1500,1500,989,1500,4294967284,0.00,0.00,0.00,0.00,0.00,0.00,0.00,0.00,0.00,0.00,0.00,0.00
8260520,-0.001,-0.004,1.001,-0.03,0.00,-0.02,-0.23,0.06,1000,1000,1000,1000,1000,1000,0,1500,1500,989,1500,4294967285,0.00,0.00,0.00,0.00,0.00,0.00,0.00,0.00,0.00,0.00,0.00,0.00
8264520,-0.001,-0.002,1.001,-0.03,-0.01,-0.02,-0.18,0.07,1000,1000,1000,1000,1000,1000,0,1500,1500,989,1500,4294967284,0.00,0.00,0.00,0.00,0.00,0.00,0.00,0.00,0.00,0.00,0.00,0.00
8268520,-0.002,-0.002,1.002,-0.04,-0.01,-0.01,-0.15,0.09,1000,1000,1000,1000,1000,1000,0,1500,1500,989,1500,4294967283,0.00,0.00,0.00,0.00,0.00,0.00,0.00,0.00,0.00,0.00,0.00,0.00
8272520,-0.001,-0.001,1.002,-0.05,0.00,-0.01,-0.10,0.09,1000,1000,1000,1000,1000,1000,0,1500,1500,989,1500,4294967284,0.00,0.00,0.00,0.00,0.00,0.00,0.00,0.00,0.00,0.00,0.00,0.00
8276520,-0.001,0.001,1.002,-0.06,-0.01,0.00,-0.06,0.09,1000,1000,1000,1000,1000,1000,0,1500,1500,989,1500,4294967285,0.00,0.00,0.00,0.00,0.00,0.00,0.00,0.00,0.00,0.00,0.00,0.00
8280520,-0.001,0.002,1.003,-0.06,0.00,0.00,-0.01,0.08,1000,1000,1000,1000,1000,1000,0,1500,1500,989,1500,4294967284,0.00,0.00,0.00,0.00,0.00,0.00,0.00,0.00,0.00,0.00,0.00,0.00
8284520,-0.000,0.002,1.003,-0.03,-0.02,0.01,0.03,0.06,1000,1000,1000,1000,1000,1000,0,1500,1500,989,1500,4294967283,0.00,0.00,0.00,0.00,0.00,0.00,0.00,0.00,0.00,0.00,0.00,0.00
8288520,-0.001,0.001,1.004,-0.02,-0.03,0.02,0.07,0.07,1000,1000,1000,1000,1000,1000,0,1500,1500,989,1500,4294967284,0.00,0.00,0.00,0.00,0.00,0.00,0.00,0.00,0.00,0.00,0.00,0.00
8292520,0.001,0.001,1.006,-0.03,-0.02,0.01,0.06,0.03,1000,1000,1000,1000,1000,1000,0,1500,1500,989,1500,4294967285,0.00,0.00,0.00,0.00,0.00,0.00,0.00,0.00,0.00,0.00,0.00,0.00
8296520,0.002,0.000,1.005,-0.01,-0.03,0.01,0.04,-0.01,1000,1000,1000,1000,1000,1000,0,1500,1500,989,1500,4294967282,0.00,0.00,0.00,0.00,0.00,0.00,0.00,0.00,0.00,0.00,0.00,0.00
8300520,0.003,0.001,1.004,0.00,-0.03,0.01,0.05,-0.06,1000,1000,1000,1000,1000,1000,0,1500,1500,989,1500,4294967283,0.00,0.00,0.00,0.00,0.00,0.00,0.00,0.00,0.00,0.00,0.00,0.00
8304520,0.002,0.004,1.004,0.01,-0.03,0.01,0.10,-0.07,1000,1000,1000,1000,1000,1000,0,1500,1500,989,1500,4294967284,0.00,0.00,0.00,0.00,0.00,0.00,0.00,0.00,0.00,0.00,0.00,0.00
8308520,0.001,0.006,1.004,-0.00,-0.02,0.01,0.14,-0.08,1000,1000,1000,1000,1000,1000,0,1500,1500,989,1500,4294967285,0.00,0.00,0.00,0.00,0.00,0.00,0.00,0.00,0.00,0.00,0.00,0.00
8312520,-0.001,0.008,1.003,-0.01,-0.02,0.01,0.18,-0.06,1000,1000,1000,1000,1000,1000,0,1500,1500,989,1500,4294967284,0.00,0.00,0.00,0.00,0.00,0.00,0.00,0.00,0.00,0.00,0.00,0.00
8316520,-0.003,0.005,1.002,0.00,-0.03,0.01,0.20,-0.02,1000,1000,1000,1000,1000,1000,0,1500,1500,989,1500,4294967283,0.00,0.00,0.00,0.00,0.00,0.00,0.00,0.00,0.00,0.00,0.00,0.00
8320520,-0.003,0.003,1.000,0.00,-0.02,-0.00,0.20,0.03,1000,1000,1000,1000,1000,1000,0,1500,1500,989,1500,3987,0.00,0.00,0.00,0.00,0.00,0.00,0.00,0.00,0.00,0.00,0.00,0.00
8324520,-0.001,0.002,0.999,-0.01,-0.02,-0.00,0.16,0.05,1000,1000,1000,1000,1000,1000,0,1500,1500,989,1500,4294967284,0.00,0.00,0.00,0.00,0.00,0.00,0.00,0.00,0.00,0.00,0.00,0.00
8328520,-0.001,0.002,1.000,-0.00,-0.03,0.01,0.12,0.03,1000,1000,1000,1000,1000,1000,0,1500,1500,989,1500,4294967285,0.00,0.00,0.00,0.00,0.00,0.00,0.00,0.00,0.00,0.00,0.00,0.00
8332520,-0.000,0.003,1.001,-0.01,-0.03,-0.00,0.16,0.02,1000,1000,1000,1000,1000,1000,0,1500,1500,989,1500,4294967284,0.00,0.00,0.00,0.00,0.00,0.00,0.00,0.00,0.00,0.00,0.00,0.00
8336520,0.001,0.004,0.998,0.01,-0.01,0.01,0.19,-0.02,1000,1000,1000,1000,1000,1000,0,1500,1500,989,1500,4294967283,0.00,0.00,0.00,0.00,0.00,0.00,0.00,0.00,0.00,0.00,0.00,0.00
8340520,-0.000,0.002,0.999,0.01,-0.00,0.00,0.15,-0.00,1000,1000,1000,1000,1000,1000,0,1500,1500,989,1500,4294967284,0.00,0.00,0.00,0.00,0.00,0.00,0.00,0.00,0.00,0.00,0.00,0.00
8344520,-0.001,0.002,0.998,0.01,0.00,0.00,0.12,0.03,1000,1000,1000,1000,1000,1000,0,1500,1500,989,1500,4294967285,0.00,0.00,0.00,0.00,0.00,0.00,0.00,0.00,0.00,0.00,0.00,0.00
8348520,0.001,0.000,0.996,0.02,0.00,-0.01,0.08,0.01,1000,1000,1000,1000,1000,1000,0,1500,1500,989,1500,4294967284,0.00,0.00,0.00,0.00,0.00,0.00,0.00,0.00,0.00,0.00,0.00,0.00
8352520,0.000,-0.000,0.997,0.00,0.01,-0.01,0.04,-0.01,1000,1000,1000,1000,1000,1000,0,1500,1500,989,1500,4294967283,0.00,0.00,0.00,0.00,0.00,0.00,0.00,0.00,0.00,0.00,0.00,0.00
8356520,0.001,0.001,0.998,-0.01,0.01,-0.01,0.05,-0.05,1000,1000,1000,1000,1000,1000,0,1500,1500,989,1500,4294967284,0.00,0.00,0.00,0.00,0.00,0.00,0.00,0.00,0.00,0.00,0.00,0.00
8360520,0.002,0.002,0.999,-0.02,0.02,-0.02,0.08,-0.08,1000,1000,1000,1000,1000,1000,0,1500,1500,989,1500,4294967285,0.00,0.00,0.00,0.00,0.00,0.00,0.00,0.00,0.00,0.00,0.00,0.00
8364520,0.003,0.002,0.999,-0.02,0.03,-0.02,0.10,-0.12,1000,1000,1000,1000,1000,1000,0,1500,1500,989,1500,4294967284,0.00,0.00,0.00,0.00,0.00,0.00,0.00,0.00,0.00,0.00,0.00,0.00
8368520,0.005,0.002,0.997,-0.02,0.03,-0.00,0.10,-0.17,1000,1000,1000,1000,1000,1000,0,1500,1500,989,1500,4294967283,0.00,0.00,0.00,0.00,0.00,0.00,0.00,0.00,0.00,0.00,0.00,0.00
8372520,0.007,0.000,0.998,-0.02,0.03,0.00,0.09,-0.21,1000,1000,1000,1000,1000,1000,0,1500,1500,989,1500,4294967284,0.00,0.00,0.00,0.00,0.00,0.00,0.00,0.00,0.00,0.00,0.00,0.00
8376520,0.005,0.001,0.999,-0.03,0.02,0.01,0.07,-0.25,1000,1000,1000,1000,1000,1000,0,1500,1500,989,1500,4294967285,0.00,0.00,0.00,0.00,0.00,0.00,0.00,0.00,0.00,0.00,0.00,0.00
8380520,0.002,0.002,1.000,-0.03,0.00,-0.00,0.08,-0.21,1000,1000,1000,1000,1000,1000,0,1500,1500,989,1500,4294967284,0.00,0.00,0.00,0.00,0.00,0.00,0.00,0.00,0.00,0.00,0.00,0.00
8384520,-0.000,0.002,1.002,-0.02,-0.00,-0.00,0.08,-0.16,1000,1000,1000,1000,1000,1000,0,1500,1500,989,1500,4294967283,0.00,0.00,0.00,0.00,0.00,0.00,0.00,0.00,0.00,0.00,0.00,0.00
8388520,-0.001,0.002,1.001,-0.02,-0.01,-0.00,0.09,-0.12,1000,1000,1000,1000,1000,1000,0,1500,1500,989,1500,4294967284,0.00,0.00,0.00,0.00,0.00,0.00,0.00,0.00,0.00,0.00,0.00,0.00
8392520,-0.001,0.003,1.002,-0.01,-0.02,-0.00,0.11,-0.07,1000,1000,1000,1000,1000,1000,0,1500,1500,989,1500,4294967285,0.00,0.00,0.00,0.00,0.00,0.00,0.00,0.00,0.00,0.00,0.00,0.00
8396520,-0.003,0.003,1.003,-0.01,-0.02,-0.00,0.12,-0.03,1000,1000,1000,1000,1000,1000,0,1500,1500,989,1500,4294967282,0.00,0.00,0.00,0.00,0.00,0.00,0.00,0.00,0.00,0.00,0.00,0.00
8400520,-0.004,0.002,1.002,0.00,-0.01,0.01,0.12,0.02,1000,1000,1000,1000,1000,1000,0,1500,1500,989,1500,4294967283,0.00,0.00,0.00,0.00,0.00,0.00,0.00,0.00,0.00,0.00,0.00,0.00
8404520,-0.004,0.003,1.001,0.00,-0.00,0.01,0.13,0.06,1000,1000,1000,1000,1000,1000,0,1500,1500,989,1500,4294967284,0.00,0.00,0.00,0.00,0.00,0.00,0.00,0.00,0.00,0.00,0.00,0.00
8408520,-0.005,0.005,1.000,0.00,0.00,0.00,0.15,0.10,1000,1000,1000,1000,1000,1000,0,1500,1500,989,1500,4294967285,0.00,0.00,0.00,0.00,0.00,0.00,0.00,0.00,0.00,0.00,0.00,0.00
8412520,-0.004,0.006,1.002,0.00,0.01,-0.00,0.19,0.13,1000,1000,1000,1000,1000,1000,0,1500,1500,989,1500,4294967284,0.00,0.00,0.00,0.00,0.00,0.00,0.00,0.00,0.00,0.00,0.00,0.00
8416520,-0.002,0.005,1.004,-0.00,-0.00,0.02,0.23,0.13,1000,1000,1000,1000,1000,1000,0,1500,1500,989,1500,4294967283,0.00,0.00,0.00,0.00,0.00,0.00,0.00,0.00,0.00,0.00,0.00,0.00
8420520,-0.001,0.003,1.003,-0.01,-0.00,0.02,0.21,0.09,1000,1000,1000,1000,1000,1000,0,1500,1500,989,1500,4294967284,0.00,0.00,0.00,0.00,0.00,0.00,0.00,0.00,0.00,0.00,0.00,0.00
8424520,0.000,0.002,1.002,-0.01,0.00,0.03,0.18,0.06,1000,1000,1000,1000,1000,1000,0,1500,1500,989,1500,4294967285,0.00,0.00,0.00,0.00,0.00,0.00,0.00,0.00,0.00,0.00,0.00,0.00
8428520,-0.000,0.001,1.002,-0.00,-0.01,0.02,0.14,0.04,1000,1000,1000,1000,1000,1000,0,1500,1500,989,1500,4294967284,0.00,0.00,0.00,0.00,0.00,0.00,0.00,0.00,0.00,0.00,0.00,0.00
8432520,0.002,0.001,1.003,-0.00,-0.01,0.01,0.12,-0.01,1000,1000,1000,1000,1000,1000,0,1500,1500,989,1500,4294967283,0.00,0.00,0.00,0.00,0.00,0.00,0.00,0.00,0.00,0.00,0.00,0.00
8436520,0.003,0.000,1.002,-0.02,-0.01,-0.01,0.10,-0.05,1000,1000,1000,1000,1000,1000,0,1500,1500,989,1500,4294967284,0.00,0.00,0.00,0.00,0.00,0.00,0.00,0.00,0.00,0.00,0.00,0.00
8440520,0.000,-0.001,1.000,-0.03,-0.00,-0.02,0.06,-0.04,1000,1000,1000,1000,1000,1000,0,1500,1500,989,1500,4294967285,0.00,0.00,0.00,0.00,0.00,0.00,0.00,0.00,0.00,0.00,0.00,0.00
8444520,-0.001,-0.000,0.999,-0.05,-0.00,-0.02,0.03,-0.00,1000,1000,1000,1000,1000,1000,0,1500,1500,989,1500,4294967284,0.00,0.00,0.00,0.00,0.00,0.00,0.00,0.00,0.00,0.00,0.00,0.00
8448520,-0.001,-0.001,1.001,-0.05,-0.01,-0.03,-0.01,0.03,1000,1000,1000,1000,1000,1000,0,1500,1500,989,1500,4294967283,0.00,0.00,0.00,0.00,0.00,0.00,0.00,0.00,0.00,0.00,0.00,0.00
8452520,-0.001,-0.002,1.002,-0.05,-0.02,-0.02,-0.05,0.05,1000,1000,1000,1000,1000,1000,0,1500,1500,989,1500,4294967284,0.00,0.00,0.00,0.00,0.00,0.00,0.00,0.00,0.00,0.00,0.00,0.00
8456520,-0.002,-0.003,1.002,-0.06,-0.00,-0.02,-0.09,0.07,1000,1000,1000,1000,1000,1000,0,1500,1500,989,1500,4294967285,0.00,0.00,0.00,0.00,0.00,0.00,0.00,0.00,0.00,0.00,0.00,0.00
8460520,-0.001,-0.004,1.002,-0.05,0.02,-0.03,-0.14,0.07,1000,1000,1000,1000,1000,1000,0,1500,1500,989,1500,4294967284,0.00,0.00,0.00,0.00,0.00,0.00,0.00,0.00,0.00,0.00,0.00,0.00
8464520,-0.002,-0.004,1.004,-0.03,0.01,-0.03,-0.17,0.10,1000,1000,1000,1000,1000,1000,0,1500,1500,989,1500,4294967283,0.00,0.00,0.00,0.00,0.00,0.00,0.00,0.00,0.00,0.00,0.00,0.00
8468520,-0.003,-0.002,1.003,-0.02,0.01,-0.03,-0.15,0.14,1000,1000,1000,1000,1000,1000,0,1500,1500,989,1500,4294967284,0.00,0.00,0.00,0.00,0.00,0.00,0.00,0.00,0.00,0.00,0.00,0.00
8472520,-0.003,-0.003,1.002,-0.02,0.00,-0.02,-0.19,0.17,1000,1000,1000,1000,1000,1000,0,1500,1500,989,1500,4294967285,0.00,0.00,0.00,0.00,0.00,0.00,0.00,0.00,0.00,0.00,0.00,0.00
8476520,-0.001,-0.003,1.003,-0.02,-0.01,-0.03,-0.17,0.12,1000,1000,1000,1000,1000,1000,0,1500,1500,989,1500,4294967284,0.00,0.00,0.00,0.00,0.00,0.00,0.00,0.00,0.00,0.00,0.00,0.00
8480520,-0.000,-0.002,1.003,-0.02,-0.02,-0.04,-0.16,0.08,1000,1000,1000,1000,1000,1000,0,1500,1500,989,1500,3988,0.00,0.00,0.00,0.00,0.00,0.00,0.00,0.00,0.00,0.00,0.00,0.00
8484520,0.001,-0.001,1.006,-0.03,-0.01,-0.04,-0.13,0.04,1000,1000,1000,1000,1000,1000,0,1500,1500,989,1500,4294967283,0.00,0.00,0.00,0.00,0.00,0.00,0.00,0.00,0.00,0.00,0.00,0.00
8488520,0.001,0.001,1.006,-0.04,-0.01,-0.04,-0.10,0.02,1000,1000,1000,1000,1000,1000,0,1500,1500,989,1500,4294967284,0.00,0.00,0.00,0.00,0.00,0.00,0.00,0.00,0.00,0.00,0.00,0.00
8492520,0.001,0.001,1.007,-0.03,-0.00,-0.03,-0.05,0.00,1000,1000,1000,1000,1000,1000,0,1500,1500,989,1500,4294967285,0.00,0.00,0.00,0.00,0.00,0.00,0.00,0.00,0.00,0.00,0.00,0.00
8496520,-0.000,0.001,1.007,-0.04,0.00,-0.01,-0.01,0.01,1000,1000,1000,1000,1000,1000,0,1500,1500,989,1500,4294967282,0.00,0.00,0.00,0.00,0.00,0.00,0.00,0.00,0.00,0.00,0.00,0.00
8500520,-0.002,0.000,1.008,-0.05,0.00,0.00,-0.00,0.05,1000,1000,1000,1000,1000,1000,0,1500,1500,989,1500,4294967283,0.00,0.00,0.00,0.00,0.00,0.00,0.00,0.00,0.00,0.00,0.00,0.00
8504520,-0.002,-0.001,1.008,-0.04,-0.02,0.02,-0.03,0.09,1000,1000,1000,1000,1000,1000,0,1500,1500,989,1500,4294967284,0.00,0.00,0.00,0.00,0.00,0.00,0.00,0.00,0.00,0.00,0.00,0.00
8508520,-0.001,0.000,1.005,-0.01,-0.03,0.03,0.00,0.06,1000,1000,1000,1000,1000,1000,0,1500,1500,989,1500,4294967285,0.00,0.00,0.00,0.00,0.00,0.00,0.00,0.00,0.00,0.00,0.00,0.00
8512520,-0.001,0.000,1.002,-0.02,-0.03,0.03,0.03,0.02,1000,1000,1000,1000,1000,1000,0,1500,1500,989,1500,4294967284,0.00,0.00,0.00,0.00,0.00,0.00,0.00,0.00,0.00,0.00,0.00,0.00
8516520,-0.001,-0.001,1.001,-0.03,-0.01,0.04,-0.02,0.03,1000,1000,1000,1000,1000,1000,0,1500,1500,989,1500,4294967283,0.00,0.00,0.00,0.00,0.00,0.00,0.00,0.00,0.00,0.00,0.00,0.00
8520520,-0.001,-0.002,1.000,-0.01,-0.01,0.02,-0.06,0.03,1000,1000,1000,1000,1000,1000,0,1500,1500,989,1500,4294967284,0.00,0.00,0.00,0.00,0.00,0.00,0.00,0.00,0.00,0.00,0.00,0.00
8524520,-0.003,-0.005,1.001,-0.01,-0.01,0.04,-0.10,0.06,1000,1000,1000,1000,1000,1000,0,1500,1500,989,1500,3988,0.00,0.00,0.00,0.00,0.00,0.00,0.00,0.00,0.00,0.00,0.00,0.00
8528520,-0.004,-0.005,1.000,-0.02,-0.00,0.04,-0.13,0.09,1000,1000,1000,1000,1000,1000,0,1500,1500,989,1500,7988,0.00,0.00,0.00,0.00,0.00,0.00,0.00,0.00,0.00,0.00,0.00,0.00
8532520,-0.003,-0.004,1.000,-0.02,0.01,0.04,-0.17,0.12,1000,1000,1000,1000,1000,1000,0,1500,1500,989,1500,4294967285,0.00,0.00,0.00,0.00,0.00,0.00,0.00,0.00,0.00,0.00,0.00,0.00
8536520,-0.001,-0.003,1.000,-0.02,0.01,0.03,-0.17,0.07,1000,1000,1000,1000,1000,1000,0,1500,1500,989,1500,4294967284,0.00,0.00,0.00,0.00,0.00,0.00,0.00,0.00,0.00,0.00,0.00,0.00
8540520,-0.000,-0.003,0.997,-0.01,0.01,0.02,-0.16,0.03,1000,1000,1000,1000,1000,1000,0,1500,1500,989,1500,4294967283,0.00,0.00,0.00,0.00,0.00,0.00,0.00,0.00,0.00,0.00,0.00,0.00
8544520,-0.001,-0.003,0.996,0.00,-0.00,0.01,-0.14,0.07,1000,1000,1000,1000,1000,1000,0,1500,1500,989,1500,4294967284,0.00,0.00,0.00,0.00,0.00,0.00,0.00,0.00,0.00,0.00,0.00,0.00
8548520,0.000,-0.003,0.994,-0.01,0.00,-0.00,-0.15,0.02,1000,1000,1000,1000,1000,1000,0,1500,1500,989,1500,4294967285,0.00,0.00,0.00,0.00,0.00,0.00,0.00,0.00,0.00,0.00,0.00,0.00
8552520,0.001,-0.003,0.996,-0.01,0.00,-0.01,-0.16,-0.02,1000,1000,1000,1000,1000,1000,0,1500,1500,989,1500,4294967284,0.00,0.00,0.00,0.00,0.00,0.00,0.00,0.00,0.00,0.00,0.00,0.00
8556520,0.002,-0.002,0.996,-0.00,-0.02,-0.01,-0.15,-0.07,1000,1000,1000,1000,1000,1000,0,1500,1500,989,1500,4294967283,0.00,0.00,0.00,0.00,0.00,0.00,0.00,0.00,0.00,0.00,0.00,0.00
8560520,0.003,-0.002,0.998,-0.02,-0.02,-0.01,-0.13,-0.11,1000,1000,1000,1000,1000,1000,0,1500,1500,989,1500,4294967284,0.00,0.00,0.00,0.00,0.00,0.00,0.00,0.00,0.00,0.00,0.00,0.00
8564520,0.002,-0.000,1.000,-0.04,-0.02,-0.04,-0.09,-0.11,1000,1000,1000,1000,1000,1000,0,1500,1500,989,1500,4294967285,0.00,0.00,0.00,0.00,0.00,0.00,0.00,0.00,0.00,0.00,0.00,0.00
8568520,0.003,0.001,0.999,-0.04,-0.03,-0.04,-0.04,-0.13,1000,1000,1000,1000,1000,1000,0,1500,1500,989,1500,4294967284,0.00,0.00,0.00,0.00,0.00,0.00,0.00,0.00,0.00,0.00,0.00,0.00
8572520,0.004,0.001,0.999,-0.04,-0.02,-0.03,-0.01,-0.16,1000,1000,1000,1000,1000,1000,0,1500,1500,989,1500,4294967283,0.00,0.00,0.00,0.00,0.00,0.00,0.00,0.00,0.00,0.00,0.00,0.00
8576520,0.003,0.002,1.001,-0.05,-0.01,-0.00,0.03,-0.16,1000,1000,1000,1000,1000,1000,0,1500,1500,989,1500,4294967284,0.00,0.00,0.00,0.00,0.00,0.00,0.00,0.00,0.00,0.00,0.00,0.00
8580520,0.002,0.002,1.001,-0.07,0.01,0.01,0.07,-0.13,1000,1000,1000,1000,1000,1000,0,1500,1500,989,1500,4294967285,0.00,0.00,0.00,0.00,0.00,0.00,0.00,0.00,0.00,0.00,0.00,0.00
8584520,0.001,0.002,1.002,-0.06,0.02,0.02,0.09,-0.09,1000,1000,1000,1000,1000,1000,0,1500,1500,989,1500,4294967284,0.00,0.00,0.00,0.00,0.00,0.00,0.00,0.00,0.00,0.00,0.00,0.00
8588520,0.003,0.003,1.005,-0.03,0.01,0.00,0.13,-0.12,1000,1000,1000,1000,1000,1000,0,1500,1500,989,1500,4294967283,0.00,0.00,0.00,0.00,0.00,0.00,0.00,0.00,0.00,0.00,0.00,0.00
8592520,0.004,0.003,1.003,0.01,0.01,0.01,0.14,-0.16,1000,1000,1000,1000,1000,1000,0,1500,1500,989,1500,4294967284,0.00,0.00,0.00,0.00,0.00,0.00,0.00,0.00,0.00,0.00,0.00,0.00
8596520,0.005,0.001,1.003,0.02,-0.01,0.02,0.12,-0.20,1000,1000,1000,1000,1000,1000,0,1500,1500,989,1500,4294967285,0.00,0.00,0.00,0.00,0.00,0.00,0.00,0.00,0.00,0.00,0.00,0.00
8600520,0.003,0.002,1.001,0.03,-0.03,0.02,0.16,-0.19,1000,1000,1000,1000,1000,1000,0,1500,1500,989,1500,4294967283,0.00,0.00,0.00,0.00,0.00,0.00,0.00,0.00,0.00,0.00,0.00,0.00
8604520,0.001,0.004,1.000,0.04,-0.04,0.02,0.18,-0.15,1000,1000,1000,1000,1000,1000,0,1500,1500,989,1500,4294967283,0.00,0.00,0.00,0.00,0.00,0.00,0.00,0.00,0.00,0.00,0.00,0.00
8608520,0.000,0.004,1.001,0.04,-0.03,0.01,0.20,-0.11,1000,1000,1000,1000,1000,1000,0,1500,1500,989,1500,4294967284,0.00,0.00,0.00,0.00,0.00,0.00,0.00,0.00,0.00,0.00,0.00,0.00
8612520,0.001,0.003,0.999,0.02,-0.01,-0.00,0.16,-0.08,1000,1000,1000,1000,1000,1000,0,1500,1500,989,1500,4294967285,0.00,0.00,0.00,0.00,0.00,0.00,0.00,0.00,0.00,0.00,0.00,0.00
8616520,0.002,0.003,0.996,0.01,-0.01,0.00,0.16,-0.12,1000,1000,1000,1000,1000,1000,0,1500,1500,989,1500,4294967284,0.00,0.00,0.00,0.00,0.00,0.00,0.00,0.00,0.00,0.00,0.00,0.00
8620520,0.003,0.003,0.998,0.00,-0.01,-0.01,0.15,-0.17,1000,1000,1000,1000,1000,1000,0,1500,1500,989,1500,4294967283,0.00,0.00,0.00,0.00,0.00,0.00,0.00,0.00,0.00,0.00,0.00,0.00
8624520,0.004,0.002,1.000,-0.01,-0.00,-0.00,0.13,-0.21,1000,1000,1000,1000,1000,1000,0,1500,1500,989,1500,4294967284,0.00,0.00,0.00,0.00,0.00,0.00,0.00,0.00,0.00,0.00,0.00,0.00
8628520,0.006,0.001,0.999,-0.03,0.00,0.01,0.12,-0.25,1000,1000,1000,1000,1000,1000,0,1500,1500,989,1500,4294967285,0.00,0.00,0.00,0.00,0.00,0.00,0.00,0.00,0.00,0.00,0.00,0.00
8632520,0.005,0.002,0.998,-0.04,-0.01,0.03,0.12,-0.30,1000,1000,1000,1000,1000,1000,0,1500,1500,989,1500,4294967284,0.00,0.00,0.00,0.00,0.00,0.00,0.00,0.00,0.00,0.00,0.00,0.00
8636520,0.002,0.003,0.998,-0.04,-0.01,0.03,0.13,-0.26,1000,1000,1000,1000,1000,1000,0,1500,1500,989,1500,4294967283,0.00,0.00,0.00,0.00,0.00,0.00,0.00,0.00,0.00,0.00,0.00,0.00
8640520,0.000,0.004,0.998,-0.03,-0.01,0.02,0.15,-0.21,1000,1000,1000,1000,1000,1000,0,1500,1500,989,1500,4294967284,0.00,0.00,0.00,0.00,0.00,0.00,0.00,0.00,0.00,0.00,0.00,0.00
8644520,-0.001,0.005,0.998,-0.04,-0.01,0.01,0.17,-0.17,1000,1000,1000,1000,1000,1000,0,1500,1500,989,1500,4294967285,0.00,0.00,0.00,0.00,0.00,0.00,0.00,0.00,0.00,0.00,0.00,0.00
8648520,-0.001,0.005,0.997,-0.05,-0.02,-0.01,0.18,-0.13,1000,1000,1000,1000,1000,1000,0,1500,1500,989,1500,4294967284,0.00,0.00,0.00,0.00,0.00,0.00,0.00,0.00,0.00,0.00,0.00,0.00
8652520,-0.000,0.003,0.994,-0.04,-0.04,-0.00,0.19,-0.08,1000,1000,1000,1000,1000,1000,0,1500,1500,989,1500,4294967283,0.00,0.00,0.00,0.00,0.00,0.00,0.00,0.00,0.00,0.00,0.00,0.00
8656520,-0.000,0.003,0.993,-0.02,-0.04,-0.00,0.19,-0.04,1000,1000,1000,1000,1000,1000,0,1500,1500,989,1500,4294967284,0.00,0.00,0.00,0.00,0.00,0.00,0.00,0.00,0.00,0.00,0.00,0.00
8660520,0.000,0.003,0.993,-0.02,-0.03,-0.00,0.16,-0.01,1000,1000,1000,1000,1000,1000,0,1500,1500,989,1500,4294967285,0.00,0.00,0.00,0.00,0.00,0.00,0.00,0.00,0.00,0.00,0.00,0.00
8664520,0.000,0.004,0.992,-0.01,-0.02,-0.00,0.20,-0.02,1000,1000,1000,1000,1000,1000,0,1500,1500,989,1500,4294967284,0.00,0.00,0.00,0.00,0.00,0.00,0.00,0.00,0.00,0.00,0.00,0.00
8668520,-0.000,0.005,0.991,-0.02,-0.02,0.01,0.24,-0.01,1000,1000,1000,1000,1000,1000,0,1500,1500,989,1500,4294967283,0.00,0.00,0.00,0.00,0.00,0.00,0.00,0.00,0.00,0.00,0.00,0.00
8672520,-0.001,0.004,0.992,-0.01,-0.02,-0.00,0.23,0.04,1000,1000,1000,1000,1000,1000,0,1500,1500,989,1500,4294967284,0.00,0.00,0.00,0.00,0.00,0.00,0.00,0.00,0.00,0.00,0.00,0.00
8676520,-0.001,0.004,0.992,-0.02,-0.02,-0.01,0.19,0.06,1000,1000,1000,1000,1000,1000,0,1500,1500,989,1500,4294967285,0.00,0.00,0.00,0.00,0.00,0.00,0.00,0.00,0.00,0.00,0.00,0.00
8680520,-0.001,0.004,0.995,-0.02,-0.01,-0.03,0.23,0.04,1000,1000,1000,1000,1000,1000,0,1500,1500,989,1500,4294967284,0.00,0.00,0.00,0.00,0.00,0.00,0.00,0.00,0.00,0.00,0.00,0.00
8684520,-0.001,0.004,0.994,-0.03,-0.03,-0.02,0.22,0.08,1000,1000,1000,1000,1000,1000,0,1500,1500,989,1500,4294967283,0.00,0.00,0.00,0.00,0.00,0.00,0.00,0.00,0.00,0.00,0.00,0.00
8688520,-0.001,0.004,0.995,-0.04,-0.06,-0.02,0.18,0.06,1000,1000,1000,1000,1000,1000,0,1500,1500,989,1500,4294967284,0.00,0.00,0.00,0.00,0.00,0.00,0.00,0.00,0.00,0.00,0.00,0.00
8692520,-0.002,0.004,0.996,-0.05,-0.06,-0.02,0.20,0.10,1000,1000,1000,1000,1000,1000,0,1500,1500,989,1500,4294967285,0.00,0.00,0.00,0.00,0.00,0.00,0.00,0.00,0.00,0.00,0.00,0.00
8696520,-0.002,0.003,0.996,-0.05,-0.05,-0.01,0.17,0.13,1000,1000,1000,1000,1000,1000,0,1500,1500,989,1500,4294967284,0.00,0.00,0.00,0.00,0.00,0.00,0.00,0.00,0.00,0.00,0.00,0.00
8700520,-0.002,0.003,0.995,-0.04,-0.04,-0.00,0.13,0.13,1000,1000,1000,1000,1000,1000,0,1500,1500,989,1500,4294967281,0.00,0.00,0.00,0.00,0.00,0.00,0.00,0.00,0.00,0.00,0.00,0.00
8704520,-0.001,0.003,0.993,-0.02,-0.03,-0.00,0.14,0.09,1000,1000,1000,1000,1000,1000,0,1500,1500,989,1500,4294967284,0.00,0.00,0.00,0.00,0.00,0.00,0.00,0.00,0.00,0.00,0.00,0.00
8708520,0.001,0.003,0.991,-0.02,-0.01,-0.01,0.15,0.04,1000,1000,1000,1000,1000,1000,0,1500,1500,989,1500,4294967285,0.00,0.00,0.00,0.00,0.00,0.00,0.00,0.00,0.00,0.00,0.00,0.00
8712520,0.001,0.003,0.989,-0.01,-0.02,-0.01,0.15,-0.00,1000,1000,1000,1000,1000,1000,0,1500,1500,989,1500,4294967284,0.00,0.00,0.00,0.00,0.00,0.00,0.00,0.00,0.00,0.00,0.00,0.00
8716520,0.001,0.001,0.990,-0.02,-0.01,-0.01,0.11,-0.03,1000,1000,1000,1000,1000,1000,0,1500,1500,989,1500,4294967283,0.00,0.00,0.00,0.00,0.00,0.00,0.00,0.00,0.00,0.00,0.00,0.00
8720520,0.001,0.002,0.991,-0.03,-0.02,0.01,0.09,-0.06,1000,1000,1000,1000,1000,1000,0,1500,1500,989,1500,4294967284,0.00,0.00,0.00,0.00,0.00,0.00,0.00,0.00,0.00,0.00,0.00,0.00
8724520,0.001,0.003,0.994,-0.03,-0.03,0.01,0.13,-0.06,1000,1000,1000,1000,1000,1000,0,1500,1500,989,1500,4294967285,0.00,0.00,0.00,0.00,0.00,0.00,0.00,0.00,0.00,0.00,0.00,0.00
8728520,0.002,0.002,0.997,-0.02,-0.03,0.01,0.13,-0.11,1000,1000,1000,1000,1000,1000,0,1500,1500,989,1500,4294967284,0.00,0.00,0.00,0.00,0.00,0.00,0.00,0.00,0.00,0.00,0.00,0.00
8732520,0.002,0.001,1.000,0.00,-0.02,0.01,0.09,-0.13,1000,1000,1000,1000,1000,1000,0,1500,1500,989,1500,4294967283,0.00,0.00,0.00,0.00,0.00,0.00,0.00,0.00,0.00,0.00,0.00,0.00
8736520,0.002,-0.001,1.004,0.01,-0.00,0.01,0.05,-0.14,1000,1000,1000,1000,1000,1000,0,1500,1500,989,1500,4294967284,0.00,0.00,0.00,0.00,0.00,0.00,0.00,0.00,0.00,0.00,0.00,0.00
8740520,0.003,-0.003,1.006,-0.00,-0.02,-0.00,0.00,-0.14,1000,1000,1000,1000,1000,1000,0,1500,1500,989,1500,4294967285,0.00,0.00,0.00,0.00,0.00,0.00,0.00,0.00,0.00,0.00,0.00,0.00
8744520,0.003,-0.004,1.005,-0.01,-0.02,-0.01,-0.05,-0.14,1000,1000,1000,1000,1000,1000,0,1500,1500,989,1500,4294967284,0.00,0.00,0.00,0.00,0.00,0.00,0.00,0.00,0.00,0.00,0.00,0.00
8748520,0.003,-0.004,1.007,-0.02,-0.02,-0.01,-0.09,-0.15,1000,1000,1000,1000,1000,1000,0,1500,1500,989,1500,4294967283,0.00,0.00,0.00,0.00,0.00,0.00,0.00,0.00,0.00,0.00,0.00,0.00
8752520,0.004,-0.003,1.008,-0.02,-0.01,-0.01,-0.13,-0.17,1000,1000,1000,1000,1000,1000,0,1500,1500,989,1500,4294967284,0.00,0.00,0.00,0.00,0.00,0.00,0.00,0.00,0.00,0.00,0.00,0.00
8756520,0.006,-0.004,1.007,-0.02,-0.02,-0.01,-0.15,-0.22,1000,1000,1000,1000,1000,1000,0,1500,1500,989,1500,4294967285,0.00,0.00,0.00,0.00,0.00,0.00,0.00,0.00,0.00,0.00,0.00,0.00
8760520,0.008,-0.003,1.006,-0.02,-0.02,-0.01,-0.15,-0.26,1000,1000,1000,1000,1000,1000,0,1500,1500,989,1500,3989,0.00,0.00,0.00,0.00,0.00,0.00,0.00,0.00,0.00,0.00,0.00,0.00
8764520,0.008,-0.003,1.005,-0.02,-0.02,-0.01,-0.17,-0.31,1000,1000,1000,1000,1000,1000,0,1500,1500,989,1500,4294967284,0.00,0.00,0.00,0.00,0.00,0.00,0.00,0.00,0.00,0.00,0.00,0.00
8768520,0.008,-0.003,1.005,-0.02,-0.03,0.00,-0.16,-0.35,1000,1000,1000,1000,1000,1000,0,1500,1500,989,1500,4294967283,0.00,0.00,0.00,0.00,0.00,0.00,0.00,0.00,0.00,0.00,0.00,0.00
8772520,0.006,-0.001,1.005,-0.01,-0.03,0.02,-0.11,-0.34,1000,1000,1000,1000,1000,1000,0,1500,1500,989,1500,4294967284,0.00,0.00,0.00,0.00,0.00,0.00,0.00,0.00,0.00,0.00,0.00,0.00
8776520,0.004,-0.001,1.006,-0.01,-0.03,-0.01,-0.09,-0.30,1000,1000,1000,1000,1000,1000,0,1500,1500,989,1500,4294967285,0.00,0.00,0.00,0.00,0.00,0.00,0.00,0.00,0.00,0.00,0.00,0.00
8780520,0.003,0.001,1.008,-0.03,-0.03,-0.00,-0.06,-0.27,1000,1000,1000,1000,1000,1000,0,1500,1500,989,1500,4294967284,0.00,0.00,0.00,0.00,0.00,0.00,0.00,0.00,0.00,0.00,0.00,0.00
8784520,0.003,0.002,1.009,-0.02,-0.03,0.02,-0.02,-0.25,1000,1000,1000,1000,1000,1000,0,1500,1500,989,1500,4294967283,0.00,0.00,0.00,0.00,0.00,0.00,0.00,0.00,0.00,0.00,0.00,0.00
8788520,0.002,0.001,1.008,-0.03,-0.00,0.02,0.00,-0.21,1000,1000,1000,1000,1000,1000,0,1500,1500,989,1500,4294967284,0.00,0.00,0.00,0.00,0.00,0.00,0.00,0.00,0.00,0.00,0.00,0.00
8792520,0.002,-0.000,1.006,-0.03,-0.01,0.02,-0.01,-0.16,1000,1000,1000,1000,1000,1000,0,1500,1500,989,1500,4294967285,0.00,0.00,0.00,0.00,0.00,0.00,0.00,0.00,0.00,0.00,0.00,0.00
8796520,0.003,0.000,1.006,-0.05,-0.01,0.03,0.03,-0.19,1000,1000,1000,1000,1000,1000,0,1500,1500,989,1500,3989,0.00,0.00,0.00,0.00,0.00,0.00,0.00,0.00,0.00,0.00,0.00,0.00
8800520,0.003,0.001,1.003,-0.06,-0.00,0.03,0.06,-0.15,1000,1000,1000,1000,1000,1000,0,1500,1500,989,1500,4294967282,0.00,0.00,0.00,0.00,0.00,0.00,0.00,0.00,0.00,0.00,0.00,0.00
8804520,0.003,0.001,1.002,-0.05,-0.00,0.03,0.06,-0.20,1000,1000,1000,1000,1000,1000,0,1500,1500,989,1500,4294967283,0.00,0.00,0.00,0.00,0.00,0.00,0.00,0.00,0.00,0.00,0.00,0.00
8808520,0.004,0.000,0.999,-0.02,0.00,0.01,0.02,-0.22,1000,1000,1000,1000,1000,1000,0,1500,1500,989,1500,4294967284,0.00,0.00,0.00,0.00,0.00,0.00,0.00,0.00,0.00,0.00,0.00,0.00
8812520,0.003,0.001,0.998,-0.01,-0.00,0.02,0.04,-0.18,1000,1000,1000,1000,1000,1000,0,1500,1500,989,1500,4294967285,0.00,0.00,0.00,0.00,0.00,0.00,0.00,0.00,0.00,0.00,0.00,0.00
8816520,0.002,0.002,1.000,-0.01,-0.00,0.01,0.08,-0.16,1000,1000,1000,1000,1000,1000,0,1500,1500,989,1500,4294967284,0.00,0.00,0.00,0.00,0.00,0.00,0.00,0.00,0.00,0.00,0.00,0.00
8820520,0.002,0.002,1.000,-0.01,-0.01,0.00,0.10,-0.11,1000,1000,1000,1000,1000,1000,0,1500,1500,989,1500,4294967283,0.00,0.00,0.00,0.00,0.00,0.00,0.00,0.00,0.00,0.00,0.00,0.00
8824520,0.001,0.000,1.001,-0.02,-0.03,-0.01,0.06,-0.08,1000,1000,1000,1000,1000,1000,0,1500,1500,989,1500,4294967284,0.00,0.00,0.00,0.00,0.00,0.00,0.00,0.00,0.00,0.00,0.00,0.00
8828520,0.001,0.000,1.003,0.00,-0.05,-0.00,0.03,-0.06,1000,1000,1000,1000,1000,1000,0,1500,1500,989,1500,4294967285,0.00,0.00,0.00,0.00,0.00,0.00,0.00,0.00,0.00,0.00,0.00,0.00
8832520,0.002,0.000,1.004,-0.00,-0.05,0.01,0.02,-0.10,1000,1000,1000,1000,1000,1000,0,1500,1500,989,1500,3989,0.00,0.00,0.00,0.00,0.00,0.00,0.00,0.00,0.00,0.00,0.00,0.00
8836520,0.002,-0.000,1.005,-0.00,-0.04,0.00,-0.03,-0.08,1000,1000,1000,1000,1000,1000,0,1500,1500,989,1500,4294967284,0.00,0.00,0.00,0.00,0.00,0.00,0.00,0.00,0.00,0.00,0.00,0.00
8840520,0.001,-0.000,1.004,-0.00,-0.05,0.00,-0.03,-0.04,1000,1000,1000,1000,1000,1000,0,1500,1500,989,1500,4294967283,0.00,0.00,0.00,0.00,0.00,0.00,0.00,0.00,0.00,0.00,0.00,0.00
8844520,-0.000,0.000,1.001,0.02,-0.04,-0.01,0.00,-0.01,1000,1000,1000,1000,1000,1000,0,1500,1500,989,1500,4294967284,0.00,0.00,0.00,0.00,0.00,0.00,0.00,0.00,0.00,0.00,0.00,0.00
8848520,-0.002,0.001,1.000,-0.01,-0.03,-0.02,0.02,0.04,1000,1000,1000,1000,1000,1000,0,1500,1500,989,1500,4294967285,0.00,0.00,0.00,0.00,0.00,0.00,0.00,0.00,0.00,0.00,0.00,0.00
8852520,-0.003,0.000,0.999,-0.02,-0.03,-0.01,0.02,0.08,1000,1000,1000,1000,1000,1000,0,1500,1500,989,1500,4294967284,0.00,0.00,0.00,0.00,0.00,0.00,0.00,0.00,0.00,0.00,0.00,0.00
8856520,-0.005,0.001,0.999,-0.02,-0.04,-0.01,0.03,0.13,1000,1000,1000,1000,1000,1000,0,1500,1500,989,1500,4294967283,0.00,0.00,0.00,0.00,0.00,0.00,0.00,0.00,0.00,0.00,0.00,0.00
8860520,-0.004,0.000,0.998,-0.03,-0.04,-0.03,0.02,0.17,1000,1000,1000,1000,1000,1000,0,1500,1500,989,1500,4294967284,0.00,0.00,0.00,0.00,0.00,0.00,0.00,0.00,0.00,0.00,0.00,0.00
8864520,-0.002,0.000,0.996,-0.04,-0.04,-0.04,0.00,0.13,1000,1000,1000,1000,1000,1000,0,1500,1500,989,1500,4294967285,0.00,0.00,0.00,0.00,0.00,0.00,0.00,0.00,0.00,0.00,0.00,0.00
8868520,-0.002,0.000,0.997,-0.02,-0.02,-0.03,0.03,0.10,1000,1000,1000,1000,1000,1000,0,1500,1500,989,1500,4294967284,0.00,0.00,0.00,0.00,0.00,0.00,0.00,0.00,0.00,0.00,0.00,0.00
8872520,-0.002,0.000,1.000,-0.01,-0.02,-0.02,-0.00,0.13,1000,1000,1000,1000,1000,1000,0,1500,1500,989,1500,4294967283,0.00,0.00,0.00,0.00,0.00,0.00,0.00,0.00,0.00,0.00,0.00,0.00
8876520,-0.001,0.001,1.000,-0.01,-0.02,-0.02,0.02,0.09,1000,1000,1000,1000,1000,1000,0,1500,1500,989,1500,4294967284,0.00,0.00,0.00,0.00,0.00,0.00,0.00,0.00,0.00,0.00,0.00,0.00
8880520,-0.001,0.001,0.999,-0.01,-0.01,-0.03,0.07,0.08,1000,1000,1000,1000,1000,1000,0,1500,1500,989,1500,4294967285,0.00,0.00,0.00,0.00,0.00,0.00,0.00,0.00,0.00,0.00,0.00,0.00
8884520,-0.001,0.001,0.999,-0.02,-0.01,-0.03,0.10,0.05,1000,1000,1000,1000,1000,1000,0,1500,1500,989,1500,4294967284,0.00,0.00,0.00,0.00,0.00,0.00,0.00,0.00,0.00,0.00,0.00,0.00
8888520,-0.000,0.001,1.000,-0.03,-0.01,-0.03,0.07,0.03,1000,1000,1000,1000,1000,1000,0,1500,1500,989,1500,4294967283,0.00,0.00,0.00,0.00,0.00,0.00,0.00,0.00,0.00,0.00,0.00,0.00
8892520,0.000,0.000,0.998,-0.03,-0.01,-0.03,0.03,-0.01,1000,1000,1000,1000,1000,1000,0,1500,1500,989,1500,3987,0.00,0.00,0.00,0.00,0.00,0.00,0.00,0.00,0.00,0.00,0.00,0.00
8896520,0.001,-0.000,0.999,-0.00,-0.02,-0.03,-0.01,-0.03,1000,1000,1000,1000,1000,1000,0,1500,1500,989,1500,4294967284,0.00,0.00,0.00,0.00,0.00,0.00,0.00,0.00,0.00,0.00,0.00,0.00
8900520,-0.000,-0.001,0.998,0.01,-0.03,-0.03,-0.03,0.00,1000,1000,1000,1000,1000,1000,0,1500,1500,989,1500,4294967283,0.00,0.00,0.00,0.00,0.00,0.00,0.00,0.00,0.00,0.00,0.00,0.00
8904520,-0.001,0.000,0.997,0.01,-0.02,-0.02,0.01,0.03,1000,1000,1000,1000,1000,1000,0,1500,1500,989,1500,4294967284,0.00,0.00,0.00,0.00,0.00,0.00,0.00,0.00,0.00,0.00,0.00,0.00
8908520,-0.001,-0.001,0.996,0.00,-0.03,-0.01,-0.04,0.03,1000,1000,1000,1000,1000,1000,0,1500,1500,989,1500,4294967283,0.00,0.00,0.00,0.00,0.00,0.00,0.00,0.00,0.00,0.00,0.00,0.00
8912520,0.000,-0.000,0.996,0.02,-0.04,-0.01,-0.02,-0.01,1000,1000,1000,1000,1000,1000,0,1500,1500,989,1500,4294967284,0.00,0.00,0.00,0.00,0.00,0.00,0.00,0.00,0.00,0.00,0.00,0.00
8916520,-0.001,0.001,0.997,0.02,-0.01,0.00,0.01,0.03,1000,1000,1000,1000,1000,1000,0,1500,1500,989,1500,4294967285,0.00,0.00,0.00,0.00,0.00,0.00,0.00,0.00,0.00,0.00,0.00,0.00
8920520,-0.002,0.002,0.998,0.01,0.01,0.01,0.05,0.06,1000,1000,1000,1000,1000,1000,0,1500,1500,989,1500,4294967284,0.00,0.00,0.00,0.00,0.00,0.00,0.00,0.00,0.00,0.00,0.00,0.00
8924520,-0.002,0.003,0.998,-0.01,0.02,0.01,0.09,0.08,1000,1000,1000,1000,1000,1000,0,1500,1500,989,1500,4294967283,0.00,0.00,0.00,0.00,0.00,0.00,0.00,0.00,0.00,0.00,0.00,0.00
8928520,-0.000,0.003,0.998,-0.03,0.04,0.00,0.13,0.06,1000,1000,1000,1000,1000,1000,0,1500,1500,989,1500,4294967284,0.00,0.00,0.00,0.00,0.00,0.00,0.00,0.00,0.00,0.00,0.00,0.00
8932520,0.002,0.001,0.998,-0.04,0.06,-0.00,0.11,0.01,1000,1000,1000,1000,1000,1000,0,1500,1500,989,1500,4294967285,0.00,0.00,0.00,0.00,0.00,0.00,0.00,0.00,0.00,0.00,0.00,0.00
8936520,0.003,0.001,0.998,-0.05,0.04,-0.01,0.09,-0.03,1000,1000,1000,1000,1000,1000,0,1500,1500,989,1500,4294967284,0.00,0.00,0.00,0.00,0.00,0.00,0.00,0.00,0.00,0.00,0.00,0.00
8940520,0.004,-0.001,0.995,-0.04,0.03,-0.00,0.06,-0.06,1000,1000,1000,1000,1000,1000,0,1500,1500,989,1500,4294967283,0.00,0.00,0.00,0.00,0.00,0.00,0.00,0.00,0.00,0.00,0.00,0.00
8944520,0.006,-0.001,0.997,-0.02,0.01,0.01,0.04,-0.10,1000,1000,1000,1000,1000,1000,0,1500,1500,989,1500,4294967284,0.00,0.00,0.00,0.00,0.00,0.00,0.00,0.00,0.00,0.00,0.00,0.00
8948520,0.005,-0.002,0.999,-0.01,0.01,0.01,0.01,-0.14,1000,1000,1000,1000,1000,1000,0,1500,1500,989,1500,4294967285,0.00,0.00,0.00,0.00,0.00,0.00,0.00,0.00,0.00,0.00,0.00,0.00
8952520,0.004,-0.000,0.998,0.00,0.00,0.01,-0.01,-0.18,1000,1000,1000,1000,1000,1000,0,1500,1500,989,1500,4294967284,0.00,0.00,0.00,0.00,0.00,0.00,0.00,0.00,0.00,0.00,0.00,0.00
8956520,0.004,-0.002,1.000,0.02,-0.01,-0.00,-0.05,-0.20,1000,1000,1000,1000,1000,1000,0,1500,1500,989,1500,4294967283,0.00,0.00,0.00,0.00,0.00,0.00,0.00,0.00,0.00,0.00,0.00,0.00
8960520,0.005,-0.001,1.001,0.02,-0.02,-0.01,-0.04,-0.25,1000,1000,1000,1000,1000,1000,0,1500,1500,989,1500,4294967284,0.00,0.00,0.00,0.00,0.00,0.00,0.00,0.00,0.00,0.00,0.00,0.00
8964520,0.005,0.001,0.994,0.04,-0.02,-0.02,-0.00,-0.27,1000,1000,1000,1000,1000,1000,0,1500,1500,989,1500,4294967285,0.00,0.00,0.00,0.00,0.00,0.00,0.00,0.00,0.00,0.00,0.00,0.00
8968520,0.006,0.005,0.973,0.10,-0.05,-0.00,0.04,-0.28,1000,1000,1000,1000,1000,1000,0,1500,1500,989,1500,4294967284,0.00,0.00,0.00,0.00,0.00,0.00,0.00,0.00,0.00,0.00,0.00,0.00
8972520,0.007,0.010,0.930,0.25,-0.04,0.02,0.09,-0.30,1000,1000,1000,1000,1000,1000,0,1500,1500,989,1500,4294967283,0.00,0.00,0.00,0.00,0.00,0.00,0.00,0.00,0.00,0.00,0.00,0.00
8976520,0.008,0.012,0.889,0.44,0.03,0.04,0.13,-0.31,1000,1000,1000,1000,1000,1000,0,1500,1500,989,1500,4294967284,0.00,0.00,0.00,0.00,0.00,0.00,0.00,0.00,0.00,0.00,0.00,0.00
8980520,0.007,0.009,0.888,0.45,0.15,0.07,0.18,-0.32,1000,1000,1000,1000,1000,1000,0,1500,1500,989,1500,4294967285,0.00,0.00,0.00,0.00,0.00,0.00,0.00,0.00,0.00,0.00,0.00,0.00
8984520,0.008,0.008,0.928,0.31,0.24,0.09,0.22,-0.35,1000,1000,1000,1000,1000,1000,0,1500,1500,989,1500,4294967284,0.00,0.00,0.00,0.00,0.00,0.00,0.00,0.00,0.00,0.00,0.00,0.00
8988520,0.010,0.007,0.992,0.16,0.26,0.09,0.25,-0.38,1000,1000,1000,1000,1000,1000,0,1500,1500,989,1500,4294967283,0.00,0.00,0.00,0.00,0.00,0.00,0.00,0.00,0.00,0.00,0.00,0.00
8992520,0.012,0.007,1.061,0.08,0.22,0.07,0.27,-0.42,1000,1000,1000,1000,1000,1000,0,1500,1500,989,1500,3987,0.00,0.00,0.00,0.00,0.00,0.00,0.00,0.00,0.00,0.00,0.00,0.00
8996520,0.010,0.005,1.112,0.03,0.19,0.04,0.26,-0.46,1000,1000,1000,1000,1000,1000,0,1500,1500,989,1500,7987,0.00,0.00,0.00,0.00,0.00,0.00,0.00,0.00,0.00,0.00,0.00,0.00
9000520,0.003,-0.001,1.119,0.02,0.12,0.02,0.23,-0.43,1000,1000,1000,1000,1000,1000,0,1500,1500,989,1500,4294967284,0.00,0.00,0.00,0.00,0.00,0.00,0.00,0.00,0.00,0.00,0.00,0.00
9004520,-0.006,-0.009,1.086,-0.02,0.05,0.01,0.20,-0.39,1000,1000,1000,1000,1000,1000,0,1500,1500,989,1500,4294967284,0.00,0.00,0.00,0.00,0.00,0.00,0.00,0.00,0.00,0.00,0.00,0.00
9008520,-0.010,-0.016,1.040,-0.09,0.05,-0.02,0.16,-0.36,1000,1000,1000,1000,1000,1000,0,1500,1500,989,1500,4294967284,0.00,0.00,0.00,0.00,0.00,0.00,0.00,0.00,0.00,0.00,0.00,0.00
9012520,-0.009,-0.019,1.003,-0.15,0.06,-0.04,0.12,-0.34,1000,1000,1000,1000,1000,1000,0,1500,1500,989,1500,4294967283,0.00,0.00,0.00,0.00,0.00,0.00,0.00,0.00,0.00,0.00,0.00,0.00
9016520,-0.002,-0.012,0.984,-0.13,0.04,-0.06,0.08,-0.31,1000,1000,1000,1000,1000,1000,0,1500,1500,989,1500,4294967284,0.00,0.00,0.00,0.00,0.00,0.00,0.00,0.00,0.00,0.00,0.00,0.00
9020520,0.008,-0.005,0.986,-0.10,0.04,-0.07,0.04,-0.33,1000,1000,1000,1000,1000,1000,0,1500,1500,989,1500,4294967284,0.00,0.00,0.00,0.00,0.00,0.00,0.00,0.00,0.00,0.00,0.00,0.00
9024520,0.016,0.000,1.000,-0.06,0.01,-0.06,0.04,-0.38,1000,1000,1000,1000,1000,1000,0,1500,1500,989,1500,4294967284,0.00,0.00,0.00,0.00,0.00,0.00,0.00,0.00,0.00,0.00,0.00,0.00
9028520,0.017,0.002,1.016,-0.03,-0.00,-0.05,0.04,-0.42,1000,1000,1000,1000,1000,1000,0,1500,1500,989,1500,4294967283,0.00,0.00,0.00,0.00,0.00,0.00,0.00,0.00,0.00,0.00,0.00,0.00
9032520,0.010,0.000,1.023,-0.02,0.01,-0.04,0.03,-0.47,1000,1000,1000,1000,1000,1000,0,1500,1500,989,1500,4294967284,0.00,0.00,0.00,0.00,0.00,0.00,0.00,0.00,0.00,0.00,0.00,0.00
9036520,0.001,-0.003,1.020,-0.02,0.02,-0.02,0.01,-0.43,1000,1000,1000,1000,1000,1000,0,1500,1500,989,1500,4294967285,0.00,0.00,0.00,0.00,0.00,0.00,0.00,0.00,0.00,0.00,0.00,0.00
9040520,-0.009,-0.004,1.011,-0.05,0.04,-0.01,-0.00,-0.38,1000,1000,1000,1000,1000,1000,0,1500,1500,989,1500,4294967284,0.00,0.00,0.00,0.00,0.00,0.00,0.00,0.00,0.00,0.00,0.00,0.00
9044520,-0.014,-0.004,1.001,-0.06,0.05,0.02,-0.01,-0.34,1000,1000,1000,1000,1000,1000,0,1500,1500,989,1500,4294967283,0.00,0.00,0.00,0.00,0.00,0.00,0.00,0.00,0.00,0.00,0.00,0.00
9048520,-0.012,-0.004,0.994,-0.05,0.04,0.03,-0.02,-0.29,1000,1000,1000,1000,1000,1000,0,1500,1500,989,1500,4294967284,0.00,0.00,0.00,0.00,0.00,0.00,0.00,0.00,0.00,0.00,0.00,0.00
9052520,-0.005,-0.002,0.991,-0.02,0.04,0.03,-0.03,-0.25,1000,1000,1000,1000,1000,1000,0,1500,1500,989,1500,4294967285,0.00,0.00,0.00,0.00,0.00,0.00,0.00,0.00,0.00,0.00,0.00,0.00
9056520,0.002,0.000,0.993,0.01,0.03,0.03,-0.01,-0.20,1000,1000,1000,1000,1000,1000,0,1500,1500,989,1500,4294967284,0.00,0.00,0.00,0.00,0.00,0.00,0.00,0.00,0.00,0.00,0.00,0.00
9060520,0.007,0.001,1.003,0.01,0.02,0.03,0.01,-0.25,1000,1000,1000,1000,1000,1000,0,1500,1500,989,1500,4294967283,0.00,0.00,0.00,0.00,0.00,0.00,0.00,0.00,0.00,0.00,0.00,0.00
9064520,0.007,-0.000,1.013,0.01,0.00,0.03,-0.00,-0.29,1000,1000,1000,1000,1000,1000,0,1500,1500,989,1500,4294967284,0.00,0.00,0.00,0.00,0.00,0.00,0.00,0.00,0.00,0.00,0.00,0.00
9068520,0.004,-0.004,1.019,0.01,-0.00,0.04,-0.05,-0.28,1000,1000,1000,1000,1000,1000,0,1500,1500,989,1500,4294967285,0.00,0.00,0.00,0.00,0.00,0.00,0.00,0.00,0.00,0.00,0.00,0.00
9072520,-0.002,-0.010,1.016,0.01,-0.00,0.04,-0.08,-0.25,1000,1000,1000,1000,1000,1000,0,1500,1500,989,1500,4294967284,0.00,0.00,0.00,0.00,0.00,0.00,0.00,0.00,0.00,0.00,0.00,0.00
9076520,-0.006,-0.011,1.017,-0.00,0.00,0.05,-0.11,-0.22,1000,1000,1000,1000,1000,1000,0,1500,1500,989,1500,4294967283,0.00,0.00,0.00,0.00,0.00,0.00,0.00,0.00,0.00,0.00,0.00,0.00
9080520,-0.007,-0.008,1.014,0.00,-0.00,0.05,-0.14,-0.18,1000,1000,1000,1000,1000,1000,0,1500,1500,989,1500,4294967284,0.00,0.00,0.00,0.00,0.00,0.00,0.00,0.00,0.00,0.00,0.00,0.00
9084520,-0.006,-0.005,1.013,0.01,-0.00,0.06,-0.15,-0.13,1000,1000,1000,1000,1000,1000,0,1500,1500,989,1500,4294967285,0.00,0.00,0.00,0.00,0.00,0.00,0.00,0.00,0.00,0.00,0.00,0.00
