t_us,ax_g,ay_g,az_g,gx_dps,gy_dps,gz_dps,roll_deg,pitch_deg,throttle_us,motor_us,m1,m2,m3,m4,mode,rc_roll,rc_pitch,rc_throttle,rc_yaw,rc_age_us,att_sp_roll,att_sp_pitch,att_sp_yaw,rate_sp_roll,rate_sp_pitch,rate_sp_yaw,rate_meas_roll,rate_meas_pitch,rate_meas_yaw,rate_out_roll,rate_out_pitch,rate_out_yaw
7628522,-0.002,-0.000,0.994,-0.04,-0.02,-0.01,0.04,0.08,1000,1000,1000,1000,1000,1000,0,1500,1500,989,1500,4294967283,0.00,0.00,0.00,0.00,0.00,0.00,0.00,0.00,0.00,0.00,0.00,0.00
7632522,-0.002,-0.001,0.992,-0.04,-0.00,-0.02,-0.00,0.11,1000,1000,1000,1000,1000,1000,0,1500,1500,989,1500,4294967284,0.00,0.00,0.00,0.00,0.00,0.00,0.00,0.00,0.00,0.00,0.00,0.00
7636522,-0.001,-0.001,0.993,-0.03,0.00,-0.02,-0.05,0.09,1000,1000,1000,1000,1000,1000,0,1500,1500,989,1500,4294967285,0.00,0.00,0.00,0.00,0.00,0.00,0.00,0.00,0.00,0.00,0.00,0.00
7640522,-0.002,-0.002,0.996,-0.01,-0.01,-0.02,-0.09,0.11,1000,1000,1000,1000,1000,1000,0,1500,1500,989,1500,4294967284,0.00,0.00,0.00,0.00,0.00,0.00,0.00,0.00,0.00,0.00,0.00,0.00
7644522,-0.001,-0.003,0.994,-0.00,-0.01,-0.01,-0.12,0.08,1000,1000,1000,1000,1000,1000,0,1500,1500,989,1500,4294967283,0.00,0.00,0.00,0.00,0.00,0.00,0.00,0.00,0.00,0.00,0.00,0.00
7648522,-0.000,-0.003,0.996,-0.00,-0.01,-0.01,-0.15,0.05,1000,1000,1000,1000,1000,1000,0,1500,1500,989,1500,4294967284,0.00,0.00,0.00,0.00,0.00,0.00,0.00,0.00,0.00,0.00,0.00,0.00
7652522,-0.002,-0.004,0.997,0.01,-0.02,-0.00,-0.19,0.07,1000,1000,1000,1000,1000,1000,0,1500,1500,989,1500,4294967285,0.00,0.00,0.00,0.00,0.00,0.00,0.00,0.00,0.00,0.00,0.00,0.00
7656522,-0.001,-0.005,0.998,0.00,-0.01,-0.01,-0.24,0.06,1000,1000,1000,1000,1000,1000,0,1500,1500,989,1500,4294967284,0.00,0.00,0.00,0.00,0.00,0.00,0.00,0.00,0.00,0.00,0.00,0.00
7660522,-0.002,-0.005,0.997,-0.00,-0.01,-0.02,-0.27,0.10,1000,1000,1000,1000,1000,1000,0,1500,1500,989,1500,4294967283,0.00,0.00,0.00,0.00,0.00,0.00,0.00,0.00,0.00,0.00,0.00,0.00
7664522,-0.001,-0.003,0.995,-0.00,-0.00,-0.02,-0.23,0.08,1000,1000,1000,1000,1000,1000,0,1500,1500,989,1500,4294967284,0.00,0.00,0.00,0.00,0.00,0.00,0.00,0.00,0.00,0.00,0.00,0.00
7668522,0.001,-0.002,0.994,-0.01,0.00,-0.01,-0.20,0.04,1000,1000,1000,1000,1000,1000,0,1500,1500,989,1500,4294967285,0.00,0.00,0.00,0.00,0.00,0.00,0.00,0.00,0.00,0.00,0.00,0.00
7672522,0.002,-0.002,0.994,-0.00,-0.01,-0.01,-0.18,0.00,1000,1000,1000,1000,1000,1000,0,1500,1500,989,1500,4294967284,0.00,0.00,0.00,0.00,0.00,0.00,0.00,0.00,0.00,0.00,0.00,0.00
7676522,0.001,-0.001,0.993,0.01,-0.00,-0.02,-0.14,-0.02,1000,1000,1000,1000,1000,1000,0,1500,1500,989,1500,4294967283,0.00,0.00,0.00,0.00,0.00,0.00,0.00,0.00,0.00,0.00,0.00,0.00
7680522,0.001,-0.001,0.993,0.01,0.00,-0.01,-0.10,-0.04,1000,1000,1000,1000,1000,1000,0,1500,1500,989,1500,4294967282,0.00,0.00,0.00,0.00,0.00,0.00,0.00,0.00,0.00,0.00,0.00,0.00
7684522,0.001,-0.002,0.992,0.01,0.00,-0.01,-0.13,-0.07,1000,1000,1000,1000,1000,1000,0,1500,1500,989,1500,4294967285,0.00,0.00,0.00,0.00,0.00,0.00,0.00,0.00,0.00,0.00,0.00,0.00
7688522,0.002,-0.003,0.992,-0.00,-0.01,-0.02,-0.17,-0.09,1000,1000,1000,1000,1000,1000,0,1500,1500,989,1500,4294967284,0.00,0.00,0.00,0.00,0.00,0.00,0.00,0.00,0.00,0.00,0.00,0.00
7692522,0.003,-0.002,0.990,-0.02,-0.01,-0.01,-0.16,-0.14,1000,1000,1000,1000,1000,1000,0,1500,1500,989,1500,4294967283,0.00,0.00,0.00,0.00,0.00,0.00,0.00,0.00,0.00,0.00,0.00,0.00
7696522,0.004,-0.002,0.989,-0.01,-0.00,-0.01,-0.13,-0.17,1000,1000,1000,1000,1000,1000,0,1500,1500,989,1500,4294967284,0.00,0.00,0.00,0.00,0.00,0.00,0.00,0.00,0.00,0.00,0.00,0.00
7700522,0.003,-0.001,0.990,-0.02,-0.02,-0.01,-0.08,-0.18,1000,1000,1000,1000,1000,1000,0,1500,1500,989,1500,4294967285,0.00,0.00,0.00,0.00,0.00,0.00,0.00,0.00,0.00,0.00,0.00,0.00
7704522,0.001,-0.000,0.992,-0.03,-0.02,-0.00,-0.06,-0.14,1000,1000,1000,1000,1000,1000,0,1500,1500,989,1500,4294967284,0.00,0.00,0.00,0.00,0.00,0.00,0.00,0.00,0.00,0.00,0.00,0.00
7708522,-0.001,-0.002,0.995,-0.01,-0.01,-0.01,-0.07,-0.09,1000,1000,1000,1000,1000,1000,0,1500,1500,989,1500,4294967283,0.00,0.00,0.00,0.00,0.00,0.00,0.00,0.00,0.00,0.00,0.00,0.00
7712522,-0.002,-0.002,1.000,-0.02,-0.00,-0.01,-0.08,-0.05,1000,1000,1000,1000,1000,1000,0,1500,1500,989,1500,4294967284,0.00,0.00,0.00,0.00,0.00,0.00,0.00,0.00,0.00,0.00,0.00,0.00
7716522,-0.003,-0.001,1.002,-0.02,0.01,-0.02,-0.08,0.00,1000,1000,1000,1000,1000,1000,0,1500,1500,989,1500,4294967285,0.00,0.00,0.00,0.00,0.00,0.00,0.00,0.00,0.00,0.00,0.00,0.00
7720522,-0.003,0.001,1.004,-0.02,0.00,-0.04,-0.05,0.04,1000,1000,1000,1000,1000,1000,0,1500,1500,989,1500,4294967284,0.00,0.00,0.00,0.00,0.00,0.00,0.00,0.00,0.00,0.00,0.00,0.00
7724522,-0.004,0.001,1.003,-0.04,-0.00,-0.04,-0.03,0.08,1000,1000,1000,1000,1000,1000,0,1500,1500,989,1500,4294967283,0.00,0.00,0.00,0.00,0.00,0.00,0.00,0.00,0.00,0.00,0.00,0.00
7728522,-0.003,0.001,0.999,-0.03,0.00,-0.02,0.00,0.11,1000,1000,1000,1000,1000,1000,0,1500,1500,989,1500,3987,0.00,0.00,0.00,0.00,0.00,0.00,0.00,0.00,0.00,0.00,0.00,0.00
7732522,-0.002,0.002,0.997,-0.03,-0.02,-0.00,0.05,0.12,1000,1000,1000,1000,1000,1000,0,1500,1500,989,1500,4294967284,0.00,0.00,0.00,0.00,0.00,0.00,0.00,0.00,0.00,0.00,0.00,0.00
7736522,-0.003,0.003,0.997,-0.03,-0.01,0.01,0.09,0.13,1000,1000,1000,1000,1000,1000,0,1500,1500,989,1500,4294967285,0.00,0.00,0.00,0.00,0.00,0.00,0.00,0.00,0.00,0.00,0.00,0.00
7740522,-0.003,0.002,0.996,-0.03,-0.01,0.01,0.11,0.17,1000,1000,1000,1000,1000,1000,0,1500,1500,989,1500,4294967284,0.00,0.00,0.00,0.00,0.00,0.00,0.00,0.00,0.00,0.00,0.00,0.00
7744522,-0.004,0.001,0.995,-0.02,-0.02,0.01,0.08,0.20,1000,1000,1000,1000,1000,1000,0,1500,1500,989,1500,4294967283,0.00,0.00,0.00,0.00,0.00,0.00,0.00,0.00,0.00,0.00,0.00,0.00
7748522,-0.004,-0.001,0.995,-0.01,-0.03,-0.01,0.04,0.21,1000,1000,1000,1000,1000,1000,0,1500,1500,989,1500,4294967284,0.00,0.00,0.00,0.00,0.00,0.00,0.00,0.00,0.00,0.00,0.00,0.00
7752522,-0.004,-0.003,0.994,0.00,-0.04,-0.02,-0.01,0.22,1000,1000,1000,1000,1000,1000,0,1500,1500,989,1500,4294967285,0.00,0.00,0.00,0.00,0.00,0.00,0.00,0.00,0.00,0.00,0.00,0.00
7756522,-0.005,-0.004,0.994,0.00,-0.04,-0.02,-0.05,0.23,1000,1000,1000,1000,1000,1000,0,1500,1500,989,1500,4294967284,0.00,0.00,0.00,0.00,0.00,0.00,0.00,0.00,0.00,0.00,0.00,0.00
7760522,-0.004,-0.003,0.996,-0.01,-0.05,-0.02,-0.10,0.24,1000,1000,1000,1000,1000,1000,0,1500,1500,989,1500,4294967283,0.00,0.00,0.00,0.00,0.00,0.00,0.00,0.00,0.00,0.00,0.00,0.00
7764522,-0.004,-0.002,0.997,-0.02,-0.04,0.00,-0.14,0.21,1000,1000,1000,1000,1000,1000,0,1500,1500,989,1500,4294967284,0.00,0.00,0.00,0.00,0.00,0.00,0.00,0.00,0.00,0.00,0.00,0.00
7768522,-0.003,-0.000,0.999,-0.01,-0.03,-0.01,-0.09,0.20,1000,1000,1000,1000,1000,1000,0,1500,1500,989,1500,4294967285,0.00,0.00,0.00,0.00,0.00,0.00,0.00,0.00,0.00,0.00,0.00,0.00
7772522,-0.003,0.001,1.000,-0.01,-0.03,-0.02,-0.05,0.19,1000,1000,1000,1000,1000,1000,0,1500,1500,989,1500,4294967284,0.00,0.00,0.00,0.00,0.00,0.00,0.00,0.00,0.00,0.00,0.00,0.00
7776522,-0.003,0.001,1.000,-0.02,-0.02,-0.02,-0.00,0.18,1000,1000,1000,1000,1000,1000,0,1500,1500,989,1500,4294967283,0.00,0.00,0.00,0.00,0.00,0.00,0.00,0.00,0.00,0.00,0.00,0.00
7780522,-0.002,0.001,1.002,-0.02,-0.02,-0.04,0.03,0.15,1000,1000,1000,1000,1000,1000,0,1500,1500,989,1500,4294967284,0.00,0.00,0.00,0.00,0.00,0.00,0.00,0.00,0.00,0.00,0.00,0.00
7784522,-0.001,0.003,1.003,-0.02,-0.00,-0.04,0.07,0.13,1000,1000,1000,1000,1000,1000,0,1500,1500,989,1500,4294967284,0.00,0.00,0.00,0.00,0.00,0.00,0.00,0.00,0.00,0.00,0.00,0.00
7788522,0.000,0.004,1.003,-0.01,0.01,-0.02,0.10,0.09,1000,1000,1000,1000,1000,1000,0,1500,1500,989,1500,4294967284,0.00,0.00,0.00,0.00,0.00,0.00,0.00,0.00,0.00,0.00,0.00,0.00
7792522,0.001,0.002,1.003,0.01,0.02,-0.01,0.11,0.05,1000,1000,1000,1000,1000,1000,0,1500,1500,989,1500,4294967283,0.00,0.00,0.00,0.00,0.00,0.00,0.00,0.00,0.00,0.00,0.00,0.00
7796522,0.001,-0.000,1.003,0.02,0.01,-0.02,0.07,0.02,1000,1000,1000,1000,1000,1000,0,1500,1500,989,1500,4294967284,0.00,0.00,0.00,0.00,0.00,0.00,0.00,0.00,0.00,0.00,0.00,0.00
7800522,0.001,-0.002,1.003,0.02,0.00,-0.02,0.03,0.01,1000,1000,1000,1000,1000,1000,0,1500,1500,989,1500,4294967285,0.00,0.00,0.00,0.00,0.00,0.00,0.00,0.00,0.00,0.00,0.00,0.00
7804522,0.000,-0.003,1.004,0.00,0.00,-0.01,-0.02,0.00,1000,1000,1000,1000,1000,1000,0,1500,1500,989,1500,4294967284,0.00,0.00,0.00,0.00,0.00,0.00,0.00,0.00,0.00,0.00,0.00,0.00
7808522,-0.001,-0.003,1.004,0.00,-0.00,-0.00,-0.06,0.02,1000,1000,1000,1000,1000,1000,0,1500,1500,989,1500,4294967283,0.00,0.00,0.00,0.00,0.00,0.00,0.00,0.00,0.00,0.00,0.00,0.00
7812522,-0.002,-0.003,1.004,-0.01,0.00,0.00,-0.10,0.04,1000,1000,1000,1000,1000,1000,0,1500,1500,989,1500,4294967284,0.00,0.00,0.00,0.00,0.00,0.00,0.00,0.00,0.00,0.00,0.00,0.00
7816522,-0.002,-0.004,1.004,-0.00,0.01,0.01,-0.14,0.06,1000,1000,1000,1000,1000,1000,0,1500,1500,989,1500,4294967285,0.00,0.00,0.00,0.00,0.00,0.00,0.00,0.00,0.00,0.00,0.00,0.00
7820522,-0.004,-0.006,1.003,-0.00,0.01,0.01,-0.17,0.09,1000,1000,1000,1000,1000,1000,0,1500,1500,989,1500,4294967284,0.00,0.00,0.00,0.00,0.00,0.00,0.00,0.00,0.00,0.00,0.00,0.00
7824522,-0.005,-0.005,1.003,-0.01,0.00,0.01,-0.20,0.13,1000,1000,1000,1000,1000,1000,0,1500,1500,989,1500,4294967283,0.00,0.00,0.00,0.00,0.00,0.00,0.00,0.00,0.00,0.00,0.00,0.00
7828522,-0.004,-0.004,1.003,-0.00,-0.01,0.00,-0.22,0.17,1000,1000,1000,1000,1000,1000,0,1500,1500,989,1500,4294967284,0.00,0.00,0.00,0.00,0.00,0.00,0.00,0.00,0.00,0.00,0.00,0.00
7832522,-0.004,-0.004,1.003,0.01,-0.01,-0.00,-0.24,0.21,1000,1000,1000,1000,1000,1000,0,1500,1500,989,1500,4294967285,0.00,0.00,0.00,0.00,0.00,0.00,0.00,0.00,0.00,0.00,0.00,0.00
7836522,-0.003,-0.005,1.001,0.01,-0.02,0.02,-0.27,0.18,1000,1000,1000,1000,1000,1000,0,1500,1500,989,1500,4294967284,0.00,0.00,0.00,0.00,0.00,0.00,0.00,0.00,0.00,0.00,0.00,0.00
7840522,-0.001,-0.004,1.001,0.00,-0.03,0.01,-0.25,0.14,1000,1000,1000,1000,1000,1000,0,1500,1500,989,1500,4294967283,0.00,0.00,0.00,0.00,0.00,0.00,0.00,0.00,0.00,0.00,0.00,0.00
7844522,0.000,-0.004,1.001,-0.01,-0.01,0.01,-0.24,0.10,1000,1000,1000,1000,1000,1000,0,1500,1500,989,1500,4294967284,0.00,0.00,0.00,0.00,0.00,0.00,0.00,0.00,0.00,0.00,0.00,0.00
7848522,0.002,-0.004,1.000,-0.00,0.00,0.00,-0.23,0.05,1000,1000,1000,1000,1000,1000,0,1500,1500,989,1500,4294967285,0.00,0.00,0.00,0.00,0.00,0.00,0.00,0.00,0.00,0.00,0.00,0.00
7852522,0.002,-0.005,1.001,-0.00,0.02,0.00,-0.24,0.00,1000,1000,1000,1000,1000,1000,0,1500,1500,989,1500,4294967284,0.00,0.00,0.00,0.00,0.00,0.00,0.00,0.00,0.00,0.00,0.00,0.00
7856522,0.003,-0.004,1.000,-0.01,0.02,0.01,-0.24,-0.04,1000,1000,1000,1000,1000,1000,0,1500,1500,989,1500,4294967283,0.00,0.00,0.00,0.00,0.00,0.00,0.00,0.00,0.00,0.00,0.00,0.00
7860522,0.003,-0.005,1.001,-0.02,0.02,0.00,-0.26,-0.08,1000,1000,1000,1000,1000,1000,0,1500,1500,989,1500,4294967284,0.00,0.00,0.00,0.00,0.00,0.00,0.00,0.00,0.00,0.00,0.00,0.00
7864522,0.003,-0.005,1.002,-0.03,0.01,0.00,-0.26,-0.13,1000,1000,1000,1000,1000,1000,0,1500,1500,989,1500,4294967285,0.00,0.00,0.00,0.00,0.00,0.00,0.00,0.00,0.00,0.00,0.00,0.00
7868522,0.002,-0.005,1.003,-0.01,0.02,0.00,-0.30,-0.10,1000,1000,1000,1000,1000,1000,0,1500,1500,989,1500,4294967284,0.00,0.00,0.00,0.00,0.00,0.00,0.00,0.00,0.00,0.00,0.00,0.00
7872522,0.001,-0.004,1.003,0.02,0.01,-0.00,-0.25,-0.09,1000,1000,1000,1000,1000,1000,0,1500,1500,989,1500,4294967283,0.00,0.00,0.00,0.00,0.00,0.00,0.00,0.00,0.00,0.00,0.00,0.00
7876522,0.000,-0.004,1.004,0.04,-0.00,0.00,-0.23,-0.05,1000,1000,1000,1000,1000,1000,0,1500,1500,989,1500,4294967284,0.00,0.00,0.00,0.00,0.00,0.00,0.00,0.00,0.00,0.00,0.00,0.00
7880522,-0.001,-0.004,1.003,0.03,0.00,0.01,-0.22,-0.00,1000,1000,1000,1000,1000,1000,0,1500,1500,989,1500,4294967285,0.00,0.00,0.00,0.00,0.00,0.00,0.00,0.00,0.00,0.00,0.00,0.00
7884522,-0.000,-0.004,1.005,0.01,-0.01,0.03,-0.21,0.04,1000,1000,1000,1000,1000,1000,0,1500,1500,989,1500,4294967282,0.00,0.00,0.00,0.00,0.00,0.00,0.00,0.00,0.00,0.00,0.00,0.00
7888522,0.000,-0.004,1.005,0.02,-0.01,0.03,-0.23,0.01,1000,1000,1000,1000,1000,1000,0,1500,1500,989,1500,4294967283,0.00,0.00,0.00,0.00,0.00,0.00,0.00,0.00,0.00,0.00,0.00,0.00
7892522,0.002,-0.003,1.003,0.02,-0.00,0.02,-0.21,-0.03,1000,1000,1000,1000,1000,1000,0,1500,1500,989,1500,4294967284,0.00,0.00,0.00,0.00,0.00,0.00,0.00,0.00,0.00,0.00,0.00,0.00
7896522,0.002,-0.003,1.002,0.03,-0.01,0.01,-0.19,-0.07,1000,1000,1000,1000,1000,1000,0,1500,1500,989,1500,4294967285,0.00,0.00,0.00,0.00,0.00,0.00,0.00,0.00,0.00,0.00,0.00,0.00
7900522,0.002,-0.002,1.004,0.02,-0.02,0.00,-0.15,-0.10,1000,1000,1000,1000,1000,1000,0,1500,1500,989,1500,4294967284,0.00,0.00,0.00,0.00,0.00,0.00,0.00,0.00,0.00,0.00,0.00,0.00
7904522,0.000,-0.001,1.004,0.02,-0.03,-0.00,-0.12,-0.06,1000,1000,1000,1000,1000,1000,0,1500,1500,989,1500,4294967283,0.00,0.00,0.00,0.00,0.00,0.00,0.00,0.00,0.00,0.00,0.00,0.00
7908522,0.001,-0.002,1.004,0.01,-0.02,-0.02,-0.09,-0.03,1000,1000,1000,1000,1000,1000,0,1500,1500,989,1500,4294967284,0.00,0.00,0.00,0.00,0.00,0.00,0.00,0.00,0.00,0.00,0.00,0.00
7912522,0.001,-0.002,1.001,-0.00,-0.02,-0.02,-0.12,-0.06,1000,1000,1000,1000,1000,1000,0,1500,1500,989,1500,4294967285,0.00,0.00,0.00,0.00,0.00,0.00,0.00,0.00,0.00,0.00,0.00,0.00
7916522,0.000,-0.002,0.999,-0.02,0.00,-0.02,-0.11,-0.02,1000,1000,1000,1000,1000,1000,0,1500,1500,989,1500,4294967284,0.00,0.00,0.00,0.00,0.00,0.00,0.00,0.00,0.00,0.00,0.00,0.00
7920522,0.001,-0.002,0.996,-0.01,0.00,-0.03,-0.11,-0.06,1000,1000,1000,1000,1000,1000,0,1500,1500,989,1500,4294967283,0.00,0.00,0.00,0.00,0.00,0.00,0.00,0.00,0.00,0.00,0.00,0.00
7924522,0.003,-0.002,0.994,-0.02,0.01,-0.03,-0.13,-0.11,1000,1000,1000,1000,1000,1000,0,1500,1500,989,1500,4294967284,0.00,0.00,0.00,0.00,0.00,0.00,0.00,0.00,0.00,0.00,0.00,0.00
7928522,0.002,-0.003,0.996,-0.03,0.02,-0.03,-0.17,-0.12,1000,1000,1000,1000,1000,1000,0,1500,1500,989,1500,4294967285,0.00,0.00,0.00,0.00,0.00,0.00,0.00,0.00,0.00,0.00,0.00,0.00
7932522,0.002,-0.003,0.996,-0.04,0.03,-0.04,-0.20,-0.15,1000,1000,1000,1000,1000,1000,0,1500,1500,989,1500,4294967284,0.00,0.00,0.00,0.00,0.00,0.00,0.00,0.00,0.00,0.00,0.00,0.00
7936522,0.002,-0.004,0.996,-0.03,0.01,-0.02,-0.21,-0.11,1000,1000,1000,1000,1000,1000,0,1500,1500,989,1500,4294967283,0.00,0.00,0.00,0.00,0.00,0.00,0.00,0.00,0.00,0.00,0.00,0.00
7940522,0.003,-0.004,0.998,-0.03,-0.01,0.00,-0.23,-0.15,1000,1000,1000,1000,1000,1000,0,1500,1500,989,1500,3987,0.00,0.00,0.00,0.00,0.00,0.00,0.00,0.00,0.00,0.00,0.00,0.00
7944522,0.002,-0.005,1.001,-0.04,-0.01,0.00,-0.26,-0.12,1000,1000,1000,1000,1000,1000,0,1500,1500,989,1500,4294967284,0.00,0.00,0.00,0.00,0.00,0.00,0.00,0.00,0.00,0.00,0.00,0.00
7948522,0.001,-0.004,1.004,-0.02,-0.02,0.01,-0.25,-0.08,1000,1000,1000,1000,1000,1000,0,1500,1500,989,1500,4294967285,0.00,0.00,0.00,0.00,0.00,0.00,0.00,0.00,0.00,0.00,0.00,0.00
7952522,-0.002,-0.004,1.004,-0.00,-0.02,0.03,-0.24,-0.03,1000,1000,1000,1000,1000,1000,0,1500,1500,989,1500,4294967284,0.00,0.00,0.00,0.00,0.00,0.00,0.00,0.00,0.00,0.00,0.00,0.00
7956522,-0.002,-0.005,1.002,-0.01,-0.02,0.02,-0.25,0.01,1000,1000,1000,1000,1000,1000,0,1500,1500,989,1500,4294967283,0.00,0.00,0.00,0.00,0.00,0.00,0.00,0.00,0.00,0.00,0.00,0.00
7960522,-0.001,-0.004,1.003,-0.01,-0.02,0.01,-0.25,0.06,1000,1000,1000,1000,1000,1000,0,1500,1500,989,1500,4294967284,0.00,0.00,0.00,0.00,0.00,0.00,0.00,0.00,0.00,0.00,0.00,0.00
7964522,0.001,-0.004,1.003,-0.02,-0.01,0.00,-0.24,0.01,1000,1000,1000,1000,1000,1000,0,1500,1500,989,1500,4294967284,0.00,0.00,0.00,0.00,0.00,0.00,0.00,0.00,0.00,0.00,0.00,0.00
7968522,0.000,-0.003,0.999,-0.03,-0.01,-0.01,-0.19,-0.00,1000,1000,1000,1000,1000,1000,0,1500,1500,989,1500,4294967284,0.00,0.00,0.00,0.00,0.00,0.00,0.00,0.00,0.00,0.00,0.00,0.00
7972522,0.000,-0.003,0.996,-0.02,0.00,-0.02,-0.16,-0.03,1000,1000,1000,1000,1000,1000,0,1500,1500,989,1500,4294967283,0.00,0.00,0.00,0.00,0.00,0.00,0.00,0.00,0.00,0.00,0.00,0.00
7976522,0.000,-0.001,0.993,-0.01,0.00,-0.03,-0.11,-0.03,1000,1000,1000,1000,1000,1000,0,1500,1500,989,1500,4294967284,0.00,0.00,0.00,0.00,0.00,0.00,0.00,0.00,0.00,0.00,0.00,0.00
7980522,0.001,-0.001,0.993,-0.01,0.01,-0.02,-0.06,-0.03,1000,1000,1000,1000,1000,1000,0,1500,1500,989,1500,4294967285,0.00,0.00,0.00,0.00,0.00,0.00,0.00,0.00,0.00,0.00,0.00,0.00
7984522,0.000,-0.002,0.992,-0.01,0.01,0.00,-0.10,-0.00,1000,1000,1000,1000,1000,1000,0,1500,1500,989,1500,4294967282,0.00,0.00,0.00,0.00,0.00,0.00,0.00,0.00,0.00,0.00,0.00,0.00
7988522,-0.001,-0.003,0.993,-0.01,0.00,0.01,-0.14,0.02,1000,1000,1000,1000,1000,1000,0,1500,1500,989,1500,4294967283,0.00,0.00,0.00,0.00,0.00,0.00,0.00,0.00,0.00,0.00,0.00,0.00
7992522,-0.001,-0.003,0.997,-0.01,-0.01,0.01,-0.18,0.04,1000,1000,1000,1000,1000,1000,0,1500,1500,989,1500,4294967284,0.00,0.00,0.00,0.00,0.00,0.00,0.00,0.00,0.00,0.00,0.00,0.00
7996522,-0.001,-0.002,0.998,-0.03,-0.01,0.00,-0.14,0.04,1000,1000,1000,1000,1000,1000,0,1500,1500,989,1500,4294967285,0.00,0.00,0.00,0.00,0.00,0.00,0.00,0.00,0.00,0.00,0.00,0.00
8000522,-0.001,-0.001,0.998,-0.04,-0.02,-0.01,-0.09,0.04,1000,1000,1000,1000,1000,1000,0,1500,1500,989,1500,4294967284,0.00,0.00,0.00,0.00,0.00,0.00,0.00,0.00,0.00,0.00,0.00,0.00
8004522,-0.000,-0.001,0.999,-0.02,-0.01,0.00,-0.06,0.01,1000,1000,1000,1000,1000,1000,0,1500,1500,989,1500,4294967283,0.00,0.00,0.00,0.00,0.00,0.00,0.00,0.00,0.00,0.00,0.00,0.00
8008522,-0.000,-0.002,0.998,-0.01,-0.02,0.01,-0.10,0.01,1000,1000,1000,1000,1000,1000,0,1500,1500,989,1500,4294967284,0.00,0.00,0.00,0.00,0.00,0.00,0.00,0.00,0.00,0.00,0.00,0.00
8012522,0.000,-0.002,0.996,-0.01,-0.02,0.00,-0.15,-0.01,1000,1000,1000,1000,1000,1000,0,1500,1500,989,1500,4294967285,0.00,0.00,0.00,0.00,0.00,0.00,0.00,0.00,0.00,0.00,0.00,0.00
8016522,0.001,-0.002,0.994,-0.02,-0.03,-0.02,-0.14,-0.06,1000,1000,1000,1000,1000,1000,0,1500,1500,989,1500,4294967284,0.00,0.00,0.00,0.00,0.00,0.00,0.00,0.00,0.00,0.00,0.00,0.00
8020522,0.002,-0.002,0.993,-0.02,-0.03,-0.02,-0.14,-0.11,1000,1000,1000,1000,1000,1000,0,1500,1500,989,1500,4294967283,0.00,0.00,0.00,0.00,0.00,0.00,0.00,0.00,0.00,0.00,0.00,0.00
8024522,0.002,-0.002,0.993,-0.02,-0.03,-0.02,-0.15,-0.15,1000,1000,1000,1000,1000,1000,0,1500,1500,989,1500,4294967284,0.00,0.00,0.00,0.00,0.00,0.00,0.00,0.00,0.00,0.00,0.00,0.00
8028522,0.003,-0.001,0.996,-0.03,-0.03,-0.03,-0.10,-0.17,1000,1000,1000,1000,1000,1000,0,1500,1500,989,1500,4294967285,0.00,0.00,0.00,0.00,0.00,0.00,0.00,0.00,0.00,0.00,0.00,0.00
8032522,0.005,-0.000,0.998,-0.03,-0.03,-0.03,-0.07,-0.20,1000,1000,1000,1000,1000,1000,0,1500,1500,989,1500,4294967284,0.00,0.00,0.00,0.00,0.00,0.00,0.00,0.00,0.00,0.00,0.00,0.00
8036522,0.005,0.001,0.999,-0.04,-0.03,-0.03,-0.04,-0.23,1000,1000,1000,1000,1000,1000,0,1500,1500,989,1500,4294967283,0.00,0.00,0.00,0.00,0.00,0.00,0.00,0.00,0.00,0.00,0.00,0.00
8040522,0.005,0.003,1.000,-0.03,-0.02,-0.02,0.01,-0.24,1000,1000,1000,1000,1000,1000,0,1500,1500,989,1500,4294967284,0.00,0.00,0.00,0.00,0.00,0.00,0.00,0.00,0.00,0.00,0.00,0.00
8044522,0.005,0.003,1.000,-0.02,-0.01,-0.01,0.05,-0.25,1000,1000,1000,1000,1000,1000,0,1500,1500,989,1500,4294967285,0.00,0.00,0.00,0.00,0.00,0.00,0.00,0.00,0.00,0.00,0.00,0.00
8048522,0.004,0.002,0.999,-0.02,-0.00,-0.01,0.10,-0.23,1000,1000,1000,1000,1000,1000,0,1500,1500,989,1500,4294967284,0.00,0.00,0.00,0.00,0.00,0.00,0.00,0.00,0.00,0.00,0.00,0.00
8052522,0.004,0.002,0.999,-0.00,-0.01,-0.00,0.13,-0.20,1000,1000,1000,1000,1000,1000,0,1500,1500,989,1500,4294967283,0.00,0.00,0.00,0.00,0.00,0.00,0.00,0.00,0.00,0.00,0.00,0.00
8056522,0.004,0.002,0.997,0.00,-0.01,0.01,0.09,-0.22,1000,1000,1000,1000,1000,1000,0,1500,1500,989,1500,4294967284,0.00,0.00,0.00,0.00,0.00,0.00,0.00,0.00,0.00,0.00,0.00,0.00
8060522,0.004,0.001,0.994,0.01,0.00,0.01,0.04,-0.22,1000,1000,1000,1000,1000,1000,0,1500,1500,989,1500,4294967285,0.00,0.00,0.00,0.00,0.00,0.00,0.00,0.00,0.00,0.00,0.00,0.00
8064522,0.002,0.001,0.991,-0.01,0.01,-0.01,0.04,-0.17,1000,1000,1000,1000,1000,1000,0,1500,1500,989,1500,4294967284,0.00,0.00,0.00,0.00,0.00,0.00,0.00,0.00,0.00,0.00,0.00,0.00
8068522,0.003,0.000,0.991,-0.02,0.00,-0.01,-0.00,-0.18,1000,1000,1000,1000,1000,1000,0,1500,1500,989,1500,4294967283,0.00,0.00,0.00,0.00,0.00,0.00,0.00,0.00,0.00,0.00,0.00,0.00
8072522,0.003,0.000,0.991,-0.01,0.01,-0.01,0.03,-0.16,1000,1000,1000,1000,1000,1000,0,1500,1500,989,1500,4294967284,0.00,0.00,0.00,0.00,0.00,0.00,0.00,0.00,0.00,0.00,0.00,0.00
8076522,0.004,0.001,0.991,-0.02,0.00,0.01,0.05,-0.20,1000,1000,1000,1000,1000,1000,0,1500,1500,989,1500,4294967285,0.00,0.00,0.00,0.00,0.00,0.00,0.00,0.00,0.00,0.00,0.00,0.00
8080522,0.004,0.002,0.991,-0.01,-0.01,0.00,0.09,-0.21,1000,1000,1000,1000,1000,1000,0,1500,1500,989,1500,4294967284,0.00,0.00,0.00,0.00,0.00,0.00,0.00,0.00,0.00,0.00,0.00,0.00
8084522,0.001,0.001,0.988,-0.00,-0.01,0.01,0.07,-0.17,1000,1000,1000,1000,1000,1000,0,1500,1500,989,1500,4294967281,0.00,0.00,0.00,0.00,0.00,0.00,0.00,0.00,0.00,0.00,0.00,0.00
8088522,-0.001,0.001,0.986,-0.01,-0.01,0.01,0.07,-0.12,1000,1000,1000,1000,1000,1000,0,1500,1500,989,1500,4294967284,0.00,0.00,0.00,0.00,0.00,0.00,0.00,0.00,0.00,0.00,0.00,0.00
8092522,-0.002,0.001,0.987,-0.01,0.01,-0.00,0.06,-0.08,1000,1000,1000,1000,1000,1000,0,1500,1500,989,1500,4294967285,0.00,0.00,0.00,0.00,0.00,0.00,0.00,0.00,0.00,0.00,0.00,0.00
8096522,-0.003,0.002,0.990,-0.01,0.00,-0.00,0.07,-0.03,1000,1000,1000,1000,1000,1000,0,1500,1500,989,1500,4294967284,0.00,0.00,0.00,0.00,0.00,0.00,0.00,0.00,0.00,0.00,0.00,0.00
8100522,-0.002,0.002,0.994,-0.02,0.01,-0.01,0.08,0.01,1000,1000,1000,1000,1000,1000,0,1500,1500,989,1500,3988,0.00,0.00,0.00,0.00,0.00,0.00,0.00,0.00,0.00,0.00,0.00,0.00
8104522,-0.003,0.002,0.996,-0.02,0.01,-0.02,0.09,0.06,1000,1000,1000,1000,1000,1000,0,1500,1500,989,1500,4294967283,0.00,0.00,0.00,0.00,0.00,0.00,0.00,0.00,0.00,0.00,0.00,0.00
8108522,-0.003,0.000,0.996,-0.02,0.02,-0.04,0.06,0.09,1000,1000,1000,1000,1000,1000,0,1500,1500,989,1500,4294967284,0.00,0.00,0.00,0.00,0.00,0.00,0.00,0.00,0.00,0.00,0.00,0.00
8112522,-0.002,-0.001,0.995,-0.03,0.02,-0.03,0.02,0.11,1000,1000,1000,1000,1000,1000,0,1500,1500,989,1500,4294967285,0.00,0.00,0.00,0.00,0.00,0.00,0.00,0.00,0.00,0.00,0.00,0.00
8116522,-0.002,-0.002,0.996,-0.03,0.00,-0.02,-0.03,0.10,1000,1000,1000,1000,1000,1000,0,1500,1500,989,1500,4294967284,0.00,0.00,0.00,0.00,0.00,0.00,0.00,0.00,0.00,0.00,0.00,0.00
8120522,-0.001,-0.002,0.996,-0.03,-0.02,-0.02,-0.06,0.07,1000,1000,1000,1000,1000,1000,0,1500,1500,989,1500,4294967283,0.00,0.00,0.00,0.00,0.00,0.00,0.00,0.00,0.00,0.00,0.00,0.00
8124522,0.001,-0.002,0.996,-0.03,-0.02,-0.03,-0.07,0.02,1000,1000,1000,1000,1000,1000,0,1500,1500,989,1500,4294967284,0.00,0.00,0.00,0.00,0.00,0.00,0.00,0.00,0.00,0.00,0.00,0.00
8128522,0.000,-0.001,0.995,-0.00,-0.02,-0.03,-0.07,-0.02,1000,1000,1000,1000,1000,1000,0,1500,1500,989,1500,3988,0.00,0.00,0.00,0.00,0.00,0.00,0.00,0.00,0.00,0.00,0.00,0.00
8132522,-0.000,0.001,0.996,0.01,-0.02,-0.01,-0.03,-0.01,1000,1000,1000,1000,1000,1000,0,1500,1500,989,1500,4294967285,0.00,0.00,0.00,0.00,0.00,0.00,0.00,0.00,0.00,0.00,0.00,0.00
8136522,0.000,0.003,0.997,-0.00,-0.03,-0.01,0.02,-0.01,1000,1000,1000,1000,1000,1000,0,1500,1500,989,1500,4294967284,0.00,0.00,0.00,0.00,0.00,0.00,0.00,0.00,0.00,0.00,0.00,0.00
8140522,0.001,0.003,0.997,-0.02,-0.02,-0.01,0.06,-0.02,1000,1000,1000,1000,1000,1000,0,1500,1500,989,1500,4294967283,0.00,0.00,0.00,0.00,0.00,0.00,0.00,0.00,0.00,0.00,0.00,0.00
8144522,0.000,0.003,0.997,-0.02,-0.02,-0.01,0.11,-0.02,1000,1000,1000,1000,1000,1000,0,1500,1500,989,1500,4294967284,0.00,0.00,0.00,0.00,0.00,0.00,0.00,0.00,0.00,0.00,0.00,0.00
8148522,0.000,0.002,0.999,-0.04,-0.03,-0.00,0.06,-0.01,1000,1000,1000,1000,1000,1000,0,1500,1500,989,1500,4294967285,0.00,0.00,0.00,0.00,0.00,0.00,0.00,0.00,0.00,0.00,0.00,0.00
8152522,-0.000,0.001,0.999,-0.03,-0.03,-0.00,0.04,0.03,1000,1000,1000,1000,1000,1000,0,1500,1500,989,1500,4294967284,0.00,0.00,0.00,0.00,0.00,0.00,0.00,0.00,0.00,0.00,0.00,0.00
8156522,-0.000,-0.000,0.997,-0.02,-0.03,0.00,-0.00,0.01,1000,1000,1000,1000,1000,1000,0,1500,1500,989,1500,4294967283,0.00,0.00,0.00,0.00,0.00,0.00,0.00,0.00,0.00,0.00,0.00,0.00
8160522,0.002,-0.001,0.998,-0.01,-0.03,0.01,-0.02,-0.03,1000,1000,1000,1000,1000,1000,0,1500,1500,989,1500,4294967284,0.00,0.00,0.00,0.00,0.00,0.00,0.00,0.00,0.00,0.00,0.00,0.00
8164522,0.003,-0.001,0.999,-0.04,-0.03,0.01,-0.04,-0.07,1000,1000,1000,1000,1000,1000,0,1500,1500,989,1500,4294967285,0.00,0.00,0.00,0.00,0.00,0.00,0.00,0.00,0.00,0.00,0.00,0.00
8168522,0.003,-0.002,1.000,-0.04,-0.02,-0.00,-0.07,-0.11,1000,1000,1000,1000,1000,1000,0,1500,1500,989,1500,4294967284,0.00,0.00,0.00,0.00,0.00,0.00,0.00,0.00,0.00,0.00,0.00,0.00
8172522,0.003,-0.003,0.999,-0.02,-0.01,-0.02,-0.10,-0.14,1000,1000,1000,1000,1000,1000,0,1500,1500,989,1500,4294967283,0.00,0.00,0.00,0.00,0.00,0.00,0.00,0.00,0.00,0.00,0.00,0.00
8176522,0.001,-0.004,0.997,-0.01,0.00,-0.02,-0.14,-0.11,1000,1000,1000,1000,1000,1000,0,1500,1500,989,1500,4294967284,0.00,0.00,0.00,0.00,0.00,0.00,0.00,0.00,0.00,0.00,0.00,0.00
8180522,-0.001,-0.004,0.997,-0.01,0.01,-0.03,-0.17,-0.08,1000,1000,1000,1000,1000,1000,0,1500,1500,989,1500,4294967285,0.00,0.00,0.00,0.00,0.00,0.00,0.00,0.00,0.00,0.00,0.00,0.00
8184522,-0.001,-0.005,0.996,-0.01,0.00,-0.03,-0.20,-0.05,1000,1000,1000,1000,1000,1000,0,1500,1500,989,1500,4294967284,0.00,0.00,0.00,0.00,0.00,0.00,0.00,0.00,0.00,0.00,0.00,0.00
8188522,-0.001,-0.004,0.997,-0.00,0.01,-0.03,-0.22,-0.00,1000,1000,1000,1000,1000,1000,0,1500,1500,989,1500,4294967286,0.00,0.00,0.00,0.00,0.00,0.00,0.00,0.00,0.00,0.00,0.00,0.00
8192522,-0.001,-0.003,0.999,-0.02,0.01,-0.02,-0.19,0.03,1000,1000,1000,1000,1000,1000,0,1500,1500,989,1500,4294967284,0.00,0.00,0.00,0.00,0.00,0.00,0.00,0.00,0.00,0.00,0.00,0.00
8196522,0.001,-0.002,0.999,-0.02,0.02,-0.01,-0.16,0.01,1000,1000,1000,1000,1000,1000,0,1500,1500,989,1500,4294967284,0.00,0.00,0.00,0.00,0.00,0.00,0.00,0.00,0.00,0.00,0.00,0.00
8200522,0.002,-0.000,0.998,-0.01,0.01,-0.02,-0.12,-0.02,1000,1000,1000,1000,1000,1000,0,1500,1500,989,1500,4294967284,0.00,0.00,0.00,0.00,0.00,0.00,0.00,0.00,0.00,0.00,0.00,0.00
8204522,0.000,0.001,0.999,-0.01,-0.01,-0.01,-0.07,-0.02,1000,1000,1000,1000,1000,1000,0,1500,1500,989,1500,4294967283,0.00,0.00,0.00,0.00,0.00,0.00,0.00,0.00,0.00,0.00,0.00,0.00
8208522,-0.001,-0.000,1.001,-0.02,0.00,0.00,-0.04,0.01,1000,1000,1000,1000,1000,1000,0,1500,1500,989,1500,4294967284,0.00,0.00,0.00,0.00,0.00,0.00,0.00,0.00,0.00,0.00,0.00,0.00
8212522,-0.001,-0.002,1.002,-0.03,0.00,0.01,-0.09,0.03,1000,1000,1000,1000,1000,1000,0,1500,1500,989,1500,4294967285,0.00,0.00,0.00,0.00,0.00,0.00,0.00,0.00,0.00,0.00,0.00,0.00
8216522,-0.002,-0.004,1.000,-0.03,0.00,-0.00,-0.13,0.05,1000,1000,1000,1000,1000,1000,0,1500,1500,989,1500,4294967284,0.00,0.00,0.00,0.00,0.00,0.00,0.00,0.00,0.00,0.00,0.00,0.00
8220522,-0.003,-0.004,0.999,-0.00,0.00,0.01,-0.16,0.08,1000,1000,1000,1000,1000,1000,0,1500,1500,989,1500,4294967283,0.00,0.00,0.00,0.00,0.00,0.00,0.00,0.00,0.00,0.00,0.00,0.00
8224522,-0.002,-0.004,0.997,0.00,0.00,0.01,-0.20,0.10,1000,1000,1000,1000,1000,1000,0,1500,1500,989,1500,4294967284,0.00,0.00,0.00,0.00,0.00,0.00,0.00,0.00,0.00,0.00,0.00,0.00
8228522,-0.002,-0.004,0.996,-0.02,0.00,0.00,-0.25,0.11,1000,1000,1000,1000,1000,1000,0,1500,1500,989,1500,4294967285,0.00,0.00,0.00,0.00,0.00,0.00,0.00,0.00,0.00,0.00,0.00,0.00
8232522,-0.003,-0.004,0.994,-0.03,0.00,-0.01,-0.25,0.16,1000,1000,1000,1000,1000,1000,0,1500,1500,989,1500,4294967284,0.00,0.00,0.00,0.00,0.00,0.00,0.00,0.00,0.00,0.00,0.00,0.00
8236522,-0.003,-0.004,0.993,-0.03,-0.00,-0.02,-0.25,0.20,1000,1000,1000,1000,1000,1000,0,1500,1500,989,1500,4294967283,0.00,0.00,0.00,0.00,0.00,0.00,0.00,0.00,0.00,0.00,0.00,0.00
8240522,-0.002,-0.004,0.992,-0.03,-0.02,-0.02,-0.25,0.16,1000,1000,1000,1000,1000,1000,0,1500,1500,989,1500,4294967284,0.00,0.00,0.00,0.00,0.00,0.00,0.00,0.00,0.00,0.00,0.00,0.00
8244522,-0.002,-0.004,0.990,-0.03,-0.04,-0.02,-0.25,0.11,1000,1000,1000,1000,1000,1000,0,1500,1500,989,1500,4294967285,0.00,0.00,0.00,0.00,0.00,0.00,0.00,0.00,0.00,0.00,0.00,0.00
8248522,-0.001,-0.004,0.991,-0.02,-0.05,-0.03,-0.23,0.07,1000,1000,1000,1000,1000,1000,0,1500,1500,989,1500,3989,0.00,0.00,0.00,0.00,0.00,0.00,0.00,0.00,0.00,0.00,0.00,0.00
8252522,-0.000,-0.003,0.992,-0.01,-0.07,-0.02,-0.19,0.05,1000,1000,1000,1000,1000,1000,0,1500,1500,989,1500,4294967284,0.00,0.00,0.00,0.00,0.00,0.00,0.00,0.00,0.00,0.00,0.00,0.00
8256522,-0.000,-0.002,0.993,-0.01,-0.08,-0.02,-0.15,0.03,1000,1000,1000,1000,1000,1000,0,1500,1500,989,1500,4294967283,0.00,0.00,0.00,0.00,0.00,0.00,0.00,0.00,0.00,0.00,0.00,0.00
8260522,0.000,-0.002,0.995,-0.02,-0.05,-0.02,-0.11,-0.00,1000,1000,1000,1000,1000,1000,0,1500,1500,989,1500,4294967284,0.00,0.00,0.00,0.00,0.00,0.00,0.00,0.00,0.00,0.00,0.00,0.00
8264522,0.001,-0.001,0.997,-0.02,-0.04,-0.02,-0.07,-0.03,1000,1000,1000,1000,1000,1000,0,1500,1500,989,1500,4294967285,0.00,0.00,0.00,0.00,0.00,0.00,0.00,0.00,0.00,0.00,0.00,0.00
8268522,-0.000,0.000,0.998,-0.02,-0.02,-0.01,-0.03,-0.01,1000,1000,1000,1000,1000,1000,0,1500,1500,989,1500,4294967284,0.00,0.00,0.00,0.00,0.00,0.00,0.00,0.00,0.00,0.00,0.00,0.00
8272522,-0.001,0.000,0.996,-0.02,-0.01,-0.02,-0.00,0.03,1000,1000,1000,1000,1000,1000,0,1500,1500,989,1500,4294967283,0.00,0.00,0.00,0.00,0.00,0.00,0.00,0.00,0.00,0.00,0.00,0.00
8276522,-0.000,0.001,0.993,-0.03,-0.01,-0.01,0.04,0.02,1000,1000,1000,1000,1000,1000,0,1500,1500,989,1500,4294967284,0.00,0.00,0.00,0.00,0.00,0.00,0.00,0.00,0.00,0.00,0.00,0.00
8280522,0.001,0.002,0.991,-0.03,0.00,-0.00,0.07,-0.02,1000,1000,1000,1000,1000,1000,0,1500,1500,989,1500,4294967285,0.00,0.00,0.00,0.00,0.00,0.00,0.00,0.00,0.00,0.00,0.00,0.00
8284522,0.001,0.002,0.992,-0.02,0.00,-0.01,0.10,-0.05,1000,1000,1000,1000,1000,1000,0,1500,1500,989,1500,4294967284,0.00,0.00,0.00,0.00,0.00,0.00,0.00,0.00,0.00,0.00,0.00,0.00
8288522,0.002,0.001,0.992,-0.02,0.01,-0.02,0.08,-0.09,1000,1000,1000,1000,1000,1000,0,1500,1500,989,1500,4294967281,0.00,0.00,0.00,0.00,0.00,0.00,0.00,0.00,0.00,0.00,0.00,0.00
8292522,0.003,0.003,0.992,-0.02,-0.00,-0.03,0.11,-0.12,1000,1000,1000,1000,1000,1000,0,1500,1500,989,1500,4294967284,0.00,0.00,0.00,0.00,0.00,0.00,0.00,0.00,0.00,0.00,0.00,0.00
8296522,0.003,0.003,0.994,-0.02,-0.01,-0.03,0.15,-0.15,1000,1000,1000,1000,1000,1000,0,1500,1500,989,1500,4294967285,0.00,0.00,0.00,0.00,0.00,0.00,0.00,0.00,0.00,0.00,0.00,0.00
8300522,0.003,0.003,0.994,-0.02,0.00,-0.03,0.19,-0.18,1000,1000,1000,1000,1000,1000,0,1500,1500,989,1500,4294967284,0.00,0.00,0.00,0.00,0.00,0.00,0.00,0.00,0.00,0.00,0.00,0.00
8304522,0.002,0.004,0.995,0.00,0.01,-0.03,0.21,-0.14,1000,1000,1000,1000,1000,1000,0,1500,1500,989,1500,4294967283,0.00,0.00,0.00,0.00,0.00,0.00,0.00,0.00,0.00,0.00,0.00,0.00
8308522,0.002,0.005,0.997,-0.00,0.02,-0.01,0.24,-0.11,1000,1000,1000,1000,1000,1000,0,1500,1500,989,1500,4294967284,0.00,0.00,0.00,0.00,0.00,0.00,0.00,0.00,0.00,0.00,0.00,0.00
8312522,0.000,0.005,0.999,-0.02,0.01,-0.02,0.26,-0.06,1000,1000,1000,1000,1000,1000,0,1500,1500,989,1500,4294967285,0.00,0.00,0.00,0.00,0.00,0.00,0.00,0.00,0.00,0.00,0.00,0.00
8316522,0.001,0.003,1.001,-0.01,-0.02,-0.02,0.21,-0.04,1000,1000,1000,1000,1000,1000,0,1500,1500,989,1500,4294967284,0.00,0.00,0.00,0.00,0.00,0.00,0.00,0.00,0.00,0.00,0.00,0.00
8320522,0.001,0.002,0.999,-0.01,-0.02,-0.01,0.17,-0.04,1000,1000,1000,1000,1000,1000,0,1500,1500,989,1500,4294967283,0.00,0.00,0.00,0.00,0.00,0.00,0.00,0.00,0.00,0.00,0.00,0.00
8324522,0.000,0.002,0.998,-0.02,-0.02,-0.01,0.12,-0.03,1000,1000,1000,1000,1000,1000,0,1500,1500,989,1500,4294967284,0.00,0.00,0.00,0.00,0.00,0.00,0.00,0.00,0.00,0.00,0.00,0.00
8328522,0.001,0.002,0.998,-0.03,-0.01,0.00,0.14,-0.07,1000,1000,1000,1000,1000,1000,0,1500,1500,989,1500,4294967285,0.00,0.00,0.00,0.00,0.00,0.00,0.00,0.00,0.00,0.00,0.00,0.00
8332522,0.002,0.004,0.996,-0.03,-0.01,0.02,0.19,-0.08,1000,1000,1000,1000,1000,1000,0,1500,1500,989,1500,4294967284,0.00,0.00,0.00,0.00,0.00,0.00,0.00,0.00,0.00,0.00,0.00,0.00
8336522,-0.000,0.004,0.995,-0.04,-0.01,0.01,0.21,-0.04,1000,1000,1000,1000,1000,1000,0,1500,1500,989,1500,3988,0.00,0.00,0.00,0.00,0.00,0.00,0.00,0.00,0.00,0.00,0.00,0.00
8340522,-0.003,0.003,0.993,-0.02,-0.02,0.00,0.20,0.00,1000,1000,1000,1000,1000,1000,0,1500,1500,989,1500,7988,0.00,0.00,0.00,0.00,0.00,0.00,0.00,0.00,0.00,0.00,0.00,0.00
8344522,-0.005,0.002,0.989,-0.01,-0.02,0.00,0.18,0.05,1000,1000,1000,1000,1000,1000,0,1500,1500,989,1500,4294967283,0.00,0.00,0.00,0.00,0.00,0.00,0.00,0.00,0.00,0.00,0.00,0.00
8348522,-0.005,-0.000,0.989,-0.00,-0.03,0.00,0.15,0.08,1000,1000,1000,1000,1000,1000,0,1500,1500,989,1500,4294967284,0.00,0.00,0.00,0.00,0.00,0.00,0.00,0.00,0.00,0.00,0.00,0.00
8352522,-0.004,0.001,0.989,-0.01,-0.02,0.00,0.12,0.12,1000,1000,1000,1000,1000,1000,0,1500,1500,989,1500,4294967285,0.00,0.00,0.00,0.00,0.00,0.00,0.00,0.00,0.00,0.00,0.00,0.00
8356522,-0.003,0.002,0.990,-0.01,-0.01,0.01,0.10,0.16,1000,1000,1000,1000,1000,1000,0,1500,1500,989,1500,4294967284,0.00,0.00,0.00,0.00,0.00,0.00,0.00,0.00,0.00,0.00,0.00,0.00
8360522,-0.002,0.003,0.991,-0.02,-0.01,0.01,0.14,0.15,1000,1000,1000,1000,1000,1000,0,1500,1500,989,1500,4294967283,0.00,0.00,0.00,0.00,0.00,0.00,0.00,0.00,0.00,0.00,0.00,0.00
8364522,-0.000,0.003,0.993,-0.02,-0.00,0.02,0.16,0.10,1000,1000,1000,1000,1000,1000,0,1500,1500,989,1500,4294967284,0.00,0.00,0.00,0.00,0.00,0.00,0.00,0.00,0.00,0.00,0.00,0.00
8368522,0.001,0.003,0.995,-0.01,0.01,0.02,0.16,0.06,1000,1000,1000,1000,1000,1000,0,1500,1500,989,1500,4294967285,0.00,0.00,0.00,0.00,0.00,0.00,0.00,0.00,0.00,0.00,0.00,0.00
8372522,0.003,0.002,0.996,-0.01,0.01,0.02,0.16,0.01,1000,1000,1000,1000,1000,1000,0,1500,1500,989,1500,4294967284,0.00,0.00,0.00,0.00,0.00,0.00,0.00,0.00,0.00,0.00,0.00,0.00
8376522,0.004,0.002,0.998,-0.00,0.01,0.01,0.15,-0.03,1000,1000,1000,1000,1000,1000,0,1500,1500,989,1500,4294967283,0.00,0.00,0.00,0.00,0.00,0.00,0.00,0.00,0.00,0.00,0.00,0.00
8380522,0.004,0.002,0.999,0.00,-0.01,0.01,0.14,-0.08,1000,1000,1000,1000,1000,1000,0,1500,1500,989,1500,4294967284,0.00,0.00,0.00,0.00,0.00,0.00,0.00,0.00,0.00,0.00,0.00,0.00
8384522,0.004,0.002,0.999,0.00,-0.03,0.01,0.14,-0.13,1000,1000,1000,1000,1000,1000,0,1500,1500,989,1500,4294967285,0.00,0.00,0.00,0.00,0.00,0.00,0.00,0.00,0.00,0.00,0.00,0.00
8388522,0.003,0.001,0.998,-0.00,-0.03,0.00,0.10,-0.15,1000,1000,1000,1000,1000,1000,0,1500,1500,989,1500,4294967282,0.00,0.00,0.00,0.00,0.00,0.00,0.00,0.00,0.00,0.00,0.00,0.00
8392522,0.002,0.000,0.998,-0.00,-0.01,-0.01,0.06,-0.13,1000,1000,1000,1000,1000,1000,0,1500,1500,989,1500,4294967283,0.00,0.00,0.00,0.00,0.00,0.00,0.00,0.00,0.00,0.00,0.00,0.00
8396522,0.001,-0.001,1.002,-0.00,0.00,-0.01,0.02,-0.10,1000,1000,1000,1000,1000,1000,0,1500,1500,989,1500,4294967284,0.00,0.00,0.00,0.00,0.00,0.00,0.00,0.00,0.00,0.00,0.00,0.00
8400522,0.002,-0.002,1.005,0.01,0.02,-0.01,-0.02,-0.10,1000,1000,1000,1000,1000,1000,0,1500,1500,989,1500,4294967285,0.00,0.00,0.00,0.00,0.00,0.00,0.00,0.00,0.00,0.00,0.00,0.00
8404522,0.001,-0.003,1.004,0.01,0.02,-0.02,-0.07,-0.08,1000,1000,1000,1000,1000,1000,0,1500,1500,989,1500,4294967284,0.00,0.00,0.00,0.00,0.00,0.00,0.00,0.00,0.00,0.00,0.00,0.00
8408522,-0.000,-0.005,1.000,0.01,0.01,-0.01,-0.11,-0.07,1000,1000,1000,1000,1000,1000,0,1500,1500,989,1500,4294967283,0.00,0.00,0.00,0.00,0.00,0.00,0.00,0.00,0.00,0.00,0.00,0.00
8412522,-0.002,-0.006,0.996,0.02,-0.01,-0.02,-0.15,-0.04,1000,1000,1000,1000,1000,1000,0,1500,1500,989,1500,4294967284,0.00,0.00,0.00,0.00,0.00,0.00,0.00,0.00,0.00,0.00,0.00,0.00
8416522,-0.001,-0.005,0.996,0.02,-0.01,-0.01,-0.18,-0.01,1000,1000,1000,1000,1000,1000,0,1500,1500,989,1500,4294967285,0.00,0.00,0.00,0.00,0.00,0.00,0.00,0.00,0.00,0.00,0.00,0.00
8420522,-0.002,-0.002,0.999,-0.01,0.00,-0.00,-0.17,0.03,1000,1000,1000,1000,1000,1000,0,1500,1500,989,1500,4294967284,0.00,0.00,0.00,0.00,0.00,0.00,0.00,0.00,0.00,0.00,0.00,0.00
8424522,-0.002,-0.003,1.000,-0.02,0.01,-0.01,-0.17,0.08,1000,1000,1000,1000,1000,1000,0,1500,1500,989,1500,4294967283,0.00,0.00,0.00,0.00,0.00,0.00,0.00,0.00,0.00,0.00,0.00,0.00
8428522,-0.003,-0.002,1.003,-0.02,0.00,-0.00,-0.14,0.12,1000,1000,1000,1000,1000,1000,0,1500,1500,989,1500,4294967284,0.00,0.00,0.00,0.00,0.00,0.00,0.00,0.00,0.00,0.00,0.00,0.00
8432522,-0.003,-0.002,1.004,-0.03,-0.01,-0.00,-0.10,0.15,1000,1000,1000,1000,1000,1000,0,1500,1500,989,1500,4294967285,0.00,0.00,0.00,0.00,0.00,0.00,0.00,0.00,0.00,0.00,0.00,0.00
8436522,-0.004,-0.002,1.005,-0.03,-0.02,0.01,-0.10,0.19,1000,1000,1000,1000,1000,1000,0,1500,1500,989,1500,4294967284,0.00,0.00,0.00,0.00,0.00,0.00,0.00,0.00,0.00,0.00,0.00,0.00
8440522,-0.004,-0.001,1.002,-0.04,-0.02,-0.00,-0.06,0.21,1000,1000,1000,1000,1000,1000,0,1500,1500,989,1500,4294967283,0.00,0.00,0.00,0.00,0.00,0.00,0.00,0.00,0.00,0.00,0.00,0.00
8444522,-0.003,-0.000,1.001,-0.04,-0.02,-0.01,-0.02,0.20,1000,1000,1000,1000,1000,1000,0,1500,1500,989,1500,4294967284,0.00,0.00,0.00,0.00,0.00,0.00,0.00,0.00,0.00,0.00,0.00,0.00
8448522,-0.003,-0.000,1.001,-0.05,-0.02,-0.02,-0.02,0.15,1000,1000,1000,1000,1000,1000,0,1500,1500,989,1500,4294967285,0.00,0.00,0.00,0.00,0.00,0.00,0.00,0.00,0.00,0.00,0.00,0.00
8452522,-0.002,-0.000,1.001,-0.03,-0.02,-0.02,-0.03,0.11,1000,1000,1000,1000,1000,1000,0,1500,1500,989,1500,3989,0.00,0.00,0.00,0.00,0.00,0.00,0.00,0.00,0.00,0.00,0.00,0.00
8456522,-0.001,0.000,1.000,-0.04,-0.02,-0.02,0.00,0.08,1000,1000,1000,1000,1000,1000,0,1500,1500,989,1500,4294967284,0.00,0.00,0.00,0.00,0.00,0.00,0.00,0.00,0.00,0.00,0.00,0.00
8460522,0.000,-0.000,1.000,-0.04,-0.03,-0.02,-0.00,0.03,1000,1000,1000,1000,1000,1000,0,1500,1500,989,1500,3988,0.00,0.00,0.00,0.00,0.00,0.00,0.00,0.00,0.00,0.00,0.00,0.00
8464522,0.002,0.000,1.002,-0.03,-0.03,-0.00,0.00,-0.02,1000,1000,1000,1000,1000,1000,0,1500,1500,989,1500,4294967283,0.00,0.00,0.00,0.00,0.00,0.00,0.00,0.00,0.00,0.00,0.00,0.00
8468522,0.002,-0.001,1.001,-0.03,-0.02,0.01,-0.02,-0.06,1000,1000,1000,1000,1000,1000,0,1500,1500,989,1500,4294967284,0.00,0.00,0.00,0.00,0.00,0.00,0.00,0.00,0.00,0.00,0.00,0.00
8472522,0.003,-0.000,1.001,-0.02,-0.02,0.02,-0.01,-0.10,1000,1000,1000,1000,1000,1000,0,1500,1500,989,1500,4294967285,0.00,0.00,0.00,0.00,0.00,0.00,0.00,0.00,0.00,0.00,0.00,0.00
8476522,0.003,0.000,1.001,-0.02,-0.04,0.02,0.01,-0.14,1000,1000,1000,1000,1000,1000,0,1500,1500,989,1500,4294967284,0.00,0.00,0.00,0.00,0.00,0.00,0.00,0.00,0.00,0.00,0.00,0.00
8480522,0.002,-0.001,1.001,-0.02,-0.04,-0.00,-0.04,-0.14,1000,1000,1000,1000,1000,1000,0,1500,1500,989,1500,4294967283,0.00,0.00,0.00,0.00,0.00,0.00,0.00,0.00,0.00,0.00,0.00,0.00
8484522,0.003,-0.000,1.001,-0.03,-0.05,-0.01,0.01,-0.16,1000,1000,1000,1000,1000,1000,0,1500,1500,989,1500,4294967284,0.00,0.00,0.00,0.00,0.00,0.00,0.00,0.00,0.00,0.00,0.00,0.00
8488522,0.002,-0.000,1.000,-0.03,-0.04,0.00,-0.01,-0.11,1000,1000,1000,1000,1000,1000,0,1500,1500,989,1500,4294967283,0.00,0.00,0.00,0.00,0.00,0.00,0.00,0.00,0.00,0.00,0.00,0.00
8492522,0.003,0.001,0.998,-0.01,-0.05,0.01,0.03,-0.14,1000,1000,1000,1000,1000,1000,0,1500,1500,989,1500,4294967284,0.00,0.00,0.00,0.00,0.00,0.00,0.00,0.00,0.00,0.00,0.00,0.00
8496522,0.002,0.000,0.997,-0.02,-0.04,0.01,0.01,-0.10,1000,1000,1000,1000,1000,1000,0,1500,1500,989,1500,4294967283,0.00,0.00,0.00,0.00,0.00,0.00,0.00,0.00,0.00,0.00,0.00,0.00
8500522,0.002,-0.000,0.996,-0.03,-0.03,0.01,-0.04,-0.09,1000,1000,1000,1000,1000,1000,0,1500,1500,989,1500,4294967284,0.00,0.00,0.00,0.00,0.00,0.00,0.00,0.00,0.00,0.00,0.00,0.00
8504522,0.002,0.000,0.997,-0.04,-0.02,0.01,-0.01,-0.12,1000,1000,1000,1000,1000,1000,0,1500,1500,989,1500,4294967285,0.00,0.00,0.00,0.00,0.00,0.00,0.00,0.00,0.00,0.00,0.00,0.00
8508522,0.004,-0.002,0.997,-0.03,-0.02,0.00,-0.04,-0.16,1000,1000,1000,1000,1000,1000,0,1500,1500,989,1500,4294967284,0.00,0.00,0.00,0.00,0.00,0.00,0.00,0.00,0.00,0.00,0.00,0.00
8512522,0.004,-0.003,0.998,-0.02,-0.03,-0.01,-0.08,-0.18,1000,1000,1000,1000,1000,1000,0,1500,1500,989,1500,4294967283,0.00,0.00,0.00,0.00,0.00,0.00,0.00,0.00,0.00,0.00,0.00,0.00
8516522,0.003,-0.003,0.998,-0.02,-0.02,-0.02,-0.13,-0.18,1000,1000,1000,1000,1000,1000,0,1500,1500,989,1500,4294967284,0.00,0.00,0.00,0.00,0.00,0.00,0.00,0.00,0.00,0.00,0.00,0.00
8520522,0.003,-0.003,0.999,-0.01,-0.02,-0.02,-0.17,-0.18,1000,1000,1000,1000,1000,1000,0,1500,1500,989,1500,4294967285,0.00,0.00,0.00,0.00,0.00,0.00,0.00,0.00,0.00,0.00,0.00,0.00
8524522,0.003,-0.002,0.998,0.01,-0.03,-0.02,-0.13,-0.18,1000,1000,1000,1000,1000,1000,0,1500,1500,989,1500,4294967284,0.00,0.00,0.00,0.00,0.00,0.00,0.00,0.00,0.00,0.00,0.00,0.00
8528522,0.003,-0.001,0.996,0.01,-0.05,-0.02,-0.08,-0.17,1000,1000,1000,1000,1000,1000,0,1500,1500,989,1500,4294967283,0.00,0.00,0.00,0.00,0.00,0.00,0.00,0.00,0.00,0.00,0.00,0.00
8532522,0.004,0.001,0.994,-0.01,-0.05,-0.01,-0.04,-0.19,1000,1000,1000,1000,1000,1000,0,1500,1500,989,1500,4294967284,0.00,0.00,0.00,0.00,0.00,0.00,0.00,0.00,0.00,0.00,0.00,0.00
8536522,0.005,0.001,0.993,-0.01,-0.05,-0.02,-0.01,-0.22,1000,1000,1000,1000,1000,1000,0,1500,1500,989,1500,4294967285,0.00,0.00,0.00,0.00,0.00,0.00,0.00,0.00,0.00,0.00,0.00,0.00
8540522,0.005,0.002,0.995,-0.01,-0.04,-0.02,0.03,-0.25,1000,1000,1000,1000,1000,1000,0,1500,1500,989,1500,4294967284,0.00,0.00,0.00,0.00,0.00,0.00,0.00,0.00,0.00,0.00,0.00,0.00
8544522,0.005,0.001,0.995,-0.01,-0.05,-0.01,0.07,-0.27,1000,1000,1000,1000,1000,1000,0,1500,1500,989,1500,4294967283,0.00,0.00,0.00,0.00,0.00,0.00,0.00,0.00,0.00,0.00,0.00,0.00
8548522,0.005,0.002,0.995,-0.02,-0.05,-0.01,0.11,-0.27,1000,1000,1000,1000,1000,1000,0,1500,1500,989,1500,4294967284,0.00,0.00,0.00,0.00,0.00,0.00,0.00,0.00,0.00,0.00,0.00,0.00
8552522,0.006,0.002,0.996,-0.03,-0.05,-0.04,0.11,-0.31,1000,1000,1000,1000,1000,1000,0,1500,1500,989,1500,4294967285,0.00,0.00,0.00,0.00,0.00,0.00,0.00,0.00,0.00,0.00,0.00,0.00
8556522,0.007,0.000,0.997,-0.03,-0.05,-0.02,0.08,-0.35,1000,1000,1000,1000,1000,1000,0,1500,1500,989,1500,4294967284,0.00,0.00,0.00,0.00,0.00,0.00,0.00,0.00,0.00,0.00,0.00,0.00
8560522,0.006,0.000,0.998,-0.01,-0.02,-0.01,0.04,-0.36,1000,1000,1000,1000,1000,1000,0,1500,1500,989,1500,4294967283,0.00,0.00,0.00,0.00,0.00,0.00,0.00,0.00,0.00,0.00,0.00,0.00
8564522,0.006,-0.001,0.998,-0.01,-0.00,-0.01,-0.01,-0.35,1000,1000,1000,1000,1000,1000,0,1500,1500,989,1500,4294967284,0.00,0.00,0.00,0.00,0.00,0.00,0.00,0.00,0.00,0.00,0.00,0.00
8568522,0.006,-0.003,0.998,-0.02,-0.00,-0.01,-0.05,-0.34,1000,1000,1000,1000,1000,1000,0,1500,1500,989,1500,4294967285,0.00,0.00,0.00,0.00,0.00,0.00,0.00,0.00,0.00,0.00,0.00,0.00
8572522,0.004,-0.005,0.996,-0.01,-0.00,-0.02,-0.09,-0.32,1000,1000,1000,1000,1000,1000,0,1500,1500,989,1500,4294967284,0.00,0.00,0.00,0.00,0.00,0.00,0.00,0.00,0.00,0.00,0.00,0.00
8576522,0.005,-0.005,0.996,-0.00,0.01,-0.02,-0.14,-0.31,1000,1000,1000,1000,1000,1000,0,1500,1500,989,1500,4294967283,0.00,0.00,0.00,0.00,0.00,0.00,0.00,0.00,0.00,0.00,0.00,0.00
8580522,0.005,-0.006,0.996,-0.01,-0.01,-0.01,-0.18,-0.31,1000,1000,1000,1000,1000,1000,0,1500,1500,989,1500,4294967284,0.00,0.00,0.00,0.00,0.00,0.00,0.00,0.00,0.00,0.00,0.00,0.00
8584522,0.004,-0.005,0.996,0.00,-0.02,-0.01,-0.22,-0.29,1000,1000,1000,1000,1000,1000,0,1500,1500,989,1500,4294967285,0.00,0.00,0.00,0.00,0.00,0.00,0.00,0.00,0.00,0.00,0.00,0.00
8588522,0.002,-0.003,0.994,-0.00,-0.02,-0.01,-0.21,-0.24,1000,1000,1000,1000,1000,1000,0,1500,1500,989,1500,4294967284,0.00,0.00,0.00,0.00,0.00,0.00,0.00,0.00,0.00,0.00,0.00,0.00
8592522,0.001,0.002,0.977,0.06,-0.03,-0.01,-0.17,-0.22,1000,1000,1000,1000,1000,1000,0,1500,1500,989,1500,4294967282,0.00,0.00,0.00,0.00,0.00,0.00,0.00,0.00,0.00,0.00,0.00,0.00
8596522,-0.002,0.006,0.944,0.21,-0.06,0.01,-0.13,-0.20,1000,1000,1000,1000,1000,1000,0,1500,1500,989,1500,4294967284,0.00,0.00,0.00,0.00,0.00,0.00,0.00,0.00,0.00,0.00,0.00,0.00
8600522,-0.003,0.008,0.919,0.31,-0.06,0.03,-0.09,-0.17,1000,1000,1000,1000,1000,1000,0,1500,1500,989,1500,4294967285,0.00,0.00,0.00,0.00,0.00,0.00,0.00,0.00,0.00,0.00,0.00,0.00
8604522,-0.002,0.011,0.933,0.22,0.01,0.03,-0.04,-0.16,1000,1000,1000,1000,1000,1000,0,1500,1500,989,1500,4294967284,0.00,0.00,0.00,0.00,0.00,0.00,0.00,0.00,0.00,0.00,0.00,0.00
8608522,0.002,0.014,0.966,0.06,0.08,0.01,0.00,-0.15,1000,1000,1000,1000,1000,1000,0,1500,1500,989,1500,4294967283,0.00,0.00,0.00,0.00,0.00,0.00,0.00,0.00,0.00,0.00,0.00,0.00
8612522,0.003,0.016,0.998,0.06,0.09,0.01,0.05,-0.16,1000,1000,1000,1000,1000,1000,0,1500,1500,989,1500,4294967284,0.00,0.00,0.00,0.00,0.00,0.00,0.00,0.00,0.00,0.00,0.00,0.00
8616522,0.003,0.014,1.017,0.13,0.13,0.04,0.10,-0.16,1000,1000,1000,1000,1000,1000,0,1500,1500,989,1500,4294967285,0.00,0.00,0.00,0.00,0.00,0.00,0.00,0.00,0.00,0.00,0.00,0.00
8620522,0.001,0.005,1.026,0.15,0.16,0.06,0.13,-0.13,1000,1000,1000,1000,1000,1000,0,1500,1500,989,1500,4294967284,0.00,0.00,0.00,0.00,0.00,0.00,0.00,0.00,0.00,0.00,0.00,0.00
8624522,-0.000,-0.009,1.027,0.09,0.12,0.04,0.09,-0.12,1000,1000,1000,1000,1000,1000,0,1500,1500,989,1500,4294967283,0.00,0.00,0.00,0.00,0.00,0.00,0.00,0.00,0.00,0.00,0.00,0.00
8628522,-0.002,-0.019,1.027,-0.02,0.06,-0.00,0.05,-0.11,1000,1000,1000,1000,1000,1000,0,1500,1500,989,1500,4294967284,0.00,0.00,0.00,0.00,0.00,0.00,0.00,0.00,0.00,0.00,0.00,0.00
8632522,-0.006,-0.025,1.027,-0.08,0.03,-0.04,0.00,-0.10,1000,1000,1000,1000,1000,1000,0,1500,1500,989,1500,3988,0.00,0.00,0.00,0.00,0.00,0.00,0.00,0.00,0.00,0.00,0.00,0.00
8636522,-0.003,-0.024,1.027,-0.07,0.04,-0.05,-0.04,-0.09,1000,1000,1000,1000,1000,1000,0,1500,1500,989,1500,7988,0.00,0.00,0.00,0.00,0.00,0.00,0.00,0.00,0.00,0.00,0.00,0.00
8640522,0.002,-0.015,1.022,-0.04,0.05,-0.05,-0.09,-0.09,1000,1000,1000,1000,1000,1000,0,1500,1500,989,1500,4294967285,0.00,0.00,0.00,0.00,0.00,0.00,0.00,0.00,0.00,0.00,0.00,0.00
8644522,0.005,-0.003,1.008,-0.04,0.05,-0.05,-0.11,-0.13,1000,1000,1000,1000,1000,1000,0,1500,1500,989,1500,4294967284,0.00,0.00,0.00,0.00,0.00,0.00,0.00,0.00,0.00,0.00,0.00,0.00
8648522,0.004,0.005,0.988,-0.01,0.03,-0.06,-0.07,-0.14,1000,1000,1000,1000,1000,1000,0,1500,1500,989,1500,4294967283,0.00,0.00,0.00,0.00,0.00,0.00,0.00,0.00,0.00,0.00,0.00,0.00
8652522,0.003,0.010,0.974,0.01,0.00,-0.06,-0.02,-0.14,1000,1000,1000,1000,1000,1000,0,1500,1500,989,1500,4294967284,0.00,0.00,0.00,0.00,0.00,0.00,0.00,0.00,0.00,0.00,0.00,0.00
8656522,-0.001,0.011,0.976,0.03,0.01,-0.04,0.02,-0.12,1000,1000,1000,1000,1000,1000,0,1500,1500,989,1500,4294967285,0.00,0.00,0.00,0.00,0.00,0.00,0.00,0.00,0.00,0.00,0.00,0.00
8660522,-0.005,0.008,0.977,0.01,-0.02,-0.03,0.06,-0.09,1000,1000,1000,1000,1000,1000,0,1500,1500,989,1500,4294967284,0.00,0.00,0.00,0.00,0.00,0.00,0.00,0.00,0.00,0.00,0.00,0.00
8664522,-0.007,0.005,0.982,-0.03,-0.05,-0.02,0.07,-0.05,1000,1000,1000,1000,1000,1000,0,1500,1500,989,1500,4294967283,0.00,0.00,0.00,0.00,0.00,0.00,0.00,0.00,0.00,0.00,0.00,0.00
8668522,-0.008,-0.001,0.986,-0.07,-0.08,-0.03,0.06,-0.01,1000,1000,1000,1000,1000,1000,0,1500,1500,989,1500,4294967284,0.00,0.00,0.00,0.00,0.00,0.00,0.00,0.00,0.00,0.00,0.00,0.00
8672522,-0.006,-0.006,0.992,-0.05,-0.10,-0.04,0.03,0.02,1000,1000,1000,1000,1000,1000,0,1500,1500,989,1500,4294967285,0.00,0.00,0.00,0.00,0.00,0.00,0.00,0.00,0.00,0.00,0.00,0.00
8676522,-0.002,-0.008,1.001,-0.08,-0.08,-0.07,-0.02,0.03,1000,1000,1000,1000,1000,1000,0,1500,1500,989,1500,4294967284,0.00,0.00,0.00,0.00,0.00,0.00,0.00,0.00,0.00,0.00,0.00,0.00
8680522,0.006,-0.009,1.011,-0.08,-0.07,-0.06,-0.05,0.00,1000,1000,1000,1000,1000,1000,0,1500,1500,989,1500,4294967283,0.00,0.00,0.00,0.00,0.00,0.00,0.00,0.00,0.00,0.00,0.00,0.00
8684522,0.010,-0.012,1.019,-0.08,-0.07,-0.06,-0.09,-0.03,1000,1000,1000,1000,1000,1000,0,1500,1500,989,1500,4294967284,0.00,0.00,0.00,0.00,0.00,0.00,0.00,0.00,0.00,0.00,0.00,0.00
8688522,0.014,-0.014,1.030,-0.11,-0.05,-0.06,-0.12,-0.06,1000,1000,1000,1000,1000,1000,0,1500,1500,989,1500,4294967285,0.00,0.00,0.00,0.00,0.00,0.00,0.00,0.00,0.00,0.00,0.00,0.00
8692522,0.016,-0.014,1.035,-0.11,-0.05,-0.05,-0.15,-0.10,1000,1000,1000,1000,1000,1000,0,1500,1500,989,1500,4294967282,0.00,0.00,0.00,0.00,0.00,0.00,0.00,0.00,0.00,0.00,0.00,0.00
8696522,0.015,-0.009,1.032,-0.09,-0.07,-0.05,-0.17,-0.14,1000,1000,1000,1000,1000,1000,0,1500,1500,989,1500,4294967283,0.00,0.00,0.00,0.00,0.00,0.00,0.00,0.00,0.00,0.00,0.00,0.00
8700522,0.011,-0.004,1.026,-0.10,-0.03,-0.05,-0.17,-0.19,1000,1000,1000,1000,1000,1000,0,1500,1500,989,1500,4294967284,0.00,0.00,0.00,0.00,0.00,0.00,0.00,0.00,0.00,0.00,0.00,0.00
8704522,0.006,-0.003,1.005,-0.04,-0.05,-0.03,-0.17,-0.23,1000,1000,1000,1000,1000,1000,0,1500,1500,989,1500,4294967285,0.00,0.00,0.00,0.00,0.00,0.00,0.00,0.00,0.00,0.00,0.00,0.00
8708522,0.003,0.001,0.993,-0.02,-0.04,-0.00,-0.12,-0.22,1000,1000,1000,1000,1000,1000,0,1500,1500,989,1500,4294967284,0.00,0.00,0.00,0.00,0.00,0.00,0.00,0.00,0.00,0.00,0.00,0.00
8712522,-0.000,0.002,0.996,-0.04,0.00,0.01,-0.09,-0.19,1000,1000,1000,1000,1000,1000,0,1500,1500,989,1500,4294967283,0.00,0.00,0.00,0.00,0.00,0.00,0.00,0.00,0.00,0.00,0.00,0.00
8716522,-0.000,0.001,0.993,0.05,-0.06,0.01,-0.06,-0.15,1000,1000,1000,1000,1000,1000,0,1500,1500,989,1500,4294967284,0.00,0.00,0.00,0.00,0.00,0.00,0.00,0.00,0.00,0.00,0.00,0.00
8720522,-0.001,0.001,0.993,0.07,-0.02,0.00,-0.04,-0.11,1000,1000,1000,1000,1000,1000,0,1500,1500,989,1500,4294967285,0.00,0.00,0.00,0.00,0.00,0.00,0.00,0.00,0.00,0.00,0.00,0.00
8724522,-0.001,0.001,1.001,0.05,0.03,0.00,-0.02,-0.07,1000,1000,1000,1000,1000,1000,0,1500,1500,989,1500,4294967284,0.00,0.00,0.00,0.00,0.00,0.00,0.00,0.00,0.00,0.00,0.00,0.00
8728522,-0.000,-0.001,1.007,0.06,-0.01,-0.01,-0.05,-0.03,1000,1000,1000,1000,1000,1000,0,1500,1500,989,1500,4294967283,0.00,0.00,0.00,0.00,0.00,0.00,0.00,0.00,0.00,0.00,0.00,0.00
8732522,-0.002,-0.006,1.008,0.03,0.02,-0.02,-0.09,-0.01,1000,1000,1000,1000,1000,1000,0,1500,1500,989,1500,4294967284,0.00,0.00,0.00,0.00,0.00,0.00,0.00,0.00,0.00,0.00,0.00,0.00
8736522,-0.004,-0.008,0.998,0.06,0.00,0.00,-0.13,0.01,1000,1000,1000,1000,1000,1000,0,1500,1500,989,1500,4294967285,0.00,0.00,0.00,0.00,0.00,0.00,0.00,0.00,0.00,0.00,0.00,0.00
8740522,-0.006,-0.007,1.001,0.02,0.02,0.01,-0.16,0.05,1000,1000,1000,1000,1000,1000,0,1500,1500,989,1500,4294967284,0.00,0.00,0.00,0.00,0.00,0.00,0.00,0.00,0.00,0.00,0.00,0.00
8744522,-0.007,-0.008,1.020,-0.07,0.05,0.02,-0.19,0.08,1000,1000,1000,1000,1000,1000,0,1500,1500,989,1500,4294967283,0.00,0.00,0.00,0.00,0.00,0.00,0.00,0.00,0.00,0.00,0.00,0.00
8748522,-0.006,-0.005,1.033,-0.05,-0.01,0.04,-0.20,0.13,1000,1000,1000,1000,1000,1000,0,1500,1500,989,1500,4294967284,0.00,0.00,0.00,0.00,0.00,0.00,0.00,0.00,0.00,0.00,0.00,0.00
8752522,-0.006,-0.008,1.024,-0.08,0.01,0.03,-0.24,0.16,1000,1000,1000,1000,1000,1000,0,1500,1500,989,1500,4294967285,0.00,0.00,0.00,0.00,0.00,0.00,0.00,0.00,0.00,0.00,0.00,0.00
8756522,-0.002,-0.011,1.004,-0.13,0.04,0.03,-0.28,0.15,1000,1000,1000,1000,1000,1000,0,1500,1500,989,1500,4294967284,0.00,0.00,0.00,0.00,0.00,0.00,0.00,0.00,0.00,0.00,0.00,0.00
8760522,0.003,-0.011,0.991,-0.18,0.04,0.02,-0.32,0.12,1000,1000,1000,1000,1000,1000,0,1500,1500,989,1500,4294967283,0.00,0.00,0.00,0.00,0.00,0.00,0.00,0.00,0.00,0.00,0.00,0.00
8764522,0.002,-0.010,0.980,-0.16,0.02,0.01,-0.35,0.09,1000,1000,1000,1000,1000,1000,0,1500,1500,989,1500,4294967284,0.00,0.00,0.00,0.00,0.00,0.00,0.00,0.00,0.00,0.00,0.00,0.00
8768522,0.002,-0.010,0.972,-0.16,-0.00,-0.00,-0.38,0.06,1000,1000,1000,1000,1000,1000,0,1500,1500,989,1500,4294967285,0.00,0.00,0.00,0.00,0.00,0.00,0.00,0.00,0.00,0.00,0.00,0.00
8772522,0.001,-0.008,0.966,-0.13,-0.01,-0.00,-0.41,0.02,1000,1000,1000,1000,1000,1000,0,1500,1500,989,1500,4294967284,0.00,0.00,0.00,0.00,0.00,0.00,0.00,0.00,0.00,0.00,0.00,0.00
8776522,-0.003,-0.005,0.959,-0.11,0.01,-0.03,-0.37,0.05,1000,1000,1000,1000,1000,1000,0,1500,1500,989,1500,4294967283,0.00,0.00,0.00,0.00,0.00,0.00,0.00,0.00,0.00,0.00,0.00,0.00
8780522,-0.004,-0.004,0.956,-0.08,-0.01,-0.02,-0.35,0.08,1000,1000,1000,1000,1000,1000,0,1500,1500,989,1500,4294967284,0.00,0.00,0.00,0.00,0.00,0.00,0.00,0.00,0.00,0.00,0.00,0.00
8784522,-0.003,-0.002,0.954,0.02,-0.04,0.03,-0.30,0.10,1000,1000,1000,1000,1000,1000,0,1500,1500,989,1500,4294967285,0.00,0.00,0.00,0.00,0.00,0.00,0.00,0.00,0.00,0.00,0.00,0.00
8788522,-0.002,0.000,0.951,0.12,-0.02,0.05,-0.26,0.10,1000,1000,1000,1000,1000,1000,0,1500,1500,989,1500,4294967284,0.00,0.00,0.00,0.00,0.00,0.00,0.00,0.00,0.00,0.00,0.00,0.00
8792522,0.001,0.001,0.947,0.20,0.01,0.09,-0.21,0.08,1000,1000,1000,1000,1000,1000,0,1500,1500,989,1500,4294967281,0.00,0.00,0.00,0.00,0.00,0.00,0.00,0.00,0.00,0.00,0.00,0.00
8796522,0.003,0.001,0.952,0.30,0.03,0.14,-0.18,0.05,1000,1000,1000,1000,1000,1000,0,1500,1500,989,1500,4294967284,0.00,0.00,0.00,0.00,0.00,0.00,0.00,0.00,0.00,0.00,0.00,0.00
8800522,0.006,0.002,0.962,0.33,0.08,0.15,-0.15,0.01,1000,1000,1000,1000,1000,1000,0,1500,1500,989,1500,4294967285,0.00,0.00,0.00,0.00,0.00,0.00,0.00,0.00,0.00,0.00,0.00,0.00
8804522,0.009,0.005,0.975,0.37,0.11,0.17,-0.12,-0.02,1000,1000,1000,1000,1000,1000,0,1500,1500,989,1500,4294967284,0.00,0.00,0.00,0.00,0.00,0.00,0.00,0.00,0.00,0.00,0.00,0.00
8808522,0.010,0.015,0.994,0.40,0.15,0.19,-0.08,-0.04,1000,1000,1000,1000,1000,1000,0,1500,1500,989,1500,4294967283,0.00,0.00,0.00,0.00,0.00,0.00,0.00,0.00,0.00,0.00,0.00,0.00
8812522,0.007,0.029,1.013,0.37,0.17,0.20,-0.03,-0.05,1000,1000,1000,1000,1000,1000,0,1500,1500,989,1500,4294967284,0.00,0.00,0.00,0.00,0.00,0.00,0.00,0.00,0.00,0.00,0.00,0.00
8816522,0.000,0.040,1.028,0.30,0.18,0.21,0.01,-0.05,1000,1000,1000,1000,1000,1000,0,1500,1500,989,1500,4294967285,0.00,0.00,0.00,0.00,0.00,0.00,0.00,0.00,0.00,0.00,0.00,0.00
8820522,-0.009,0.045,1.040,0.18,0.17,0.17,0.06,-0.04,1000,1000,1000,1000,1000,1000,0,1500,1500,989,1500,4294967284,0.00,0.00,0.00,0.00,0.00,0.00,0.00,0.00,0.00,0.00,0.00,0.00
8824522,-0.019,0.045,1.044,0.04,0.13,0.10,0.10,-0.02,1000,1000,1000,1000,1000,1000,0,1500,1500,989,1500,4294967283,0.00,0.00,0.00,0.00,0.00,0.00,0.00,0.00,0.00,0.00,0.00,0.00
8828522,-0.026,0.039,1.038,-0.10,0.06,0.02,0.14,0.01,1000,1000,1000,1000,1000,1000,0,1500,1500,989,1500,4294967284,0.00,0.00,0.00,0.00,0.00,0.00,0.00,0.00,0.00,0.00,0.00,0.00
8832522,-0.027,0.029,1.030,-0.21,-0.00,-0.05,0.17,0.04,1000,1000,1000,1000,1000,1000,0,1500,1500,989,1500,4294967285,0.00,0.00,0.00,0.00,0.00,0.00,0.00,0.00,0.00,0.00,0.00,0.00
8836522,-0.020,0.021,1.021,-0.30,-0.07,-0.13,0.20,0.07,1000,1000,1000,1000,1000,1000,0,1500,1500,989,1500,4294967284,0.00,0.00,0.00,0.00,0.00,0.00,0.00,0.00,0.00,0.00,0.00,0.00
8840522,-0.006,0.013,1.019,-0.34,-0.15,-0.18,0.24,0.09,1000,1000,1000,1000,1000,1000,0,1500,1500,989,1500,4294967283,0.00,0.00,0.00,0.00,0.00,0.00,0.00,0.00,0.00,0.00,0.00,0.00
8844522,0.010,0.004,1.018,-0.36,-0.19,-0.23,0.24,0.05,1000,1000,1000,1000,1000,1000,0,1500,1500,989,1500,4294967284,0.00,0.00,0.00,0.00,0.00,0.00,0.00,0.00,0.00,0.00,0.00,0.00
8848522,0.026,-0.004,1.022,-0.32,-0.20,-0.24,0.22,0.00,1000,1000,1000,1000,1000,1000,0,1500,1500,989,1500,3988,0.00,0.00,0.00,0.00,0.00,0.00,0.00,0.00,0.00,0.00,0.00,0.00
8852522,0.037,-0.013,1.027,-0.24,-0.21,-0.23,0.20,-0.04,1000,1000,1000,1000,1000,1000,0,1500,1500,989,1500,7988,0.00,0.00,0.00,0.00,0.00,0.00,0.00,0.00,0.00,0.00,0.00,0.00
8856522,0.040,-0.023,1.034,-0.17,-0.19,-0.21,0.18,-0.08,1000,1000,1000,1000,1000,1000,0,1500,1500,989,1500,4294967285,0.00,0.00,0.00,0.00,0.00,0.00,0.00,0.00,0.00,0.00,0.00,0.00
8860522,0.034,-0.033,1.042,-0.12,-0.14,-0.16,0.14,-0.11,1000,1000,1000,1000,1000,1000,0,1500,1500,989,1500,4294967284,0.00,0.00,0.00,0.00,0.00,0.00,0.00,0.00,0.00,0.00,0.00,0.00
8864522,0.021,-0.042,1.048,-0.04,-0.08,-0.11,0.10,-0.13,1000,1000,1000,1000,1000,1000,0,1500,1500,989,1500,4294967283,0.00,0.00,0.00,0.00,0.00,0.00,0.00,0.00,0.00,0.00,0.00,0.00
8868522,0.009,-0.046,1.043,0.02,-0.02,-0.05,0.05,-0.14,1000,1000,1000,1000,1000,1000,0,1500,1500,989,1500,4294967284,0.00,0.00,0.00,0.00,0.00,0.00,0.00,0.00,0.00,0.00,0.00,0.00
8872522,-0.002,-0.041,1.025,0.05,0.05,-0.01,0.01,-0.13,1000,1000,1000,1000,1000,1000,0,1500,1500,989,1500,4294967285,0.00,0.00,0.00,0.00,0.00,0.00,0.00,0.00,0.00,0.00,0.00,0.00
8876522,-0.008,-0.030,1.005,0.06,0.11,0.02,-0.03,-0.12,1000,1000,1000,1000,1000,1000,0,1500,1500,989,1500,4294967284,0.00,0.00,0.00,0.00,0.00,0.00,0.00,0.00,0.00,0.00,0.00,0.00
8880522,-0.010,-0.015,0.987,0.06,0.15,0.05,-0.07,-0.09,1000,1000,1000,1000,1000,1000,0,1500,1500,989,1500,4294967283,0.00,0.00,0.00,0.00,0.00,0.00,0.00,0.00,0.00,0.00,0.00,0.00
8884522,-0.009,-0.000,0.977,0.09,0.16,0.05,-0.07,-0.04,1000,1000,1000,1000,1000,1000,0,1500,1500,989,1500,4294967284,0.00,0.00,0.00,0.00,0.00,0.00,0.00,0.00,0.00,0.00,0.00,0.00
8888522,-0.007,0.012,0.973,0.11,0.14,0.05,-0.03,-0.01,1000,1000,1000,1000,1000,1000,0,1500,1500,989,1500,4294967285,0.00,0.00,0.00,0.00,0.00,0.00,0.00,0.00,0.00,0.00,0.00,0.00
8892522,-0.006,0.018,0.976,0.14,0.11,0.04,0.02,0.00,1000,1000,1000,1000,1000,1000,0,1500,1500,989,1500,4294967282,0.00,0.00,0.00,0.00,0.00,0.00,0.00,0.00,0.00,0.00,0.00,0.00
8896522,-0.007,0.018,0.989,0.13,0.08,0.03,0.06,0.02,1000,1000,1000,1000,1000,1000,0,1500,1500,989,1500,4294967283,0.00,0.00,0.00,0.00,0.00,0.00,0.00,0.00,0.00,0.00,0.00,0.00
8900522,-0.008,0.011,1.000,0.10,0.09,0.03,0.10,0.05,1000,1000,1000,1000,1000,1000,0,1500,1500,989,1500,4294967284,0.00,0.00,0.00,0.00,0.00,0.00,0.00,0.00,0.00,0.00,0.00,0.00
8904522,-0.009,0.001,1.006,0.06,0.09,0.03,0.09,0.09,1000,1000,1000,1000,1000,1000,0,1500,1500,989,1500,4294967285,0.00,0.00,0.00,0.00,0.00,0.00,0.00,0.00,0.00,0.00,0.00,0.00
8908522,-0.008,-0.007,1.008,0.03,0.09,0.03,0.06,0.12,1000,1000,1000,1000,1000,1000,0,1500,1500,989,1500,4294967284,0.00,0.00,0.00,0.00,0.00,0.00,0.00,0.00,0.00,0.00,0.00,0.00
8912522,-0.006,-0.010,1.007,-0.01,0.09,0.06,0.01,0.14,1000,1000,1000,1000,1000,1000,0,1500,1500,989,1500,4294967283,0.00,0.00,0.00,0.00,0.00,0.00,0.00,0.00,0.00,0.00,0.00,0.00
8916522,-0.004,-0.007,1.003,-0.02,0.10,0.09,-0.03,0.15,1000,1000,1000,1000,1000,1000,0,1500,1500,989,1500,4294967284,0.00,0.00,0.00,0.00,0.00,0.00,0.00,0.00,0.00,0.00,0.00,0.00
8920522,-0.002,-0.002,0.997,0.01,0.10,0.12,-0.07,0.12,1000,1000,1000,1000,1000,1000,0,1500,1500,989,1500,4294967285,0.00,0.00,0.00,0.00,0.00,0.00,0.00,0.00,0.00,0.00,0.00,0.00
8924522,-0.001,0.005,0.994,0.01,0.08,0.13,-0.02,0.12,1000,1000,1000,1000,1000,1000,0,1500,1500,989,1500,4294967284,0.00,0.00,0.00,0.00,0.00,0.00,0.00,0.00,0.00,0.00,0.00,0.00
8928522,-0.003,0.011,0.991,-0.02,0.05,0.10,0.02,0.12,1000,1000,1000,1000,1000,1000,0,1500,1500,989,1500,4294967283,0.00,0.00,0.00,0.00,0.00,0.00,0.00,0.00,0.00,0.00,0.00,0.00
8932522,-0.006,0.015,0.989,-0.04,0.04,0.06,0.07,0.13,1000,1000,1000,1000,1000,1000,0,1500,1500,989,1500,4294967284,0.00,0.00,0.00,0.00,0.00,0.00,0.00,0.00,0.00,0.00,0.00,0.00
8936522,-0.012,0.015,0.991,-0.03,0.00,0.02,0.11,0.16,1000,1000,1000,1000,1000,1000,0,1500,1500,989,1500,4294967285,0.00,0.00,0.00,0.00,0.00,0.00,0.00,0.00,0.00,0.00,0.00,0.00
8940522,-0.015,0.011,0.994,-0.05,-0.04,-0.00,0.13,0.19,1000,1000,1000,1000,1000,1000,0,1500,1500,989,1500,4294967284,0.00,0.00,0.00,0.00,0.00,0.00,0.00,0.00,0.00,0.00,0.00,0.00
8944522,-0.019,0.004,0.998,-0.07,-0.06,-0.03,0.14,0.24,1000,1000,1000,1000,1000,1000,0,1500,1500,989,1500,4294967283,0.00,0.00,0.00,0.00,0.00,0.00,0.00,0.00,0.00,0.00,0.00,0.00
8948522,-0.020,-0.002,0.996,-0.09,-0.07,-0.05,0.13,0.28,1000,1000,1000,1000,1000,1000,0,1500,1500,989,1500,4294967284,0.00,0.00,0.00,0.00,0.00,0.00,0.00,0.00,0.00,0.00,0.00,0.00
8952522,-0.016,-0.009,0.995,-0.10,-0.04,-0.05,0.09,0.32,1000,1000,1000,1000,1000,1000,0,1500,1500,989,1500,4294967285,0.00,0.00,0.00,0.00,0.00,0.00,0.00,0.00,0.00,0.00,0.00,0.00
8956522,-0.007,-0.014,0.988,-0.07,-0.06,-0.03,0.05,0.32,1000,1000,1000,1000,1000,1000,0,1500,1500,989,1500,4294967284,0.00,0.00,0.00,0.00,0.00,0.00,0.00,0.00,0.00,0.00,0.00,0.00
8960522,0.001,-0.018,0.997,-0.06,-0.05,-0.00,0.00,0.30,1000,1000,1000,1000,1000,1000,0,1500,1500,989,1500,4294967283,0.00,0.00,0.00,0.00,0.00,0.00,0.00,0.00,0.00,0.00,0.00,0.00
8964522,0.008,-0.019,1.007,-0.06,-0.05,0.01,-0.03,0.28,1000,1000,1000,1000,1000,1000,0,1500,1500,989,1500,4294967284,0.00,0.00,0.00,0.00,0.00,0.00,0.00,0.00,0.00,0.00,0.00,0.00
